Time (s),Acc_x (m/s^2),Acc_y (m/s^2),Acc_z (m/s^2),Pitch (°),Roll (°),Yaw (°),Gyro_x,Gyro_y,Gyro_z,Pressure,Altitude,Mag_x,Mag_y,Mag_z
0.0,0.0,0.3,0.0,0.0,0.2,45.0,0.0,0.0,0.0,0.0,0.0,0.0,0.0,0.0
0.01,0.04705415665925716,0.29866858938092394,0.0,0.0062821518156256605,0.19990131207314635,45.0,0.0,0.0,0.0,0.0,0.0,0.0,0.0,0.0
0.02,0.09369065729286233,0.29468617521860657,0.0,0.012558103905862676,0.19960534568565433,45.0,0.0,0.0,0.0,0.0,0.0,0.0,0.0,0.0
0.03,0.13949555301961464,0.28808810570308296,0.0,0.018821662663702863,0.19911239292061597,45.0,0.0,0.0,0.0,0.0,0.0,0.0,0.0,0.0
0.04,0.18406227634233902,0.27893294576647537,0.0,0.02506664671286085,0.19842294026289553,45.0,0.0,0.0,0.0,0.0,0.0,0.0,0.0,0.0
0.05,0.22699524986977337,0.2673019572565103,0.0,0.03128689300804618,0.19753766811902754,45.0,0.0,0.0,0.0,0.0,0.0,0.0,0.0,0.0
0.06,0.2679133974894983,0.25329837765060453,0.0,0.037476262917144926,0.19645745014573773,45.0,0.0,0.0,0.0,0.0,0.0,0.0,0.0,0.0
0.07,0.30645352682648824,0.23704650371270714,0.0,0.04362864827930853,0.19518335238774953,45.0,0.0,0.0,0.0,0.0,0.0,0.0,0.0,0.0
0.08,0.34227355296434436,0.21869058822642348,0.0,0.049737977432970974,0.19371663222572627,45.0,0.0,0.0,0.0,0.0,0.0,0.0,0.0,0.0
0.09,0.3750555348152298,0.19839355959709556,0.0,0.05579822120784586,0.19205873713538865,45.0,0.0,0.0,0.0,0.0,0.0,0.0,0.0,0.0
0.1,0.4045084971874737,0.17633557568774194,0.0,0.06180339887498949,0.19021130325903074,45.0,0.0,0.0,0.0,0.0,0.0,0.0,0.0,0.0
0.11,0.43037101350197177,0.15271242472511143,0.0,0.06774758404905828,0.1881761537908451,45.0,0.0,0.0,0.0,0.0,0.0,0.0,0.0,0.0
0.12,0.45241352623300973,0.1277337874695218,0.0,0.0736249105369356,0.18595529717765025,45.0,0.0,0.0,0.0,0.0,0.0,0.0,0.0,0.0
0.13,0.4704403844771127,0.10162137607358744,0.0,0.07942957812695613,0.18355092513679622,45.0,0.0,0.0,0.0,0.0,0.0,0.0,0.0,0.0
0.14,0.48429158056431565,0.07460696614945643,0.0,0.08515585831301455,0.18096541049320386,45.0,0.0,0.0,0.0,0.0,0.0,0.0,0.0,0.0
0.15,0.49384417029756883,0.04693033951206928,0.0,0.09079809994790936,0.17820130483767355,45.0,0.0,0.0,0.0,0.0,0.0,0.0,0.0,0.0
0.16,0.49901336421413583,0.018837155858793985,0.0,0.09635073482034306,0.1752613360087727,45.0,0.0,0.0,0.0,0.0,0.0,0.0,0.0,0.0
0.17,0.49975328018286586,-0.009423227723438484,0.0,0.10180828315007427,0.1721484054007887,45.0,0.0,0.0,0.0,0.0,0.0,0.0,0.0,0.0
0.18,0.4960573506572388,-0.03759997006929124,0.0,0.10716535899579932,0.16886558510040303,45.0,0.0,0.0,0.0,0.0,0.0,0.0,0.0,0.0
0.19,0.4879583809693738,-0.06544297241896278,0.0,0.1124166755704261,0.1654161148549124,45.0,0.0,0.0,0.0,0.0,0.0,0.0,0.0,0.0
0.2,0.4755282581475769,-0.09270509831248422,0.0,0.11755705045849461,0.1618033988749895,45.0,0.0,0.0,0.0,0.0,0.0,0.0,0.0,0.0
0.21,0.45887731284199057,-0.11914436719043414,0.0,0.12258141073059528,0.15803100247513813,45.0,0.0,0.0,0.0,0.0,0.0,0.0,0.0,0.0
0.22,0.43815334002193185,-0.14452610223051449,0.0,0.12748479794973794,0.15410264855515787,45.0,0.0,0.0,0.0,0.0,0.0,0.0,0.0,0.0
0.23,0.4135402871372809,-0.16862501335563918,0.0,0.13226237306473038,0.15002221392609194,45.0,0.0,0.0,0.0,0.0,0.0,0.0,0.0,0.0
0.24,0.3852566213878947,-0.19122719692460688,0.0,0.13690942118573773,0.14579372548428235,45.0,0.0,0.0,0.0,0.0,0.0,0.0,0.0,0.0
0.25,0.35355339059327384,-0.21213203435596423,0.0,0.14142135623730953,0.14142135623730953,45.0,0.0,0.0,0.0,0.0,0.0,0.0,0.0,0.0
0.26,0.3187119948743449,-0.23115397283273675,0.0,0.14579372548428235,0.13690942118573776,45.0,0.0,0.0,0.0,0.0,0.0,0.0,0.0,0.0
0.27,0.2810416889260652,-0.24812417228236858,0.0,0.15002221392609194,0.13226237306473038,45.0,0.0,0.0,0.0,0.0,0.0,0.0,0.0,0.0
0.28,0.24087683705085758,-0.26289200401315904,0.0,0.15410264855515787,0.12748479794973794,45.0,0.0,0.0,0.0,0.0,0.0,0.0,0.0,0.0
0.29,0.19857394531739053,-0.27532638770519424,0.0,0.1580310024751381,0.12258141073059531,45.0,0.0,0.0,0.0,0.0,0.0,0.0,0.0,0.0
0.3,0.15450849718747378,-0.2853169548885461,0.0,0.1618033988749895,0.11755705045849463,45.0,0.0,0.0,0.0,0.0,0.0,0.0,0.0,0.0
0.31,0.10907162069827138,-0.29277502858162424,0.0,0.1654161148549124,0.11241667557042612,45.0,0.0,0.0,0.0,0.0,0.0,0.0,0.0,0.0
0.32,0.06266661678215205,-0.2976344103943433,0.0,0.16886558510040303,0.10716535899579932,45.0,0.0,0.0,0.0,0.0,0.0,0.0,0.0,0.0
0.33,0.01570537953906412,-0.2998519681097195,0.0,0.17214840540078874,0.10180828315007424,45.0,0.0,0.0,0.0,0.0,0.0,0.0,0.0,0.0
0.34,-0.031395259764656666,-0.2994080185284815,0.0,0.17526133600877272,0.09635073482034304,45.0,0.0,0.0,0.0,0.0,0.0,0.0,0.0,0.0
0.35000000000000003,-0.0782172325201156,-0.29630650217854126,0.0,0.17820130483767355,0.09079809994790937,45.0,0.0,0.0,0.0,0.0,0.0,0.0,0.0,0.0
0.36,-0.12434494358242731,-0.2905749483385894,0.0,0.18096541049320392,0.08515585831301453,45.0,0.0,0.0,0.0,0.0,0.0,0.0,0.0,0.0
0.37,-0.16936896012264557,-0.28226423068626766,0.0,0.18355092513679622,0.07942957812695611,45.0,0.0,0.0,0.0,0.0,0.0,0.0,0.0,0.0
0.38,-0.21288964578253636,-0.2714481157398058,0.0,0.18595529717765027,0.07362491053693562,45.0,0.0,0.0,0.0,0.0,0.0,0.0,0.0,0.0
0.39,-0.2545207078751856,-0.2582226081011831,0.0,0.1881761537908451,0.0677475840490583,45.0,0.0,0.0,0.0,0.0,0.0,0.0,0.0,0.0
0.4,-0.29389262614623646,-0.2427050983124843,0.0,0.19021130325903074,0.06180339887498951,45.0,0.0,0.0,0.0,0.0,0.0,0.0,0.0,0.0
0.41000000000000003,-0.330655932661826,-0.22503332088913786,0.0,0.19205873713538865,0.05579822120784586,45.0,0.0,0.0,0.0,0.0,0.0,0.0,0.0,0.0
0.42,-0.3644843137107057,-0.20536413177860668,0.0,0.19371663222572624,0.049737977432971,45.0,0.0,0.0,0.0,0.0,0.0,0.0,0.0,0.0
0.43,-0.39507750618784526,-0.1838721160958929,0.0,0.19518335238774953,0.04362864827930854,45.0,0.0,0.0,0.0,0.0,0.0,0.0,0.0,0.0
0.44,-0.42216396275100737,-0.1607480384936991,0.0,0.19645745014573776,0.03747626291714495,45.0,0.0,0.0,0.0,0.0,0.0,0.0,0.0,0.0
0.45,-0.4455032620941838,-0.13619714992186407,0.0,0.19753766811902754,0.031286893008046185,45.0,0.0,0.0,0.0,0.0,0.0,0.0,0.0,0.0
0.46,-0.46488824294412573,-0.11043736580540334,0.0,0.19842294026289553,0.02506664671286085,45.0,0.0,0.0,0.0,0.0,0.0,0.0,0.0,0.0
0.47000000000000003,-0.48014684283847164,-0.08369733181176862,0.0,0.199112392920616,0.01882166266370286,45.0,0.0,0.0,0.0,0.0,0.0,0.0,0.0,0.0
0.48,-0.49114362536434436,-0.056214394375717396,0.0,0.19960534568565433,0.012558103905862704,45.0,0.0,0.0,0.0,0.0,0.0,0.0,0.0,0.0
0.49,-0.4977809823015399,-0.028232493995554456,0.0,0.19990131207314635,0.006282151815625681,45.0,0.0,0.0,0.0,0.0,0.0,0.0,0.0,0.0
0.5,-0.5,-5.510910596163089e-17,0.0,0.2,1.2246467991473533e-17,45.0,0.0,0.0,0.0,0.0,0.0,0.0,0.0,0.0
0.51,-0.49778098230153994,0.028232493995554345,0.0,0.19990131207314635,-0.006282151815625656,45.0,0.0,0.0,0.0,0.0,0.0,0.0,0.0,0.0
0.52,-0.4911436253643444,0.05621439437571728,0.0,0.19960534568565436,-0.012558103905862681,45.0,0.0,0.0,0.0,0.0,0.0,0.0,0.0,0.0
0.53,-0.4801468428384716,0.08369733181176878,0.0,0.199112392920616,-0.01882166266370288,45.0,0.0,0.0,0.0,0.0,0.0,0.0,0.0,0.0
0.54,-0.4648882429441256,0.11043736580540349,0.0,0.19842294026289553,-0.025066646712860876,45.0,0.0,0.0,0.0,0.0,0.0,0.0,0.0,0.0
0.55,-0.4455032620941839,0.13619714992186396,0.0,0.19753766811902754,-0.031286893008046206,45.0,0.0,0.0,0.0,0.0,0.0,0.0,0.0,0.0
0.56,-0.4221639627510075,0.16074803849369898,0.0,0.19645745014573776,-0.037476262917144974,45.0,0.0,0.0,0.0,0.0,0.0,0.0,0.0,0.0
0.5700000000000001,-0.3950775061878451,0.18387211609589305,0.0,0.19518335238774953,-0.04362864827930853,45.0,0.0,0.0,0.0,0.0,0.0,0.0,0.0,0.0
0.58,-0.3644843137107061,0.20536413177860638,0.0,0.19371663222572627,-0.04973797743297094,45.0,0.0,0.0,0.0,0.0,0.0,0.0,0.0,0.0
0.59,-0.33065593266182614,0.22503332088913777,0.0,0.19205873713538868,-0.05579822120784583,45.0,0.0,0.0,0.0,0.0,0.0,0.0,0.0,0.0
0.6,-0.2938926261462366,0.24270509831248419,0.0,0.19021130325903077,-0.06180339887498948,45.0,0.0,0.0,0.0,0.0,0.0,0.0,0.0,0.0
0.61,-0.25452070787518594,0.25822260810118297,0.0,0.18817615379084512,-0.06774758404905828,45.0,0.0,0.0,0.0,0.0,0.0,0.0,0.0,0.0
0.62,-0.2128896457825365,0.27144811573980576,0.0,0.1859552971776503,-0.07362491053693561,45.0,0.0,0.0,0.0,0.0,0.0,0.0,0.0,0.0
0.63,-0.16936896012264574,0.2822642306862676,0.0,0.18355092513679624,-0.07942957812695611,45.0,0.0,0.0,0.0,0.0,0.0,0.0,0.0,0.0
0.64,-0.12434494358242726,0.2905749483385894,0.0,0.18096541049320392,-0.08515585831301456,45.0,0.0,0.0,0.0,0.0,0.0,0.0,0.0,0.0
0.65,-0.07821723252011556,0.29630650217854126,0.0,0.17820130483767357,-0.09079809994790934,45.0,0.0,0.0,0.0,0.0,0.0,0.0,0.0,0.0
0.66,-0.03139525976465663,0.2994080185284815,0.0,0.1752613360087727,-0.09635073482034308,45.0,0.0,0.0,0.0,0.0,0.0,0.0,0.0,0.0
0.67,0.01570537953906438,0.29985196810971954,0.0,0.17214840540078874,-0.10180828315007424,45.0,0.0,0.0,0.0,0.0,0.0,0.0,0.0,0.0
0.68,0.06266661678215209,0.2976344103943433,0.0,0.168865585100403,-0.10716535899579936,45.0,0.0,0.0,0.0,0.0,0.0,0.0,0.0,0.0
0.6900000000000001,0.10907162069827142,0.29277502858162424,0.0,0.16541611485491237,-0.11241667557042612,45.0,0.0,0.0,0.0,0.0,0.0,0.0,0.0,0.0
0.7000000000000001,0.15450849718747406,0.285316954888546,0.0,0.1618033988749895,-0.11755705045849459,45.0,0.0,0.0,0.0,0.0,0.0,0.0,0.0,0.0
0.71,0.19857394531738995,0.27532638770519435,0.0,0.15803100247513813,-0.12258141073059524,45.0,0.0,0.0,0.0,0.0,0.0,0.0,0.0,0.0
0.72,0.24087683705085744,0.2628920040131591,0.0,0.15410264855515787,-0.12748479794973794,45.0,0.0,0.0,0.0,0.0,0.0,0.0,0.0,0.0
0.73,0.28104168892606524,0.24812417228236858,0.0,0.15002221392609194,-0.13226237306473035,45.0,0.0,0.0,0.0,0.0,0.0,0.0,0.0,0.0
0.74,0.3187119948743446,0.23115397283273692,0.0,0.14579372548428232,-0.13690942118573776,45.0,0.0,0.0,0.0,0.0,0.0,0.0,0.0,0.0
0.75,0.3535533905932737,0.21213203435596434,0.0,0.14142135623730953,-0.1414213562373095,45.0,0.0,0.0,0.0,0.0,0.0,0.0,0.0,0.0
0.76,0.3852566213878947,0.19122719692460688,0.0,0.13690942118573776,-0.14579372548428227,45.0,0.0,0.0,0.0,0.0,0.0,0.0,0.0,0.0
0.77,0.4135402871372808,0.16862501335563926,0.0,0.13226237306473038,-0.15002221392609194,45.0,0.0,0.0,0.0,0.0,0.0,0.0,0.0,0.0
0.78,0.43815334002193174,0.1445261022305146,0.0,0.12748479794973797,-0.15410264855515787,45.0,0.0,0.0,0.0,0.0,0.0,0.0,0.0,0.0
0.79,0.45887731284199057,0.11914436719043413,0.0,0.12258141073059528,-0.15803100247513813,45.0,0.0,0.0,0.0,0.0,0.0,0.0,0.0,0.0
0.8,0.47552825814757677,0.09270509831248433,0.0,0.11755705045849463,-0.1618033988749895,45.0,0.0,0.0,0.0,0.0,0.0,0.0,0.0,0.0
0.81,0.4879583809693738,0.06544297241896276,0.0,0.11241667557042608,-0.1654161148549124,45.0,0.0,0.0,0.0,0.0,0.0,0.0,0.0,0.0
0.8200000000000001,0.4960573506572389,0.03759997006929115,0.0,0.10716535899579932,-0.16886558510040303,45.0,0.0,0.0,0.0,0.0,0.0,0.0,0.0,0.0
0.8300000000000001,0.49975328018286586,0.00942322772343826,0.0,0.1018082831500742,-0.17214840540078877,45.0,0.0,0.0,0.0,0.0,0.0,0.0,0.0,0.0
0.84,0.49901336421413583,-0.018837155858793815,0.0,0.09635073482034312,-0.1752613360087727,45.0,0.0,0.0,0.0,0.0,0.0,0.0,0.0,0.0
0.85,0.49384417029756894,-0.04693033951206891,0.0,0.09079809994790938,-0.17820130483767355,45.0,0.0,0.0,0.0,0.0,0.0,0.0,0.0,0.0
0.86,0.48429158056431565,-0.07460696614945646,0.0,0.08515585831301459,-0.18096541049320386,45.0,0.0,0.0,0.0,0.0,0.0,0.0,0.0,0.0
0.87,0.47044038447711284,-0.10162137607358727,0.0,0.07942957812695613,-0.18355092513679622,45.0,0.0,0.0,0.0,0.0,0.0,0.0,0.0,0.0
0.88,0.45241352623300995,-0.12773378746952152,0.0,0.07362491053693564,-0.18595529717765025,45.0,0.0,0.0,0.0,0.0,0.0,0.0,0.0,0.0
0.89,0.43037101350197177,-0.15271242472511143,0.0,0.06774758404905827,-0.18817615379084512,45.0,0.0,0.0,0.0,0.0,0.0,0.0,0.0,0.0
0.9,0.40450849718747384,-0.17633557568774183,0.0,0.061803398874989514,-0.19021130325903074,45.0,0.0,0.0,0.0,0.0,0.0,0.0,0.0,0.0
0.91,0.37505553481523013,-0.19839355959709534,0.0,0.055798221207845826,-0.19205873713538868,45.0,0.0,0.0,0.0,0.0,0.0,0.0,0.0,0.0
0.92,0.3422735529643442,-0.21869058822642357,0.0,0.049737977432970974,-0.19371663222572627,45.0,0.0,0.0,0.0,0.0,0.0,0.0,0.0,0.0
0.93,0.30645352682648824,-0.23704650371270708,0.0,0.04362864827930847,-0.19518335238774953,45.0,0.0,0.0,0.0,0.0,0.0,0.0,0.0,0.0
0.9400000000000001,0.2679133974894978,-0.2532983776506047,0.0,0.03747626291714492,-0.19645745014573773,45.0,0.0,0.0,0.0,0.0,0.0,0.0,0.0,0.0
0.9500000000000001,0.22699524986977315,-0.2673019572565104,0.0,0.0312868930080462,-0.19753766811902754,45.0,0.0,0.0,0.0,0.0,0.0,0.0,0.0,0.0
0.96,0.18406227634233902,-0.27893294576647537,0.0,0.025066646712860907,-0.19842294026289553,45.0,0.0,0.0,0.0,0.0,0.0,0.0,0.0,0.0
0.97,0.13949555301961492,-0.2880881057030829,0.0,0.018821662663702873,-0.19911239292061597,45.0,0.0,0.0,0.0,0.0,0.0,0.0,0.0,0.0
0.98,0.09369065729286286,-0.29468617521860657,0.0,0.012558103905862717,-0.19960534568565433,45.0,0.0,0.0,0.0,0.0,0.0,0.0,0.0,0.0
0.99,0.04705415665925707,-0.29866858938092394,0.0,0.006282151815625649,-0.19990131207314635,45.0,0.0,0.0,0.0,0.0,0.0,0.0,0.0,0.0
1.0,1.8369701987210297e-16,-0.3,0.0,2.4492935982947065e-17,-0.2,45.0,0.0,0.0,0.0,0.0,0.0,0.0,0.0,0.0
1.01,-0.04705415665925671,-0.29866858938092394,0.0,-0.006282151815625599,-0.19990131207314635,45.0,0.0,0.0,0.0,0.0,0.0,0.0,0.0,0.0
1.02,-0.0936906572928625,-0.29468617521860657,0.0,-0.012558103905862667,-0.19960534568565436,45.0,0.0,0.0,0.0,0.0,0.0,0.0,0.0,0.0
1.03,-0.13949555301961455,-0.28808810570308296,0.0,-0.01882166266370282,-0.199112392920616,45.0,0.0,0.0,0.0,0.0,0.0,0.0,0.0,0.0
1.04,-0.18406227634233865,-0.2789329457664755,0.0,-0.025066646712860866,-0.19842294026289553,45.0,0.0,0.0,0.0,0.0,0.0,0.0,0.0,0.0
1.05,-0.2269952498697736,-0.26730195725651024,0.0,-0.03128689300804615,-0.19753766811902754,45.0,0.0,0.0,0.0,0.0,0.0,0.0,0.0,0.0
1.06,-0.2679133974894983,-0.25329837765060453,0.0,-0.03747626291714496,-0.19645745014573773,45.0,0.0,0.0,0.0,0.0,0.0,0.0,0.0,0.0
1.07,-0.306453526826488,-0.23704650371270725,0.0,-0.04362864827930851,-0.19518335238774953,45.0,0.0,0.0,0.0,0.0,0.0,0.0,0.0,0.0
1.08,-0.3422735529643446,-0.21869058822642332,0.0,-0.04973797743297101,-0.19371663222572624,45.0,0.0,0.0,0.0,0.0,0.0,0.0,0.0,0.0
1.09,-0.37505553481522985,-0.1983935595970955,0.0,-0.05579822120784587,-0.19205873713538865,45.0,0.0,0.0,0.0,0.0,0.0,0.0,0.0,0.0
1.1,-0.40450849718747367,-0.176335575687742,0.0,-0.06180339887498956,-0.1902113032590307,45.0,0.0,0.0,0.0,0.0,0.0,0.0,0.0,0.0
1.11,-0.430371013501972,-0.15271242472511115,0.0,-0.06774758404905831,-0.1881761537908451,45.0,0.0,0.0,0.0,0.0,0.0,0.0,0.0,0.0
1.12,-0.45241352623300973,-0.12773378746952171,0.0,-0.07362491053693568,-0.18595529717765025,45.0,0.0,0.0,0.0,0.0,0.0,0.0,0.0,0.0
1.1300000000000001,-0.470440384477113,-0.101621376073587,0.0,-0.07942957812695617,-0.1835509251367962,45.0,0.0,0.0,0.0,0.0,0.0,0.0,0.0,0.0
1.1400000000000001,-0.48429158056431576,-0.07460696614945617,0.0,-0.08515585831301455,-0.1809654104932039,45.0,0.0,0.0,0.0,0.0,0.0,0.0,0.0,0.0
1.1500000000000001,-0.4938441702975689,-0.046930339512069125,0.0,-0.09079809994790942,-0.17820130483767352,45.0,0.0,0.0,0.0,0.0,0.0,0.0,0.0,0.0
1.16,-0.4990133642141357,-0.018837155858794565,0.0,-0.09635073482034301,-0.17526133600877275,45.0,0.0,0.0,0.0,0.0,0.0,0.0,0.0,0.0
1.17,-0.4997532801828659,0.009423227723438307,0.0,-0.10180828315007417,-0.1721484054007888,45.0,0.0,0.0,0.0,0.0,0.0,0.0,0.0,0.0
1.18,-0.4960573506572389,0.03759997006929094,0.0,-0.10716535899579926,-0.16886558510040306,45.0,0.0,0.0,0.0,0.0,0.0,0.0,0.0,0.0
1.19,-0.48795838096937394,0.06544297241896228,0.0,-0.11241667557042603,-0.16541611485491245,45.0,0.0,0.0,0.0,0.0,0.0,0.0,0.0,0.0
1.2,-0.4755282581475769,0.09270509831248412,0.0,-0.11755705045849459,-0.16180339887498954,45.0,0.0,0.0,0.0,0.0,0.0,0.0,0.0,0.0
1.21,-0.4588773128419907,0.11914436719043392,0.0,-0.12258141073059524,-0.15803100247513815,45.0,0.0,0.0,0.0,0.0,0.0,0.0,0.0,0.0
1.22,-0.4381533400219321,0.14452610223051415,0.0,-0.12748479794973794,-0.15410264855515787,45.0,0.0,0.0,0.0,0.0,0.0,0.0,0.0,0.0
1.23,-0.413540287137281,0.16862501335563906,0.0,-0.13226237306473035,-0.15002221392609197,45.0,0.0,0.0,0.0,0.0,0.0,0.0,0.0,0.0
1.24,-0.3852566213878949,0.19122719692460668,0.0,-0.13690942118573776,-0.14579372548428235,45.0,0.0,0.0,0.0,0.0,0.0,0.0,0.0,0.0
1.25,-0.35355339059327423,0.21213203435596398,0.0,-0.1414213562373095,-0.14142135623730953,45.0,0.0,0.0,0.0,0.0,0.0,0.0,0.0,0.0
1.26,-0.3187119948743449,0.23115397283273675,0.0,-0.1457937254842823,-0.1369094211857378,45.0,0.0,0.0,0.0,0.0,0.0,0.0,0.0,0.0
1.27,-0.2810416889260655,0.24812417228236844,0.0,-0.15002221392609194,-0.1322623730647304,45.0,0.0,0.0,0.0,0.0,0.0,0.0,0.0,0.0
1.28,-0.24087683705085733,0.26289200401315915,0.0,-0.1541026485551579,-0.1274847979497379,45.0,0.0,0.0,0.0,0.0,0.0,0.0,0.0,0.0
1.29,-0.19857394531739028,0.2753263877051943,0.0,-0.15803100247513813,-0.12258141073059528,45.0,0.0,0.0,0.0,0.0,0.0,0.0,0.0,0.0
1.3,-0.15450849718747398,0.285316954888546,0.0,-0.1618033988749895,-0.11755705045849466,45.0,0.0,0.0,0.0,0.0,0.0,0.0,0.0,0.0
1.31,-0.10907162069827092,0.2927750285816243,0.0,-0.16541611485491237,-0.11241667557042617,45.0,0.0,0.0,0.0,0.0,0.0,0.0,0.0,0.0
1.32,-0.06266661678215202,0.2976344103943433,0.0,-0.16886558510040306,-0.10716535899579925,45.0,0.0,0.0,0.0,0.0,0.0,0.0,0.0,0.0
1.33,-0.015705379539064302,0.2998519681097195,0.0,-0.17214840540078874,-0.10180828315007423,45.0,0.0,0.0,0.0,0.0,0.0,0.0,0.0,0.0
1.34,0.03139525976465715,0.2994080185284814,0.0,-0.1752613360087727,-0.09635073482034306,45.0,0.0,0.0,0.0,0.0,0.0,0.0,0.0,0.0
1.35,0.07821723252011563,0.29630650217854126,0.0,-0.17820130483767352,-0.09079809994790938,45.0,0.0,0.0,0.0,0.0,0.0,0.0,0.0,0.0
1.36,0.12434494358242734,0.2905749483385894,0.0,-0.18096541049320392,-0.08515585831301443,45.0,0.0,0.0,0.0,0.0,0.0,0.0,0.0,0.0
1.37,0.1693689601226462,0.2822642306862675,0.0,-0.18355092513679624,-0.07942957812695606,45.0,0.0,0.0,0.0,0.0,0.0,0.0,0.0,0.0
1.3800000000000001,0.21288964578253658,0.2714481157398057,0.0,-0.1859552971776503,-0.07362491053693557,45.0,0.0,0.0,0.0,0.0,0.0,0.0,0.0,0.0
1.3900000000000001,0.25452070787518566,0.258222608101183,0.0,-0.1881761537908451,-0.06774758404905828,45.0,0.0,0.0,0.0,0.0,0.0,0.0,0.0,0.0
1.4000000000000001,0.29389262614623707,0.24270509831248402,0.0,-0.1902113032590307,-0.06180339887498953,45.0,0.0,0.0,0.0,0.0,0.0,0.0,0.0,0.0
1.41,0.3306559326618255,0.2250333208891381,0.0,-0.19205873713538862,-0.05579822120784592,45.0,0.0,0.0,0.0,0.0,0.0,0.0,0.0,0.0
1.42,0.3644843137107053,0.20536413177860693,0.0,-0.19371663222572624,-0.049737977432971064,45.0,0.0,0.0,0.0,0.0,0.0,0.0,0.0,0.0
1.43,0.39507750618784515,0.18387211609589302,0.0,-0.19518335238774948,-0.04362864827930866,45.0,0.0,0.0,0.0,0.0,0.0,0.0,0.0,0.0
1.44,0.4221639627510073,0.1607480384936992,0.0,-0.19645745014573776,-0.03747626291714493,45.0,0.0,0.0,0.0,0.0,0.0,0.0,0.0,0.0
1.45,0.44550326209418356,0.1361971499218644,0.0,-0.1975376681190275,-0.03128689300804621,45.0,0.0,0.0,0.0,0.0,0.0,0.0,0.0,0.0
1.46,0.4648882429441257,0.11043736580540343,0.0,-0.19842294026289553,-0.025066646712860925,45.0,0.0,0.0,0.0,0.0,0.0,0.0,0.0,0.0
1.47,0.48014684283847153,0.083697331811769,0.0,-0.19911239292061597,-0.01882166266370297,45.0,0.0,0.0,0.0,0.0,0.0,0.0,0.0,0.0
1.48,0.49114362536434425,0.05621439437571776,0.0,-0.19960534568565436,-0.01255810390586264,45.0,0.0,0.0,0.0,0.0,0.0,0.0,0.0,0.0
1.49,0.49778098230153994,0.0282324939955543,0.0,-0.19990131207314635,-0.0062821518156256605,45.0,0.0,0.0,0.0,0.0,0.0,0.0,0.0,0.0
1.5,0.4999999999999999,1.6532731788489269e-16,0.0,-0.2,-3.6739403974420595e-17,45.0,0.0,0.0,0.0,0.0,0.0,0.0,0.0,0.0
1.51,0.49778098230154,-0.028232493995553967,0.0,-0.19990131207314635,0.006282151815625588,45.0,0.0,0.0,0.0,0.0,0.0,0.0,0.0,0.0
1.52,0.49114362536434436,-0.05621439437571744,0.0,-0.19960534568565436,0.01255810390586257,45.0,0.0,0.0,0.0,0.0,0.0,0.0,0.0,0.0
1.53,0.48014684283847164,-0.08369733181176868,0.0,-0.199112392920616,0.0188216626637029,45.0,0.0,0.0,0.0,0.0,0.0,0.0,0.0,0.0
1.54,0.46488824294412584,-0.11043736580540314,0.0,-0.19842294026289553,0.025066646712860848,45.0,0.0,0.0,0.0,0.0,0.0,0.0,0.0,0.0
1.55,0.4455032620941838,-0.1361971499218641,0.0,-0.19753766811902754,0.031286893008046136,45.0,0.0,0.0,0.0,0.0,0.0,0.0,0.0,0.0
1.56,0.42216396275100765,-0.1607480384936989,0.0,-0.1964574501457378,0.037476262917144856,45.0,0.0,0.0,0.0,0.0,0.0,0.0,0.0,0.0
1.57,0.3950775061878455,-0.18387211609589274,0.0,-0.19518335238774953,0.04362864827930858,45.0,0.0,0.0,0.0,0.0,0.0,0.0,0.0,0.0
1.58,0.36448431371070567,-0.2053641317786067,0.0,-0.19371663222572624,0.049737977432971,45.0,0.0,0.0,0.0,0.0,0.0,0.0,0.0,0.0
1.59,0.33065593266182597,-0.22503332088913786,0.0,-0.19205873713538865,0.05579822120784586,45.0,0.0,0.0,0.0,0.0,0.0,0.0,0.0,0.0
1.6,0.2938926261462368,-0.24270509831248413,0.0,-0.19021130325903077,0.06180339887498946,45.0,0.0,0.0,0.0,0.0,0.0,0.0,0.0,0.0
1.61,0.2545207078751854,-0.2582226081011832,0.0,-0.18817615379084507,0.06774758404905838,45.0,0.0,0.0,0.0,0.0,0.0,0.0,0.0,0.0
1.62,0.21288964578253627,-0.2714481157398058,0.0,-0.18595529717765025,0.07362491053693566,45.0,0.0,0.0,0.0,0.0,0.0,0.0,0.0,0.0
1.6300000000000001,0.16936896012264507,-0.28226423068626777,0.0,-0.18355092513679622,0.07942957812695617,45.0,0.0,0.0,0.0,0.0,0.0,0.0,0.0,0.0
1.6400000000000001,0.12434494358242701,-0.29057494833858943,0.0,-0.18096541049320392,0.08515585831301453,45.0,0.0,0.0,0.0,0.0,0.0,0.0,0.0,0.0
1.6500000000000001,0.0782172325201153,-0.2963065021785413,0.0,-0.17820130483767357,0.09079809994790933,45.0,0.0,0.0,0.0,0.0,0.0,0.0,0.0,0.0
1.6600000000000001,0.03139525976465593,-0.2994080185284815,0.0,-0.17526133600877267,0.09635073482034313,45.0,0.0,0.0,0.0,0.0,0.0,0.0,0.0,0.0
1.67,-0.015705379539063754,-0.2998519681097195,0.0,-0.1721484054007888,0.10180828315007416,45.0,0.0,0.0,0.0,0.0,0.0,0.0,0.0,0.0
1.68,-0.06266661678215146,-0.29763441039434335,0.0,-0.16886558510040311,0.10716535899579918,45.0,0.0,0.0,0.0,0.0,0.0,0.0,0.0,0.0
1.69,-0.10907162069827038,-0.29277502858162435,0.0,-0.1654161148549124,0.1124166755704261,45.0,0.0,0.0,0.0,0.0,0.0,0.0,0.0,0.0
1.7,-0.1545084971874726,-0.2853169548885463,0.0,-0.16180339887498954,0.11755705045849457,45.0,0.0,0.0,0.0,0.0,0.0,0.0,0.0,0.0
1.71,-0.19857394531738978,-0.2753263877051944,0.0,-0.15803100247513815,0.12258141073059521,45.0,0.0,0.0,0.0,0.0,0.0,0.0,0.0,0.0
1.72,-0.24087683705085763,-0.26289200401315904,0.0,-0.15410264855515796,0.12748479794973785,45.0,0.0,0.0,0.0,0.0,0.0,0.0,0.0,0.0
1.73,-0.2810416889260643,-0.24812417228236894,0.0,-0.15002221392609194,0.1322623730647304,45.0,0.0,0.0,0.0,0.0,0.0,0.0,0.0,0.0
1.74,-0.31871199487434443,-0.231153972832737,0.0,-0.14579372548428235,0.13690942118573773,45.0,0.0,0.0,0.0,0.0,0.0,0.0,0.0,0.0
1.75,-0.35355339059327384,-0.2121320343559642,0.0,-0.14142135623730953,0.14142135623730948,45.0,0.0,0.0,0.0,0.0,0.0,0.0,0.0,0.0
1.76,-0.385256621387894,-0.19122719692460738,0.0,-0.1369094211857378,0.14579372548428227,45.0,0.0,0.0,0.0,0.0,0.0,0.0,0.0,0.0
1.77,-0.4135402871372807,-0.16862501335563934,0.0,-0.13226237306473046,0.15002221392609186,45.0,0.0,0.0,0.0,0.0,0.0,0.0,0.0,0.0
1.78,-0.43815334002193185,-0.14452610223051446,0.0,-0.1274847979497379,0.15410264855515787,45.0,0.0,0.0,0.0,0.0,0.0,0.0,0.0,0.0
1.79,-0.4588773128419901,-0.11914436719043471,0.0,-0.12258141073059531,0.1580310024751381,45.0,0.0,0.0,0.0,0.0,0.0,0.0,0.0,0.0
1.8,-0.4755282581475767,-0.09270509831248443,0.0,-0.11755705045849466,0.16180339887498948,45.0,0.0,0.0,0.0,0.0,0.0,0.0,0.0,0.0
1.81,-0.48795838096937383,-0.0654429724189626,0.0,-0.11241667557042617,0.16541611485491234,45.0,0.0,0.0,0.0,0.0,0.0,0.0,0.0,0.0
1.82,-0.4960573506572387,-0.03759997006929179,0.0,-0.10716535899579925,0.16886558510040306,45.0,0.0,0.0,0.0,0.0,0.0,0.0,0.0,0.0
1.83,-0.4997532801828659,-0.009423227723438635,0.0,-0.10180828315007423,0.17214840540078874,45.0,0.0,0.0,0.0,0.0,0.0,0.0,0.0,0.0
1.84,-0.49901336421413583,0.01883715585879423,0.0,-0.09635073482034306,0.1752613360087727,45.0,0.0,0.0,0.0,0.0,0.0,0.0,0.0,0.0
1.85,-0.49384417029756894,0.0469303395120688,0.0,-0.0907980999479094,0.17820130483767352,45.0,0.0,0.0,0.0,0.0,0.0,0.0,0.0,0.0
1.86,-0.48429158056431565,0.07460696614945635,0.0,-0.08515585831301445,0.18096541049320392,45.0,0.0,0.0,0.0,0.0,0.0,0.0,0.0,0.0
1.87,-0.47044038447711256,0.10162137607358769,0.0,-0.07942957812695607,0.18355092513679624,45.0,0.0,0.0,0.0,0.0,0.0,0.0,0.0,0.0
1.8800000000000001,-0.45241352623300923,0.12773378746952238,0.0,-0.07362491053693558,0.18595529717765027,45.0,0.0,0.0,0.0,0.0,0.0,0.0,0.0,0.0
1.8900000000000001,-0.4303710135019718,0.15271242472511132,0.0,-0.0677475840490583,0.1881761537908451,45.0,0.0,0.0,0.0,0.0,0.0,0.0,0.0,0.0
1.9000000000000001,-0.40450849718747345,0.17633557568774216,0.0,-0.061803398874989535,0.1902113032590307,45.0,0.0,0.0,0.0,0.0,0.0,0.0,0.0,0.0
1.9100000000000001,-0.3750555348152291,0.19839355959709606,0.0,-0.05579822120784577,0.19205873713538868,45.0,0.0,0.0,0.0,0.0,0.0,0.0,0.0,0.0
1.92,-0.34227355296434436,0.21869058822642348,0.0,-0.04973797743297108,0.19371663222572622,45.0,0.0,0.0,0.0,0.0,0.0,0.0,0.0,0.0
1.93,-0.30645352682648913,0.23704650371270672,0.0,-0.04362864827930867,0.19518335238774948,45.0,0.0,0.0,0.0,0.0,0.0,0.0,0.0,0.0
1.94,-0.2679133974894987,0.25329837765060437,0.0,-0.03747626291714495,0.19645745014573773,45.0,0.0,0.0,0.0,0.0,0.0,0.0,0.0,0.0
1.95,-0.2269952498697733,0.26730195725651035,0.0,-0.031286893008046227,0.1975376681190275,45.0,0.0,0.0,0.0,0.0,0.0,0.0,0.0,0.0
1.96,-0.18406227634234,0.27893294576647515,0.0,-0.025066646712860935,0.19842294026289553,45.0,0.0,0.0,0.0,0.0,0.0,0.0,0.0,0.0
1.97,-0.13949555301961508,0.28808810570308285,0.0,-0.018821662663702984,0.19911239292061597,45.0,0.0,0.0,0.0,0.0,0.0,0.0,0.0,0.0
1.98,-0.09369065729286215,0.2946861752186066,0.0,-0.012558103905862653,0.19960534568565436,45.0,0.0,0.0,0.0,0.0,0.0,0.0,0.0,0.0
1.99,-0.04705415665925814,0.2986685893809239,0.0,-0.006282151815625673,0.19990131207314635,45.0,0.0,0.0,0.0,0.0,0.0,0.0,0.0,0.0
2.0,-3.6739403974420594e-16,0.3,0.0,-4.898587196589413e-17,0.2,45.0,0.0,0.0,0.0,0.0,0.0,0.0,0.0,0.0
2.0100000000000002,0.04705415665925741,0.29866858938092394,0.0,0.0062821518156257515,0.19990131207314638,45.0,0.0,0.0,0.0,0.0,0.0,0.0,0.0,0.0
2.02,0.09369065729286144,0.2946861752186067,0.0,0.012558103905862556,0.19960534568565433,45.0,0.0,0.0,0.0,0.0,0.0,0.0,0.0,0.0
2.0300000000000002,0.13949555301961608,0.2880881057030827,0.0,0.018821662663702887,0.19911239292061597,45.0,0.0,0.0,0.0,0.0,0.0,0.0,0.0,0.0
2.04,0.18406227634233932,0.2789329457664753,0.0,0.025066646712860838,0.19842294026289553,45.0,0.0,0.0,0.0,0.0,0.0,0.0,0.0,0.0
2.05,0.22699524986977265,0.26730195725651057,0.0,0.031286893008045956,0.19753766811902757,45.0,0.0,0.0,0.0,0.0,0.0,0.0,0.0,0.0
2.06,0.2679133974894981,0.2532983776506046,0.0,0.03747626291714484,0.1964574501457378,45.0,0.0,0.0,0.0,0.0,0.0,0.0,0.0,0.0
2.07,0.30645352682648713,0.23704650371270763,0.0,0.0436286482793084,0.19518335238774953,45.0,0.0,0.0,0.0,0.0,0.0,0.0,0.0,0.0
2.08,0.3422735529643438,0.21869058822642376,0.0,0.04973797743297099,0.19371663222572624,45.0,0.0,0.0,0.0,0.0,0.0,0.0,0.0,0.0
2.09,0.3750555348152286,0.1983935595970964,0.0,0.05579822120784568,0.19205873713538868,45.0,0.0,0.0,0.0,0.0,0.0,0.0,0.0,0.0
2.1,0.40450849718747406,0.17633557568774166,0.0,0.06180339887498945,0.19021130325903077,45.0,0.0,0.0,0.0,0.0,0.0,0.0,0.0,0.0
2.11,0.4303710135019715,0.15271242472511168,0.0,0.06774758404905822,0.18817615379084512,45.0,0.0,0.0,0.0,0.0,0.0,0.0,0.0,0.0
2.12,0.45241352623300973,0.1277337874695218,0.0,0.07362491053693565,0.18595529717765025,45.0,0.0,0.0,0.0,0.0,0.0,0.0,0.0,0.0
2.13,0.47044038447711234,0.1016213760735881,0.0,0.07942957812695599,0.18355092513679627,45.0,0.0,0.0,0.0,0.0,0.0,0.0,0.0,0.0
2.14,0.4842915805643155,0.07460696614945676,0.0,0.08515585831301453,0.1809654104932039,45.0,0.0,0.0,0.0,0.0,0.0,0.0,0.0,0.0
2.15,0.49384417029756883,0.046930339512069236,0.0,0.09079809994790933,0.17820130483767357,45.0,0.0,0.0,0.0,0.0,0.0,0.0,0.0,0.0
2.16,0.49901336421413583,0.01883715585879361,0.0,0.09635073482034313,0.17526133600877267,45.0,0.0,0.0,0.0,0.0,0.0,0.0,0.0,0.0
2.17,0.4997532801828659,-0.009423227723438196,0.0,0.10180828315007416,0.1721484054007888,45.0,0.0,0.0,0.0,0.0,0.0,0.0,0.0,0.0
2.18,0.4960573506572389,-0.037599970069291354,0.0,0.10716535899579933,0.168865585100403,45.0,0.0,0.0,0.0,0.0,0.0,0.0,0.0,0.0
2.19,0.487958380969374,-0.06544297241896217,0.0,0.1124166755704261,0.1654161148549124,45.0,0.0,0.0,0.0,0.0,0.0,0.0,0.0,0.0
2.2,0.475528258147577,-0.09270509831248401,0.0,0.11755705045849472,0.16180339887498943,45.0,0.0,0.0,0.0,0.0,0.0,0.0,0.0,0.0
2.21,0.4588773128419904,-0.11914436719043431,0.0,0.12258141073059521,0.15803100247513815,45.0,0.0,0.0,0.0,0.0,0.0,0.0,0.0,0.0
2.22,0.43815334002193135,-0.144526102230515,0.0,0.12748479794973797,0.15410264855515787,45.0,0.0,0.0,0.0,0.0,0.0,0.0,0.0,0.0
2.23,0.41354028713728114,-0.168625013355639,0.0,0.1322623730647304,0.15002221392609194,45.0,0.0,0.0,0.0,0.0,0.0,0.0,0.0,0.0
2.24,0.3852566213878945,-0.19122719692460702,0.0,0.13690942118573787,0.14579372548428224,45.0,0.0,0.0,0.0,0.0,0.0,0.0,0.0,0.0
2.25,0.3535533905932744,-0.2121320343559639,0.0,0.14142135623730948,0.14142135623730956,45.0,0.0,0.0,0.0,0.0,0.0,0.0,0.0,0.0
2.2600000000000002,0.31871199487434365,-0.2311539728327374,0.0,0.14579372548428238,0.13690942118573768,45.0,0.0,0.0,0.0,0.0,0.0,0.0,0.0,0.0
2.27,0.28104168892606496,-0.24812417228236872,0.0,0.15002221392609186,0.1322623730647305,45.0,0.0,0.0,0.0,0.0,0.0,0.0,0.0,0.0
2.2800000000000002,0.24087683705085675,-0.2628920040131593,0.0,0.15410264855515787,0.12748479794973794,45.0,0.0,0.0,0.0,0.0,0.0,0.0,0.0,0.0
2.29,0.19857394531739045,-0.27532638770519424,0.0,0.1580310024751381,0.12258141073059531,45.0,0.0,0.0,0.0,0.0,0.0,0.0,0.0,0.0
2.3000000000000003,0.15450849718747328,-0.28531695488854614,0.0,0.1618033988749896,0.11755705045849452,45.0,0.0,0.0,0.0,0.0,0.0,0.0,0.0,0.0
2.31,0.10907162069827196,-0.29277502858162413,0.0,0.16541611485491234,0.11241667557042619,45.0,0.0,0.0,0.0,0.0,0.0,0.0,0.0,0.0
2.32,0.06266661678215396,-0.29763441039434313,0.0,0.16886558510040295,0.10716535899579943,45.0,0.0,0.0,0.0,0.0,0.0,0.0,0.0,0.0
2.33,0.0157053795390636,-0.29985196810971954,0.0,0.17214840540078874,0.10180828315007424,45.0,0.0,0.0,0.0,0.0,0.0,0.0,0.0,0.0
2.34,-0.03139525976465608,-0.2994080185284815,0.0,0.1752613360087726,0.09635073482034323,45.0,0.0,0.0,0.0,0.0,0.0,0.0,0.0,0.0
2.35,-0.07821723252011545,-0.29630650217854126,0.0,0.17820130483767352,0.09079809994790941,45.0,0.0,0.0,0.0,0.0,0.0,0.0,0.0,0.0
2.36,-0.12434494358242631,-0.29057494833858954,0.0,0.18096541049320386,0.08515585831301463,45.0,0.0,0.0,0.0,0.0,0.0,0.0,0.0,0.0
2.37,-0.16936896012264524,-0.2822642306862677,0.0,0.18355092513679624,0.0794295781269561,45.0,0.0,0.0,0.0,0.0,0.0,0.0,0.0,0.0
2.38,-0.2128896457825348,-0.2714481157398062,0.0,0.18595529717765022,0.07362491053693576,45.0,0.0,0.0,0.0,0.0,0.0,0.0,0.0,0.0
2.39,-0.2545207078751862,-0.25822260810118286,0.0,0.1881761537908451,0.06774758404905831,45.0,0.0,0.0,0.0,0.0,0.0,0.0,0.0,0.0
2.4,-0.2938926261462362,-0.24270509831248438,0.0,0.1902113032590307,0.06180339887498956,45.0,0.0,0.0,0.0,0.0,0.0,0.0,0.0,0.0
2.41,-0.330655932661826,-0.2250333208891378,0.0,0.19205873713538868,0.05579822120784579,45.0,0.0,0.0,0.0,0.0,0.0,0.0,0.0,0.0
2.42,-0.3644843137107051,-0.20536413177860702,0.0,0.19371663222572624,0.0497379774329711,45.0,0.0,0.0,0.0,0.0,0.0,0.0,0.0,0.0
2.43,-0.39507750618784504,-0.18387211609589307,0.0,0.19518335238774953,0.04362864827930851,45.0,0.0,0.0,0.0,0.0,0.0,0.0,0.0,0.0
2.44,-0.42216396275100676,-0.16074803849369973,0.0,0.19645745014573776,0.037476262917144954,45.0,0.0,0.0,0.0,0.0,0.0,0.0,0.0,0.0
2.45,-0.4455032620941843,-0.13619714992186358,0.0,0.19753766811902757,0.03128689300804607,45.0,0.0,0.0,0.0,0.0,0.0,0.0,0.0,0.0
2.46,-0.46488824294412556,-0.11043736580540356,0.0,0.19842294026289553,0.02506664671286095,45.0,0.0,0.0,0.0,0.0,0.0,0.0,0.0,0.0
2.47,-0.4801468428384717,-0.0836973318117686,0.0,0.199112392920616,0.018821662663702818,45.0,0.0,0.0,0.0,0.0,0.0,0.0,0.0,0.0
2.48,-0.4911436253643442,-0.05621439437571787,0.0,0.19960534568565436,0.012558103905862664,45.0,0.0,0.0,0.0,0.0,0.0,0.0,0.0,0.0
2.49,-0.49778098230153994,-0.028232493995554407,0.0,0.19990131207314635,0.006282151815625508,45.0,0.0,0.0,0.0,0.0,0.0,0.0,0.0,0.0
2.5,-0.4999999999999999,-8.084525816282295e-16,0.0,0.19999999999999998,6.123233995736766e-17,45.0,0.0,0.0,0.0,0.0,0.0,0.0,0.0,0.0
2.5100000000000002,-0.49778098230153983,0.02823249399555492,0.0,0.19990131207314635,-0.006282151815625739,45.0,0.0,0.0,0.0,0.0,0.0,0.0,0.0,0.0
2.52,-0.49114362536434436,0.056214394375717326,0.0,0.19960534568565436,-0.012558103905862546,45.0,0.0,0.0,0.0,0.0,0.0,0.0,0.0,0.0
2.5300000000000002,-0.4801468428384714,0.08369733181176908,0.0,0.199112392920616,-0.018821662663702873,45.0,0.0,0.0,0.0,0.0,0.0,0.0,0.0,0.0
2.54,-0.4648882429441259,0.11043736580540302,0.0,0.19842294026289553,-0.025066646712860824,45.0,0.0,0.0,0.0,0.0,0.0,0.0,0.0,0.0
2.5500000000000003,-0.44550326209418384,0.136197149921864,0.0,0.1975376681190275,-0.03128689300804629,45.0,0.0,0.0,0.0,0.0,0.0,0.0,0.0,0.0
2.56,-0.4221639627510072,0.16074803849369926,0.0,0.19645745014573773,-0.03747626291714501,45.0,0.0,0.0,0.0,0.0,0.0,0.0,0.0,0.0
2.57,-0.3950775061878456,0.18387211609589268,0.0,0.1951833523877496,-0.043628648279308214,45.0,0.0,0.0,0.0,0.0,0.0,0.0,0.0,0.0
2.58,-0.3644843137107058,0.20536413177860666,0.0,0.19371663222572627,-0.049737977432970974,45.0,0.0,0.0,0.0,0.0,0.0,0.0,0.0,0.0
2.59,-0.33065593266182675,0.22503332088913747,0.0,0.19205873713538868,-0.055798221207845826,45.0,0.0,0.0,0.0,0.0,0.0,0.0,0.0,0.0
2.6,-0.2938926261462369,0.2427050983124841,0.0,0.19021130325903077,-0.061803398874989424,45.0,0.0,0.0,0.0,0.0,0.0,0.0,0.0,0.0
2.61,-0.25452070787518705,0.2582226081011826,0.0,0.18817615379084515,-0.06774758404905819,45.0,0.0,0.0,0.0,0.0,0.0,0.0,0.0,0.0
2.62,-0.21288964578253564,0.271448115739806,0.0,0.18595529717765033,-0.07362491053693547,45.0,0.0,0.0,0.0,0.0,0.0,0.0,0.0,0.0
2.63,-0.1693689601226461,0.28226423068626755,0.0,0.18355092513679627,-0.07942957812695597,45.0,0.0,0.0,0.0,0.0,0.0,0.0,0.0,0.0
2.64,-0.1243449435824272,0.29057494833858943,0.0,0.18096541049320383,-0.08515585831301466,45.0,0.0,0.0,0.0,0.0,0.0,0.0,0.0,0.0
2.65,-0.07821723252011635,0.2963065021785412,0.0,0.17820130483767369,-0.09079809994790915,45.0,0.0,0.0,0.0,0.0,0.0,0.0,0.0,0.0
2.66,-0.031395259764657,0.2994080185284815,0.0,0.1752613360087727,-0.09635073482034312,45.0,0.0,0.0,0.0,0.0,0.0,0.0,0.0,0.0
2.67,0.015705379539062682,0.2998519681097196,0.0,0.1721484054007887,-0.10180828315007429,45.0,0.0,0.0,0.0,0.0,0.0,0.0,0.0,0.0
2.68,0.06266661678215306,0.29763441039434324,0.0,0.16886558510040303,-0.10716535899579932,45.0,0.0,0.0,0.0,0.0,0.0,0.0,0.0,0.0
2.69,0.10907162069827107,0.2927750285816243,0.0,0.1654161148549124,-0.11241667557042608,45.0,0.0,0.0,0.0,0.0,0.0,0.0,0.0,0.0
2.7,0.1545084971874741,0.285316954888546,0.0,0.16180339887498954,-0.11755705045849457,45.0,0.0,0.0,0.0,0.0,0.0,0.0,0.0,0.0
2.71,0.19857394531738962,0.2753263877051945,0.0,0.15803100247513815,-0.12258141073059521,45.0,0.0,0.0,0.0,0.0,0.0,0.0,0.0,0.0
2.72,0.2408768370508575,0.2628920040131591,0.0,0.15410264855515773,-0.1274847979497381,45.0,0.0,0.0,0.0,0.0,0.0,0.0,0.0,0.0
2.73,0.2810416889260642,0.24812417228236897,0.0,0.15002221392609205,-0.13226237306473024,45.0,0.0,0.0,0.0,0.0,0.0,0.0,0.0,0.0
2.74,0.31871199487434565,0.23115397283273637,0.0,0.14579372548428224,-0.13690942118573785,45.0,0.0,0.0,0.0,0.0,0.0,0.0,0.0,0.0
2.75,0.35355339059327373,0.2121320343559643,0.0,0.1414213562373097,-0.14142135623730934,45.0,0.0,0.0,0.0,0.0,0.0,0.0,0.0,0.0
2.7600000000000002,0.385256621387895,0.19122719692460663,0.0,0.13690942118573768,-0.14579372548428238,45.0,0.0,0.0,0.0,0.0,0.0,0.0,0.0,0.0
2.77,0.4135402871372806,0.16862501335563942,0.0,0.13226237306473035,-0.15002221392609194,45.0,0.0,0.0,0.0,0.0,0.0,0.0,0.0,0.0
2.7800000000000002,0.4381533400219318,0.14452610223051454,0.0,0.12748479794973794,-0.15410264855515787,45.0,0.0,0.0,0.0,0.0,0.0,0.0,0.0,0.0
2.79,0.45887731284199007,0.11914436719043481,0.0,0.12258141073059531,-0.15803100247513807,45.0,0.0,0.0,0.0,0.0,0.0,0.0,0.0,0.0
2.8000000000000003,0.47552825814757727,0.09270509831248351,0.0,0.11755705045849466,-0.16180339887498948,45.0,0.0,0.0,0.0,0.0,0.0,0.0,0.0,0.0
2.81,0.4879583809693738,0.06544297241896271,0.0,0.11241667557042619,-0.16541611485491234,45.0,0.0,0.0,0.0,0.0,0.0,0.0,0.0,0.0
2.82,0.4960573506572387,0.0375999700692919,0.0,0.10716535899579943,-0.16886558510040295,45.0,0.0,0.0,0.0,0.0,0.0,0.0,0.0,0.0
2.83,0.49975328018286586,0.009423227723438746,0.0,0.1018082831500744,-0.17214840540078866,45.0,0.0,0.0,0.0,0.0,0.0,0.0,0.0,0.0
2.84,0.4990133642141359,-0.018837155858793062,0.0,0.09635073482034323,-0.1752613360087726,45.0,0.0,0.0,0.0,0.0,0.0,0.0,0.0,0.0
2.85,0.493844170297569,-0.04693033951206869,0.0,0.09079809994790927,-0.1782013048376736,45.0,0.0,0.0,0.0,0.0,0.0,0.0,0.0,0.0
2.86,0.48429158056431576,-0.07460696614945624,0.0,0.0851558583130148,-0.18096541049320378,45.0,0.0,0.0,0.0,0.0,0.0,0.0,0.0,0.0
2.87,0.47044038447711267,-0.10162137607358758,0.0,0.07942957812695611,-0.18355092513679624,45.0,0.0,0.0,0.0,0.0,0.0,0.0,0.0,0.0
2.88,0.45241352623301007,-0.1277337874695213,0.0,0.07362491053693561,-0.18595529717765027,45.0,0.0,0.0,0.0,0.0,0.0,0.0,0.0,0.0
2.89,0.43037101350197193,-0.15271242472511123,0.0,0.06774758404905833,-0.1881761537908451,45.0,0.0,0.0,0.0,0.0,0.0,0.0,0.0,0.0
2.9,0.4045084971874746,-0.17633557568774125,0.0,0.06180339887498957,-0.1902113032590307,45.0,0.0,0.0,0.0,0.0,0.0,0.0,0.0,0.0
2.91,0.3750555348152292,-0.198393559597096,0.0,0.05579822120784597,-0.19205873713538862,45.0,0.0,0.0,0.0,0.0,0.0,0.0,0.0,0.0
2.92,0.3422735529643445,-0.2186905882264234,0.0,0.04973797743297111,-0.19371663222572622,45.0,0.0,0.0,0.0,0.0,0.0,0.0,0.0,0.0
2.93,0.30645352682648785,-0.2370465037127073,0.0,0.043628648279308346,-0.19518335238774956,45.0,0.0,0.0,0.0,0.0,0.0,0.0,0.0,0.0
2.94,0.2679133974894989,-0.25329837765060426,0.0,0.03747626291714514,-0.19645745014573773,45.0,0.0,0.0,0.0,0.0,0.0,0.0,0.0,0.0
2.95,0.22699524986977349,-0.26730195725651024,0.0,0.031286893008046074,-0.19753766811902757,45.0,0.0,0.0,0.0,0.0,0.0,0.0,0.0,0.0
2.96,0.18406227634234015,-0.2789329457664751,0.0,0.025066646712860782,-0.19842294026289553,45.0,0.0,0.0,0.0,0.0,0.0,0.0,0.0,0.0
2.97,0.13949555301961356,-0.28808810570308313,0.0,0.01882166266370283,-0.199112392920616,45.0,0.0,0.0,0.0,0.0,0.0,0.0,0.0,0.0
2.98,0.09369065729286234,-0.29468617521860657,0.0,0.012558103905862676,-0.19960534568565436,45.0,0.0,0.0,0.0,0.0,0.0,0.0,0.0,0.0
2.99,0.04705415665925656,-0.298668589380924,0.0,0.006282151815625698,-0.19990131207314635,45.0,0.0,0.0,0.0,0.0,0.0,0.0,0.0,0.0
3.0,5.51091059616309e-16,-0.29999999999999993,0.0,7.347880794884119e-17,-0.2,45.0,0.0,0.0,0.0,0.0,0.0,0.0,0.0,0.0
3.0100000000000002,-0.04705415665925723,-0.29866858938092394,0.0,-0.006282151815625904,-0.19990131207314635,45.0,0.0,0.0,0.0,0.0,0.0,0.0,0.0,0.0
3.02,-0.09369065729286126,-0.29468617521860674,0.0,-0.012558103905862534,-0.19960534568565436,45.0,0.0,0.0,0.0,0.0,0.0,0.0,0.0,0.0
3.0300000000000002,-0.1394955530196159,-0.2880881057030827,0.0,-0.01882166266370304,-0.19911239292061597,45.0,0.0,0.0,0.0,0.0,0.0,0.0,0.0,0.0
3.04,-0.18406227634233913,-0.27893294576647537,0.0,-0.025066646712860637,-0.19842294026289556,45.0,0.0,0.0,0.0,0.0,0.0,0.0,0.0,0.0
3.0500000000000003,-0.22699524986977407,-0.26730195725651007,0.0,-0.03128689300804628,-0.1975376681190275,45.0,0.0,0.0,0.0,0.0,0.0,0.0,0.0,0.0
3.06,-0.26791339748949794,-0.25329837765060464,0.0,-0.037476262917145,-0.19645745014573773,45.0,0.0,0.0,0.0,0.0,0.0,0.0,0.0,0.0
3.0700000000000003,-0.3064535268264884,-0.23704650371270705,0.0,-0.04362864827930855,-0.19518335238774953,45.0,0.0,0.0,0.0,0.0,0.0,0.0,0.0,0.0
3.08,-0.34227355296434364,-0.21869058822642387,0.0,-0.04973797743297096,-0.19371663222572627,45.0,0.0,0.0,0.0,0.0,0.0,0.0,0.0,0.0
3.09,-0.37505553481522846,-0.19839355959709648,0.0,-0.055798221207845826,-0.19205873713538868,45.0,0.0,0.0,0.0,0.0,0.0,0.0,0.0,0.0
3.1,-0.40450849718747395,-0.17633557568774175,0.0,-0.06180339887498942,-0.19021130325903077,45.0,0.0,0.0,0.0,0.0,0.0,0.0,0.0,0.0
3.11,-0.4303710135019714,-0.1527124247251118,0.0,-0.06774758404905817,-0.18817615379084515,45.0,0.0,0.0,0.0,0.0,0.0,0.0,0.0,0.0
3.12,-0.4524135262330096,-0.1277337874695219,0.0,-0.07362491053693547,-0.18595529717765033,45.0,0.0,0.0,0.0,0.0,0.0,0.0,0.0,0.0
3.13,-0.4704403844771123,-0.1016213760735882,0.0,-0.07942957812695596,-0.18355092513679627,45.0,0.0,0.0,0.0,0.0,0.0,0.0,0.0,0.0
3.14,-0.4842915805643154,-0.07460696614945689,0.0,-0.08515585831301466,-0.18096541049320383,45.0,0.0,0.0,0.0,0.0,0.0,0.0,0.0,0.0
3.15,-0.4938441702975688,-0.04693033951206934,0.0,-0.09079809994790913,-0.17820130483767369,45.0,0.0,0.0,0.0,0.0,0.0,0.0,0.0,0.0
3.16,-0.4990133642141358,-0.018837155858793725,0.0,-0.09635073482034312,-0.1752613360087727,45.0,0.0,0.0,0.0,0.0,0.0,0.0,0.0,0.0
3.17,-0.4997532801828659,0.009423227723438085,0.0,-0.10180828315007429,-0.1721484054007887,45.0,0.0,0.0,0.0,0.0,0.0,0.0,0.0,0.0
3.18,-0.4960573506572388,0.03759997006929124,0.0,-0.10716535899579932,-0.16886558510040303,45.0,0.0,0.0,0.0,0.0,0.0,0.0,0.0,0.0
3.19,-0.48795838096937405,0.06544297241896206,0.0,-0.11241667557042608,-0.1654161148549124,45.0,0.0,0.0,0.0,0.0,0.0,0.0,0.0,0.0
3.2,-0.47552825814757704,0.0927050983124839,0.0,-0.11755705045849457,-0.16180339887498957,45.0,0.0,0.0,0.0,0.0,0.0,0.0,0.0,0.0
3.21,-0.4588773128419905,0.1191443671904342,0.0,-0.12258141073059521,-0.15803100247513818,45.0,0.0,0.0,0.0,0.0,0.0,0.0,0.0,0.0
3.22,-0.43815334002193146,0.14452610223051493,0.0,-0.1274847979497381,-0.15410264855515776,45.0,0.0,0.0,0.0,0.0,0.0,0.0,0.0,0.0
3.23,-0.41354028713728125,0.1686250133556389,0.0,-0.13226237306473024,-0.15002221392609205,45.0,0.0,0.0,0.0,0.0,0.0,0.0,0.0,0.0
3.24,-0.3852566213878946,0.19122719692460696,0.0,-0.13690942118573785,-0.14579372548428224,45.0,0.0,0.0,0.0,0.0,0.0,0.0,0.0,0.0
3.25,-0.3535533905932745,0.21213203435596384,0.0,-0.1414213562373096,-0.14142135623730945,45.0,0.0,0.0,0.0,0.0,0.0,0.0,0.0,0.0
3.2600000000000002,-0.31871199487434376,0.23115397283273734,0.0,-0.14579372548428238,-0.1369094211857377,45.0,0.0,0.0,0.0,0.0,0.0,0.0,0.0,0.0
3.27,-0.28104168892606507,0.24812417228236863,0.0,-0.15002221392609194,-0.13226237306473035,45.0,0.0,0.0,0.0,0.0,0.0,0.0,0.0,0.0
3.2800000000000002,-0.2408768370508569,0.2628920040131593,0.0,-0.15410264855515787,-0.12748479794973797,45.0,0.0,0.0,0.0,0.0,0.0,0.0,0.0,0.0
3.29,-0.19857394531739062,0.27532638770519424,0.0,-0.15803100247513807,-0.12258141073059532,45.0,0.0,0.0,0.0,0.0,0.0,0.0,0.0,0.0
3.3000000000000003,-0.15450849718747348,0.28531695488854614,0.0,-0.16180339887498948,-0.11755705045849468,45.0,0.0,0.0,0.0,0.0,0.0,0.0,0.0,0.0
3.31,-0.10907162069827214,0.29277502858162413,0.0,-0.16541611485491234,-0.11241667557042621,45.0,0.0,0.0,0.0,0.0,0.0,0.0,0.0,0.0
3.3200000000000003,-0.06266661678215062,0.2976344103943434,0.0,-0.16886558510040314,-0.10716535899579914,45.0,0.0,0.0,0.0,0.0,0.0,0.0,0.0,0.0
3.33,-0.01570537953906378,0.2998519681097195,0.0,-0.17214840540078863,-0.10180828315007442,45.0,0.0,0.0,0.0,0.0,0.0,0.0,0.0,0.0
3.34,0.0313952597646559,0.2994080185284815,0.0,-0.17526133600877258,-0.09635073482034325,45.0,0.0,0.0,0.0,0.0,0.0,0.0,0.0,0.0
3.35,0.07821723252011527,0.2963065021785413,0.0,-0.1782013048376736,-0.09079809994790927,45.0,0.0,0.0,0.0,0.0,0.0,0.0,0.0,0.0
3.36,0.12434494358242613,0.2905749483385896,0.0,-0.18096541049320378,-0.08515585831301481,45.0,0.0,0.0,0.0,0.0,0.0,0.0,0.0,0.0
3.37,0.16936896012264505,0.28226423068626777,0.0,-0.18355092513679622,-0.07942957812695611,45.0,0.0,0.0,0.0,0.0,0.0,0.0,0.0,0.0
3.38,0.21288964578253464,0.2714481157398063,0.0,-0.18595529717765027,-0.07362491053693562,45.0,0.0,0.0,0.0,0.0,0.0,0.0,0.0,0.0
3.39,0.2545207078751861,0.2582226081011829,0.0,-0.1881761537908451,-0.06774758404905833,45.0,0.0,0.0,0.0,0.0,0.0,0.0,0.0,0.0
3.4,0.29389262614623457,0.2427050983124851,0.0,-0.1902113032590307,-0.06180339887498958,45.0,0.0,0.0,0.0,0.0,0.0,0.0,0.0,0.0
3.41,0.3306559326618259,0.2250333208891379,0.0,-0.19205873713538862,-0.05579822120784598,45.0,0.0,0.0,0.0,0.0,0.0,0.0,0.0,0.0
3.42,0.364484313710705,0.2053641317786071,0.0,-0.19371663222572622,-0.04973797743297112,45.0,0.0,0.0,0.0,0.0,0.0,0.0,0.0,0.0
3.43,0.395077506187846,0.18387211609589235,0.0,-0.19518335238774956,-0.04362864827930835,45.0,0.0,0.0,0.0,0.0,0.0,0.0,0.0,0.0
3.44,0.42216396275100754,0.16074803849369892,0.0,-0.1964574501457377,-0.03747626291714515,45.0,0.0,0.0,0.0,0.0,0.0,0.0,0.0,0.0
3.45,0.44550326209418334,0.1361971499218646,0.0,-0.19753766811902757,-0.03128689300804609,45.0,0.0,0.0,0.0,0.0,0.0,0.0,0.0,0.0
3.46,0.46488824294412484,0.11043736580540464,0.0,-0.19842294026289553,-0.025066646712860793,45.0,0.0,0.0,0.0,0.0,0.0,0.0,0.0,0.0
3.47,0.48014684283847164,0.0836973318117687,0.0,-0.199112392920616,-0.018821662663702846,45.0,0.0,0.0,0.0,0.0,0.0,0.0,0.0,0.0
3.48,0.49114362536434414,0.05621439437571798,0.0,-0.19960534568565433,-0.01255810390586269,45.0,0.0,0.0,0.0,0.0,0.0,0.0,0.0,0.0
3.49,0.4977809823015401,0.02823249399555346,0.0,-0.19990131207314635,-0.00628215181562571,45.0,0.0,0.0,0.0,0.0,0.0,0.0,0.0,0.0
3.5,0.49999999999999994,-1.4714331008865888e-16,0.0,-0.19999999999999998,-8.572527594031473e-17,45.0,0.0,0.0,0.0,0.0,0.0,0.0,0.0,0.0
3.5100000000000002,0.49778098230154,-0.02823249399555375,0.0,-0.19990131207314635,0.006282151815625892,45.0,0.0,0.0,0.0,0.0,0.0,0.0,0.0,0.0
3.52,0.49114362536434475,-0.05621439437571618,0.0,-0.19960534568565436,0.01255810390586252,45.0,0.0,0.0,0.0,0.0,0.0,0.0,0.0,0.0
3.5300000000000002,0.48014684283847153,-0.08369733181176899,0.0,-0.19911239292061597,0.018821662663703026,45.0,0.0,0.0,0.0,0.0,0.0,0.0,0.0,0.0
3.54,0.46488824294412595,-0.11043736580540293,0.0,-0.19842294026289556,0.025066646712860626,45.0,0.0,0.0,0.0,0.0,0.0,0.0,0.0,0.0
3.5500000000000003,0.4455032620941831,-0.13619714992186488,0.0,-0.1975376681190275,0.03128689300804627,45.0,0.0,0.0,0.0,0.0,0.0,0.0,0.0,0.0
3.56,0.4221639627510073,-0.16074803849369915,0.0,-0.19645745014573773,0.03747626291714499,45.0,0.0,0.0,0.0,0.0,0.0,0.0,0.0,0.0
3.5700000000000003,0.3950775061878457,-0.18387211609589257,0.0,-0.19518335238774953,0.04362864827930854,45.0,0.0,0.0,0.0,0.0,0.0,0.0,0.0,0.0
3.58,0.3644843137107071,-0.20536413177860574,0.0,-0.19371663222572627,0.04973797743297095,45.0,0.0,0.0,0.0,0.0,0.0,0.0,0.0,0.0
3.59,0.3306559326618282,-0.22503332088913666,0.0,-0.19205873713538868,0.05579822120784581,45.0,0.0,0.0,0.0,0.0,0.0,0.0,0.0,0.0
3.6,0.29389262614623707,-0.242705098312484,0.0,-0.19021130325903077,0.06180339887498942,45.0,0.0,0.0,0.0,0.0,0.0,0.0,0.0,0.0
3.61,0.25452070787518716,-0.2582226081011825,0.0,-0.18817615379084515,0.06774758404905816,45.0,0.0,0.0,0.0,0.0,0.0,0.0,0.0,0.0
3.62,0.2128896457825358,-0.271448115739806,0.0,-0.18595529717765033,0.07362491053693546,45.0,0.0,0.0,0.0,0.0,0.0,0.0,0.0,0.0
3.63,0.16936896012264624,-0.2822642306862675,0.0,-0.18355092513679627,0.07942957812695595,45.0,0.0,0.0,0.0,0.0,0.0,0.0,0.0,0.0
3.64,0.12434494358242909,-0.2905749483385891,0.0,-0.18096541049320383,0.08515585831301464,45.0,0.0,0.0,0.0,0.0,0.0,0.0,0.0,0.0
3.65,0.0782172325201148,-0.2963065021785413,0.0,-0.17820130483767369,0.09079809994790912,45.0,0.0,0.0,0.0,0.0,0.0,0.0,0.0,0.0
3.66,0.03139525976465718,-0.2994080185284814,0.0,-0.1752613360087727,0.09635073482034309,45.0,0.0,0.0,0.0,0.0,0.0,0.0,0.0,0.0
3.67,-0.015705379539062498,-0.29985196810971954,0.0,-0.1721484054007887,0.10180828315007427,45.0,0.0,0.0,0.0,0.0,0.0,0.0,0.0,0.0
3.68,-0.06266661678215286,-0.29763441039434324,0.0,-0.16886558510040303,0.10716535899579929,45.0,0.0,0.0,0.0,0.0,0.0,0.0,0.0,0.0
3.69,-0.10907162069827088,-0.2927750285816243,0.0,-0.16541611485491242,0.11241667557042606,45.0,0.0,0.0,0.0,0.0,0.0,0.0,0.0,0.0
3.7,-0.15450849718747225,-0.28531695488854636,0.0,-0.16180339887498957,0.11755705045849454,45.0,0.0,0.0,0.0,0.0,0.0,0.0,0.0,0.0
3.71,-0.1985739453173911,-0.2753263877051941,0.0,-0.15803100247513818,0.1225814107305952,45.0,0.0,0.0,0.0,0.0,0.0,0.0,0.0,0.0
3.72,-0.24087683705085733,-0.26289200401315915,0.0,-0.15410264855515776,0.12748479794973808,45.0,0.0,0.0,0.0,0.0,0.0,0.0,0.0,0.0
3.73,-0.281041688926064,-0.24812417228236908,0.0,-0.15002221392609205,0.1322623730647302,45.0,0.0,0.0,0.0,0.0,0.0,0.0,0.0,0.0
3.74,-0.31871199487434554,-0.23115397283273648,0.0,-0.14579372548428224,0.13690942118573782,45.0,0.0,0.0,0.0,0.0,0.0,0.0,0.0,0.0
3.75,-0.3535533905932736,-0.21213203435596437,0.0,-0.1414213562373097,0.1414213562373093,45.0,0.0,0.0,0.0,0.0,0.0,0.0,0.0,0.0
3.7600000000000002,-0.38525662138789607,-0.1912271969246059,0.0,-0.1369094211857377,0.14579372548428235,45.0,0.0,0.0,0.0,0.0,0.0,0.0,0.0,0.0
3.77,-0.4135402871372815,-0.16862501335563868,0.0,-0.13226237306473035,0.15002221392609194,45.0,0.0,0.0,0.0,0.0,0.0,0.0,0.0,0.0
3.7800000000000002,-0.4381533400219317,-0.14452610223051465,0.0,-0.12748479794973797,0.15410264855515787,45.0,0.0,0.0,0.0,0.0,0.0,0.0,0.0,0.0
3.79,-0.45887731284199,-0.11914436719043489,0.0,-0.12258141073059532,0.15803100247513807,45.0,0.0,0.0,0.0,0.0,0.0,0.0,0.0,0.0
3.8000000000000003,-0.47552825814757715,-0.09270509831248362,0.0,-0.11755705045849468,0.16180339887498946,45.0,0.0,0.0,0.0,0.0,0.0,0.0,0.0,0.0
3.81,-0.4879583809693738,-0.06544297241896281,0.0,-0.11241667557042621,0.1654161148549123,45.0,0.0,0.0,0.0,0.0,0.0,0.0,0.0,0.0
3.8200000000000003,-0.49605735065723916,-0.0375999700692899,0.0,-0.10716535899579914,0.16886558510040314,45.0,0.0,0.0,0.0,0.0,0.0,0.0,0.0,0.0
3.83,-0.4997532801828659,-0.009423227723437792,0.0,-0.10180828315007442,0.17214840540078863,45.0,0.0,0.0,0.0,0.0,0.0,0.0,0.0,0.0
3.84,-0.49901336421413583,0.018837155858794016,0.0,-0.09635073482034325,0.17526133600877258,45.0,0.0,0.0,0.0,0.0,0.0,0.0,0.0,0.0
3.85,-0.49384417029756905,0.046930339512068577,0.0,-0.09079809994790929,0.1782013048376736,45.0,0.0,0.0,0.0,0.0,0.0,0.0,0.0,0.0
3.86,-0.48429158056431626,0.07460696614945511,0.0,-0.08515585831301481,0.18096541049320375,45.0,0.0,0.0,0.0,0.0,0.0,0.0,0.0,0.0
3.87,-0.4704403844771127,0.10162137607358747,0.0,-0.07942957812695611,0.18355092513679622,45.0,0.0,0.0,0.0,0.0,0.0,0.0,0.0,0.0
3.88,-0.4524135262330102,0.12773378746952121,0.0,-0.07362491053693562,0.18595529717765025,45.0,0.0,0.0,0.0,0.0,0.0,0.0,0.0,0.0
3.89,-0.43037101350197116,0.15271242472511207,0.0,-0.06774758404905834,0.1881761537908451,45.0,0.0,0.0,0.0,0.0,0.0,0.0,0.0,0.0
3.9,-0.40450849718747367,0.17633557568774197,0.0,-0.06180339887498959,0.1902113032590307,45.0,0.0,0.0,0.0,0.0,0.0,0.0,0.0,0.0
3.91,-0.37505553481523046,0.19839355959709512,0.0,-0.05579822120784599,0.1920587371353886,45.0,0.0,0.0,0.0,0.0,0.0,0.0,0.0,0.0
3.92,-0.3422735529643459,0.2186905882264226,0.0,-0.049737977432971134,0.19371663222572622,45.0,0.0,0.0,0.0,0.0,0.0,0.0,0.0,0.0
3.93,-0.306453526826488,0.23704650371270722,0.0,-0.043628648279308374,0.19518335238774953,45.0,0.0,0.0,0.0,0.0,0.0,0.0,0.0,0.0
3.94,-0.267913397489499,0.25329837765060426,0.0,-0.03747626291714517,0.1964574501457377,45.0,0.0,0.0,0.0,0.0,0.0,0.0,0.0,0.0
3.95,-0.22699524986977204,0.26730195725651074,0.0,-0.031286893008046095,0.19753766811902757,45.0,0.0,0.0,0.0,0.0,0.0,0.0,0.0,0.0
3.96,-0.18406227634233868,0.2789329457664755,0.0,-0.02506664671286081,0.19842294026289553,45.0,0.0,0.0,0.0,0.0,0.0,0.0,0.0,0.0
3.97,-0.13949555301961541,0.28808810570308285,0.0,-0.018821662663702856,0.19911239292061597,45.0,0.0,0.0,0.0,0.0,0.0,0.0,0.0,0.0
3.98,-0.09369065729286427,0.29468617521860635,0.0,-0.0125581039058627,0.19960534568565433,45.0,0.0,0.0,0.0,0.0,0.0,0.0,0.0,0.0
3.99,-0.04705415665925674,0.29866858938092394,0.0,-0.006282151815625721,0.19990131207314635,45.0,0.0,0.0,0.0,0.0,0.0,0.0,0.0,0.0
4.0,-7.347880794884119e-16,0.3,0.0,-9.797174393178826e-17,0.2,45.0,0.0,0.0,0.0,0.0,0.0,0.0,0.0,0.0
4.01,0.047054156659255275,0.29866858938092405,0.0,0.006282151815625525,0.19990131207314638,45.0,0.0,0.0,0.0,0.0,0.0,0.0,0.0,0.0
4.0200000000000005,0.09369065729286283,0.29468617521860657,0.0,0.012558103905862861,0.1996053456856543,45.0,0.0,0.0,0.0,0.0,0.0,0.0,0.0,0.0
4.03,0.13949555301961403,0.2880881057030831,0.0,0.018821662663703016,0.19911239292061597,45.0,0.0,0.0,0.0,0.0,0.0,0.0,0.0,0.0
4.04,0.18406227634233732,0.2789329457664758,0.0,0.02506664671286061,0.19842294026289556,45.0,0.0,0.0,0.0,0.0,0.0,0.0,0.0,0.0
4.05,0.22699524986977077,0.2673019572565111,0.0,0.0312868930080459,0.19753766811902757,45.0,0.0,0.0,0.0,0.0,0.0,0.0,0.0,0.0
4.0600000000000005,0.2679133974895008,0.25329837765060353,0.0,0.037476262917144974,0.19645745014573773,45.0,0.0,0.0,0.0,0.0,0.0,0.0,0.0,0.0
4.07,0.3064535268264897,0.23704650371270647,0.0,0.04362864827930853,0.19518335238774953,45.0,0.0,0.0,0.0,0.0,0.0,0.0,0.0,0.0
4.08,0.34227355296434486,0.2186905882264232,0.0,0.04973797743297094,0.19371663222572627,45.0,0.0,0.0,0.0,0.0,0.0,0.0,0.0,0.0
4.09,0.3750555348152295,0.1983935595970958,0.0,0.055798221207845805,0.19205873713538868,45.0,0.0,0.0,0.0,0.0,0.0,0.0,0.0,0.0
4.1,0.4045084971874728,0.1763355756877427,0.0,0.06180339887498906,0.19021130325903088,45.0,0.0,0.0,0.0,0.0,0.0,0.0,0.0,0.0
4.11,0.43037101350197215,0.15271242472511098,0.0,0.06774758404905849,0.188176153790845,45.0,0.0,0.0,0.0,0.0,0.0,0.0,0.0,0.0
4.12,0.4524135262330095,0.12773378746952202,0.0,0.07362491053693544,0.18595529717765033,45.0,0.0,0.0,0.0,0.0,0.0,0.0,0.0,0.0
4.13,0.4704403844771122,0.1016213760735883,0.0,0.07942957812695595,0.18355092513679627,45.0,0.0,0.0,0.0,0.0,0.0,0.0,0.0,0.0
4.14,0.484291580564315,0.07460696614945803,0.0,0.08515585831301431,0.180965410493204,45.0,0.0,0.0,0.0,0.0,0.0,0.0,0.0,0.0
4.15,0.4938441702975688,0.04693033951206945,0.0,0.09079809994790942,0.17820130483767352,45.0,0.0,0.0,0.0,0.0,0.0,0.0,0.0,0.0
4.16,0.4990133642141357,0.018837155858794894,0.0,0.09635073482034309,0.1752613360087727,45.0,0.0,0.0,0.0,0.0,0.0,0.0,0.0,0.0
4.17,0.499753280182866,-0.009423227723436909,0.0,0.10180828315007427,0.1721484054007887,45.0,0.0,0.0,0.0,0.0,0.0,0.0,0.0,0.0
4.18,0.4960573506572393,-0.03759997006928902,0.0,0.107165358995799,0.16886558510040323,45.0,0.0,0.0,0.0,0.0,0.0,0.0,0.0,0.0
4.19,0.48795838096937333,-0.06544297241896405,0.0,0.11241667557042634,0.16541611485491223,45.0,0.0,0.0,0.0,0.0,0.0,0.0,0.0,0.0
4.2,0.4755282581475765,-0.0927050983124848,0.0,0.11755705045849454,0.16180339887498957,45.0,0.0,0.0,0.0,0.0,0.0,0.0,0.0,0.0
4.21,0.45887731284199057,-0.1191443671904341,0.0,0.1225814107305952,0.1580310024751382,45.0,0.0,0.0,0.0,0.0,0.0,0.0,0.0,0.0
4.22,0.43815334002193235,-0.14452610223051388,0.0,0.12748479794973783,0.15410264855515798,45.0,0.0,0.0,0.0,0.0,0.0,0.0,0.0,0.0
4.23,0.4135402871372803,-0.16862501335563967,0.0,0.1322623730647305,0.15002221392609183,45.0,0.0,0.0,0.0,0.0,0.0,0.0,0.0,0.0
4.24,0.3852566213878947,-0.19122719692460685,0.0,0.13690942118573782,0.14579372548428224,45.0,0.0,0.0,0.0,0.0,0.0,0.0,0.0,0.0
4.25,0.3535533905932746,-0.21213203435596373,0.0,0.1414213562373096,0.14142135623730948,45.0,0.0,0.0,0.0,0.0,0.0,0.0,0.0,0.0
4.26,0.31871199487434665,-0.23115397283273587,0.0,0.14579372548428213,0.13690942118573798,45.0,0.0,0.0,0.0,0.0,0.0,0.0,0.0,0.0
4.2700000000000005,0.28104168892606524,-0.24812417228236855,0.0,0.1500222139260922,0.1322623730647301,45.0,0.0,0.0,0.0,0.0,0.0,0.0,0.0,0.0
4.28,0.2408768370508586,-0.2628920040131587,0.0,0.15410264855515787,0.12748479794973797,45.0,0.0,0.0,0.0,0.0,0.0,0.0,0.0,0.0
4.29,0.19857394531739245,-0.27532638770519374,0.0,0.15803100247513807,0.12258141073059535,45.0,0.0,0.0,0.0,0.0,0.0,0.0,0.0,0.0
4.3,0.15450849718747364,-0.28531695488854614,0.0,0.16180339887498946,0.1175570504584947,45.0,0.0,0.0,0.0,0.0,0.0,0.0,0.0,0.0
4.3100000000000005,0.10907162069826885,-0.2927750285816246,0.0,0.1654161148549125,0.11241667557042592,45.0,0.0,0.0,0.0,0.0,0.0,0.0,0.0,0.0
4.32,0.0626666167821508,-0.2976344103943434,0.0,0.16886558510040314,0.10716535899579915,45.0,0.0,0.0,0.0,0.0,0.0,0.0,0.0,0.0
4.33,0.015705379539063966,-0.2998519681097195,0.0,0.17214840540078863,0.10180828315007445,45.0,0.0,0.0,0.0,0.0,0.0,0.0,0.0,0.0
4.34,-0.031395259764655715,-0.2994080185284815,0.0,0.17526133600877258,0.09635073482034327,45.0,0.0,0.0,0.0,0.0,0.0,0.0,0.0,0.0
4.3500000000000005,-0.07821723252011685,-0.29630650217854115,0.0,0.1782013048376736,0.0907980999479093,45.0,0.0,0.0,0.0,0.0,0.0,0.0,0.0,0.0
4.36,-0.12434494358242766,-0.2905749483385893,0.0,0.18096541049320392,0.0851558583130145,45.0,0.0,0.0,0.0,0.0,0.0,0.0,0.0,0.0
4.37,-0.16936896012264485,-0.28226423068626777,0.0,0.18355092513679622,0.07942957812695613,45.0,0.0,0.0,0.0,0.0,0.0,0.0,0.0,0.0
4.38,-0.21288964578253447,-0.2714481157398063,0.0,0.18595529717765027,0.07362491053693564,45.0,0.0,0.0,0.0,0.0,0.0,0.0,0.0,0.0
4.39,-0.2545207078751829,-0.258222608101184,0.0,0.18817615379084496,0.06774758404905869,45.0,0.0,0.0,0.0,0.0,0.0,0.0,0.0,0.0
4.4,-0.2938926261462359,-0.24270509831248452,0.0,0.19021130325903082,0.06180339887498926,45.0,0.0,0.0,0.0,0.0,0.0,0.0,0.0,0.0
4.41,-0.33065593266182713,-0.22503332088913727,0.0,0.19205873713538862,0.055798221207846,45.0,0.0,0.0,0.0,0.0,0.0,0.0,0.0,0.0
4.42,-0.3644843137107061,-0.2053641317786064,0.0,0.19371663222572622,0.04973797743297115,45.0,0.0,0.0,0.0,0.0,0.0,0.0,0.0,0.0
4.43,-0.3950775061878448,-0.18387211609589327,0.0,0.19518335238774948,0.043628648279308735,45.0,0.0,0.0,0.0,0.0,0.0,0.0,0.0,0.0
4.44,-0.4221639627510084,-0.16074803849369812,0.0,0.1964574501457378,0.037476262917144836,45.0,0.0,0.0,0.0,0.0,0.0,0.0,0.0,0.0
4.45,-0.4455032620941841,-0.13619714992186374,0.0,0.19753766811902757,0.03128689300804611,45.0,0.0,0.0,0.0,0.0,0.0,0.0,0.0,0.0
4.46,-0.46488824294412545,-0.11043736580540375,0.0,0.19842294026289553,0.02506664671286082,45.0,0.0,0.0,0.0,0.0,0.0,0.0,0.0,0.0
4.47,-0.4801468428384711,-0.08369733181176983,0.0,0.19911239292061597,0.018821662663703224,45.0,0.0,0.0,0.0,0.0,0.0,0.0,0.0,0.0
4.48,-0.49114362536434447,-0.05621439437571705,0.0,0.19960534568565436,0.012558103905862362,45.0,0.0,0.0,0.0,0.0,0.0,0.0,0.0,0.0
4.49,-0.4977809823015399,-0.02823249399555463,0.0,0.19990131207314635,0.0062821518156257325,45.0,0.0,0.0,0.0,0.0,0.0,0.0,0.0,0.0
4.5,-0.49999999999999994,-1.028889005474753e-15,0.0,0.19999999999999996,1.1021821192326179e-16,45.0,0.0,0.0,0.0,0.0,0.0,0.0,0.0,0.0
4.51,-0.4977809823015402,0.028232493995552582,0.0,0.19990131207314635,-0.006282151815625515,45.0,0.0,0.0,0.0,0.0,0.0,0.0,0.0,0.0
4.5200000000000005,-0.4911436253643438,0.0562143943757192,0.0,0.19960534568565436,-0.012558103905862848,45.0,0.0,0.0,0.0,0.0,0.0,0.0,0.0,0.0
4.53,-0.4801468428384711,0.0836973318117699,0.0,0.19911239292061597,-0.018821662663703,45.0,0.0,0.0,0.0,0.0,0.0,0.0,0.0,0.0
4.54,-0.4648882429441254,0.11043736580540382,0.0,0.1984229402628956,-0.0250666467128606,45.0,0.0,0.0,0.0,0.0,0.0,0.0,0.0,0.0
4.55,-0.44550326209418406,0.13619714992186382,0.0,0.1975376681190276,-0.03128689300804589,45.0,0.0,0.0,0.0,0.0,0.0,0.0,0.0,0.0
4.5600000000000005,-0.4221639627510065,0.16074803849369995,0.0,0.19645745014573776,-0.03747626291714496,45.0,0.0,0.0,0.0,0.0,0.0,0.0,0.0,0.0
4.57,-0.3950775061878447,0.1838721160958933,0.0,0.19518335238774953,-0.04362864827930851,45.0,0.0,0.0,0.0,0.0,0.0,0.0,0.0,0.0
4.58,-0.364484313710706,0.2053641317786065,0.0,0.19371663222572627,-0.049737977432970926,45.0,0.0,0.0,0.0,0.0,0.0,0.0,0.0,0.0
4.59,-0.330655932661827,0.2250333208891373,0.0,0.19205873713538868,-0.05579822120784579,45.0,0.0,0.0,0.0,0.0,0.0,0.0,0.0,0.0
4.6000000000000005,-0.29389262614623574,0.24270509831248455,0.0,0.19021130325903068,-0.06180339887498973,45.0,0.0,0.0,0.0,0.0,0.0,0.0,0.0,0.0
4.61,-0.25452070787518577,0.258222608101183,0.0,0.18817615379084504,-0.06774758404905848,45.0,0.0,0.0,0.0,0.0,0.0,0.0,0.0,0.0
4.62,-0.21288964578253758,0.2714481157398055,0.0,0.18595529717765036,-0.07362491053693543,45.0,0.0,0.0,0.0,0.0,0.0,0.0,0.0,0.0
4.63,-0.1693689601226481,0.2822642306862671,0.0,0.1835509251367963,-0.07942957812695593,45.0,0.0,0.0,0.0,0.0,0.0,0.0,0.0,0.0
4.64,-0.12434494358243099,0.2905749483385888,0.0,0.180965410493204,-0.08515585831301431,45.0,0.0,0.0,0.0,0.0,0.0,0.0,0.0,0.0
4.65,-0.07821723252011321,0.2963065021785415,0.0,0.17820130483767352,-0.09079809994790941,45.0,0.0,0.0,0.0,0.0,0.0,0.0,0.0,0.0
