time,acc_x,acc_y,acc_z,gyro_x,gyro_y,gyro_z,pitch,roll,yaw,pressure,altitude,mag_x,mag_y,mag_z
0.0,-0.009441975220141395,-0.017447457423139683,0.09437639113882115,-0.006493006040773641,0.0060425658069161725,0.03353306690726599,0.01191001017649535,-0.007258325967882231,0.02176169057568256,1013.2150404790046,99.9599448825405,29.981828256436433,-5.026351268875934,40.00893040658899
0.010012515644555695,0.04264256778329027,0.022991022041840434,0.0899017217201318,0.0028084981951061287,0.013424677348340942,0.0058132406966676375,0.05707733462692483,0.009636007669675156,0.016038236181075582,1013.2486276388485,99.99215872396385,30.04122439104487,-5.001350042592632,40.03141208705482
0.02002503128911139,0.03221967772264548,0.016954248323573225,0.07903654276408871,0.024434614606662367,-0.0031672157880278887,-0.015398765682994493,0.06415330146490672,0.04990220237375842,0.053523697173554624,1013.2447853205994,99.96431149475782,30.011297216314116,-5.001382615888255,40.00496244732843
0.030037546933667086,0.041796078158548494,0.011249764596521846,0.08460293741323657,0.010395290288066341,0.016249522654206414,-0.016096779934432245,0.11900632412740479,0.04542138961163576,0.06484939298841105,1013.2037529390611,99.98602375674224,30.011876853820223,-5.021550052081139,40.03780468000705
0.04005006257822278,0.12476504182270998,0.04502003497015698,0.08019521528353125,-0.026035711764080333,0.031354008471087484,0.025336372204113385,0.14966223735959625,0.07131446387456118,0.07856140164607005,1013.2573641988113,100.02078601937687,30.03381529446708,-4.978521816764681,39.99701755348811
0.05006257822277847,0.10489680909938012,0.05099369717927515,0.11930396060676493,0.03072740686349292,0.022777822679767797,0.02332227413565182,0.1833400187000111,0.1040766852406811,0.1608582989774174,1013.2303983311189,100.01864735894969,30.030260797681688,-4.940068245061968,40.04537530582343
0.06007509386733417,0.10816862686242412,0.026170798082330266,0.06289539118891328,-0.0010060146280684995,0.02218499492078209,0.05038617393875591,0.2205447722331156,0.13320017373956805,0.1222913897288338,1013.2436177882767,100.01502354705865,30.027550402378875,-4.986454032989368,40.02248600042522
0.07008760951188986,0.1386589311558061,0.06720655762954326,0.08688496037112263,-0.008857112970256958,0.01866629747377376,0.010758376024889152,0.23401096254615208,0.10988910324909482,0.14190792441674877,1013.2187165675075,99.98140877190977,30.009063433183112,-4.949009273162326,39.99957768869294
0.08010012515644556,0.11524278587833504,0.03741922103772929,0.06798135490783083,0.06495483506858322,0.003580370180084726,-0.009720380518187459,0.3005708109069607,0.12887905092393592,0.1715409103702451,1013.229627225035,100.00102701027717,30.058860721147568,-4.945646670505817,40.0963381297855
0.09011264080100126,0.1644652083994395,0.056711537892626174,0.05098574899732976,0.040516387987860426,0.03854895377182956,0.03266286434503577,0.33569539858237335,0.14579627689092092,0.1564138013149535,1013.2437284455444,100.03725166923296,30.020449820122046,-4.96179102409529,40.0746838682666
0.10012515644555695,0.19450155415472303,0.04366261506011125,0.056451704818364326,0.029539145489699572,-0.006014641907409156,0.003173704329985018,0.41258461494887505,0.18295514770111,0.1703312368002538,1013.2360064159492,100.02484026846562,30.04358673636701,-4.942160191501185,40.09475968231161
0.11013767209011265,0.14249986095382702,0.05121944161010212,0.03910513839673582,0.0352073885114012,0.02294363676590617,0.01538181947557082,0.3926141379843011,0.22431246946683,0.20845448480005985,1013.2772643343579,99.96974626212689,30.021067710816734,-4.939091440753632,40.09623942158009
0.12015018773466835,0.1768491524113936,0.012633965668019193,0.038043249546637216,0.07163800535058817,-0.007254637529211891,0.0682110793138429,0.4748070217611055,0.23881559713007272,0.2621101373646787,1013.2257922765438,100.02295093874915,30.074908493312225,-4.972985471767107,40.06308105384245
0.13016270337922403,0.19868919122570075,0.01469099382348846,0.02648918543092974,0.05911846147348164,0.016610105569409072,0.025223671054272506,0.4665681701264329,0.22904656333785456,0.23264186820159055,1013.2486166653563,100.00666958624558,30.08034577588481,-4.924043196485007,40.05886647516334
0.14017521902377972,0.2230397056350102,0.04352418816788799,0.049670816662734985,0.03159106296530032,0.023739904126149923,0.05860965152560911,0.5156449912809995,0.23601741876319673,0.2780053517038112,1013.2425583849948,99.98896824509293,30.120496796808332,-4.94701107300777,40.086758497797234
0.15018773466833543,0.16798913674061858,0.006465353078250221,0.06192358828444264,0.06057102686918286,0.04617671192982563,0.06413446010899479,0.5451966669217925,0.24020928757754836,0.30586351390065647,1013.2717723590944,100.04270347124353,30.095595257589196,-4.93807918937552,40.11659917562397
0.16020025031289112,0.16684820680586063,0.0222284702631319,-0.02223889260894705,0.07616276738092022,0.03040400394500081,0.04370050315644307,0.611415733145147,0.3287912724433375,0.27091779120250314,1013.2660939791012,100.04023220246302,30.11181795880864,-4.965868867818979,40.10307776539592
0.1702127659574468,0.21020399362401732,-0.011159028384800358,0.007454170958490516,0.07432446812249256,0.02106026616762747,0.045275841520472156,0.6060561647192685,0.3009942134313308,0.3284907731861509,1013.2567671050522,100.01814683202942,30.115511039807217,-4.886881380494591,40.14366697559876
0.18022528160200252,0.17534055322240819,0.0013207961990730922,-0.003187050771000158,0.07261004718418647,-0.007823020436545737,0.07187236277228758,0.6706507584110196,0.30457705507096094,0.3113503189248546,1013.231676966113,100.06374116618862,30.1025172990427,-4.887992562557208,40.15164544683829
0.1902377972465582,0.20396401303760944,-0.0032331498525921265,-0.06486285491311163,0.058424259644575954,0.014681091939105936,0.07258225889214587,0.7203740117410681,0.3649010844330867,0.34404601806399915,1013.2429188365654,100.04231661379507,30.121837125603754,-4.893326443906814,40.15393826495666
0.2002503128911139,0.2010758019254446,-0.041915528527284765,-0.009359020159768548,0.05059070791834692,0.0942082196428757,0.07047459491829997,0.7298530578376592,0.3409189595393883,0.36732084695380923,1013.2322128286501,99.99141239443449,30.13114703169724,-4.909627036803093,40.09704752331297
0.2102628285356696,0.15749026028601368,-0.0401584425410444,-0.04288239906247778,0.07614009085679478,0.048689228328672784,0.06224071882769268,0.8097523133228214,0.388522510407698,0.46133966020181716,1013.2481233209895,100.05242307012003,30.118820171105426,-4.895627315288418,40.14318360398218
0.2202753441802253,0.18218604486169257,-0.04244826091540821,-0.08458812802786328,0.060875212434084634,0.01744337379064428,0.11847471932786516,0.8187393377294997,0.39342178671523165,0.4328171372357215,1013.2740161055677,100.00907543272882,30.146177873370885,-4.882587683279507,40.17174704929057
0.23028785982478098,0.16859389914108106,-0.054316489102018965,-0.06427041192478491,0.07432213143558142,0.06646715907110723,0.04771205541115272,0.8198301368604562,0.39273011983523176,0.4411483810563842,1013.2761591563965,100.05303854338223,30.155135234260626,-4.903735904904924,40.15660614936455
0.2403003754693367,0.1510554454106507,-0.05115438387581122,-0.10195525827440523,0.06374063270245588,0.0727780879088414,0.05848544449622883,0.8827828699021646,0.4564234020537608,0.4524510467120545,1013.2261429158417,100.0623016241073,30.144026969365004,-4.856833388794762,40.21514055818328
0.2503128911138924,0.1322662325799213,-0.012598462534428263,-0.04608886053748171,0.06879692957867084,0.026008997302700395,0.08979130193243512,0.882452734089052,0.45459788614599045,0.46306297310830596,1013.3053042423945,100.01230268101844,30.155295804354214,-4.882707034545736,40.18796766736349
0.26032540675844806,0.12275239408092516,-0.02251916181761252,-0.062128741885198374,0.07391061556002002,0.06694697185154543,0.1132118992823002,0.9067681332018104,0.47198244481109025,0.49573124760202947,1013.2194339284555,100.02278804345498,30.140193347832394,-4.85695005038376,40.20692617521631
0.27033792240300375,0.11934123432946928,-0.04835039734221432,-0.0724309039088358,0.046860098817628454,0.057507836910734474,0.10464623518346831,1.0011792733662,0.47555635402114343,0.4984996296296795,1013.2548794078284,100.04271292758436,30.152123742570662,-4.884416757827764,40.20983685612555
0.28035043804755944,0.12601612857206,-0.07966761100139849,-0.09917101885921914,0.05478927362507839,0.10469117258425581,0.08455902405880132,1.0113909370505543,0.49966831193573935,0.503749038789829,1013.239922823185,100.02572568581166,30.15260070902125,-4.866143331803607,40.19554051250505
0.2903629536921152,0.03454608647884136,-0.013191775339092528,-0.04708253909878489,0.09716137110576564,0.07074016875525686,0.07244264732871449,1.0234470717726565,0.5405367843710136,0.5415065191351406,1013.2504885776698,99.988479251943,30.143958163427147,-4.868466586821024,40.20057089111826
0.30037546933667086,0.05860525661197469,-0.04996184160947306,-0.07983650275876059,0.0569971841381169,0.066372389408941,0.10571632570245514,1.120448919600379,0.5274312106539244,0.5808337716080565,1013.2989722143316,100.04747734955431,30.18720289805169,-4.8739522976317655,40.19312278735445
0.31038798498122655,0.01952443917284844,-0.017193862574460986,-0.12020526779974387,0.09078767632898252,0.05519681953282706,0.11948367000367091,1.120336010088485,0.5542117233338242,0.5888929536361026,1013.2777415980429,100.00586415909122,30.18334302493149,-4.8766141734772015,40.210539062897936
0.32040050062578224,0.0584996308688734,0.008954902849033516,-0.12364004345535264,0.08059732848555115,0.07567667064903406,0.13870265079038213,1.1265911936582,0.5759992854397692,0.5919759485361746,1013.2531138718953,100.03695999625667,30.195268790288058,-4.860932449611177,40.22917366856563
0.3304130162703379,0.049921276523281946,0.008394979351906709,-0.11249980222881208,0.04772715110137359,0.06928350280893683,0.09272730373687932,1.1994660752875816,0.613640780597405,0.6051606882653293,1013.2340958657992,100.01074994221509,30.1855756022446,-4.798478163103398,40.2467876315061
0.3404255319148936,-0.0009079168638287255,0.006560540298317019,-0.1164088713537521,0.08077581127991516,0.04963747578953695,0.10119191735902557,1.1666007790179855,0.5866606615513582,0.6269084885544385,1013.2889588040675,100.0325654537771,30.196449945557248,-4.813133575909382,40.220696270562556
0.3504380475594493,-0.03637168264141508,-0.014354181477939938,-0.08587410014458421,0.1179564551993145,0.035445168877677916,0.1387001927522276,1.2276912954944492,0.6096751170791613,0.6498780998354693,1013.2709364348171,100.0658427083433,30.196430694744823,-4.839662898723795,40.23327041735275
0.36045056320400504,-0.08415676794669782,0.022821027708078232,-0.10614426699351602,0.1212874626521339,0.04758993138413819,0.13112629001382353,1.2502628409895742,0.6405422265167035,0.647941982020746,1013.2410647022624,100.05301952092303,30.221454273479797,-4.82698681464364,40.25108651201717
0.3704630788485607,-0.03921535311995394,0.05926168730311388,-0.08661395900768058,0.08264378298582778,0.04212669099986299,0.15569273745350748,1.3294010418352862,0.6667960378068762,0.6702532325269518,1013.2527555793774,100.01976644530833,30.17858411612748,-4.837121910437705,40.27861847220974
0.3804755944931164,-0.07636591157545677,0.04804944106013201,-0.13883943561098996,0.11188641036912653,0.02761552733565289,0.11513024457466686,1.3435416714818245,0.7359469267566241,0.7138554504850427,1013.2508096463183,100.0548788955174,30.24534833359643,-4.852985438493338,40.25026678019517
0.3904881101376721,-0.10314914720257976,0.07174803240600781,-0.12430621709690623,0.0669543674005185,0.07845448491664067,0.14979830921933535,1.3520186916944559,0.7070476327065716,0.7154416975839657,1013.2521028038747,100.05175599363322,30.237510163846,-4.8138558341237685,40.27028717332604
0.4005006257822278,-0.10746143881378757,0.055826414903245115,-0.05148409479142027,0.11244747757682652,0.058676935526018756,0.11142591366299333,1.3743722651593273,0.721905503226309,0.7398322695412061,1013.2376161140285,100.027540198758,30.201659867423054,-4.847405509829637,40.26813605313693
0.41051314142678347,-0.14263735342747605,0.03439691655610817,-0.062399667716455796,0.076832275915194,0.07022374743070578,0.17457194330297107,1.3754798887312445,0.7236572226108007,0.7479383866441041,1013.2400772676726,100.0222069507685,30.231881706205794,-4.798097994241834,40.280979610290615
0.4205256570713392,-0.15341882453627895,0.06764871699953001,-0.03768466781288511,0.0870888412693116,0.022567640746080194,0.14960606510862023,1.433362072531177,0.8171185624314683,0.7913838927911342,1013.2575145745856,100.06794974311235,30.227476776431928,-4.853160770766522,40.27083021508393
0.4305381727158949,-0.14748115277165794,0.05908647173171405,-0.04197102036076833,0.130855342444772,0.051927660624187,0.11695759194799761,1.446352623518879,0.7776013185647047,0.798578427849973,1013.2113379984706,100.01120188111314,30.2723043689485,-4.844796035151449,40.32875915018097
0.4405506883604506,-0.14652359031929355,0.0935581126751374,-0.058813641646503996,0.10617490305849742,0.055982678498093005,0.12021917360005376,1.4939684920640321,0.7970494030325032,0.8142093388354864,1013.255965473813,100.06363963443631,30.256580497222703,-4.813225667524852,40.29626680240919
0.45056320400500627,-0.1828103981905862,0.05134433710436956,-0.023864518768936752,0.12317344349084326,0.05365272081071672,0.12775311217260577,1.4853679728859404,0.8458583421374177,0.8537620523846589,1013.2265981946091,100.0530356063716,30.277666441785467,-4.817804144373456,40.323556717597434
0.46057571964956195,-0.1671186772415216,0.07873675640015307,-0.012445454733493237,0.07217516383808416,0.05009708766629318,0.14441219386735987,1.5452904763631623,0.8480718524576278,0.8708693024500536,1013.2197044966725,100.03129369898696,30.278905568516254,-4.8113901260228715,40.27775263095745
0.47058823529411764,-0.2272456817416397,0.03269856728723252,-0.04937581330007576,0.09834926634510154,0.0777771936415562,0.10171691449853933,1.5813305185372362,0.852912815624834,0.8646208285899719,1013.2391309418674,100.02869465486188,30.28924492785378,-4.793869020853657,40.31814675450101
0.4806007509386734,-0.20176897267196411,0.017076820665744594,-0.02639293675800361,0.10085067507599932,0.07158866174719708,0.16004396320086886,1.5315335563626327,0.8300778762021762,0.868711495005299,1013.2230013672091,100.04647327339009,30.280383518651245,-4.792948784182765,40.30300230392437
0.49061326658322907,-0.1816381555939439,0.008464963702663877,-0.010336552406231417,0.09488794043214635,0.06298379715487794,0.13241132533322217,1.5565935557956976,0.8579131340427661,0.9309361988493204,1013.254594669515,100.05097440609028,30.304828874071415,-4.786678324250002,40.31369241492813
0.5006257822277848,-0.19077379615251122,0.012688719147414974,-0.01710072614330732,0.0872192653631467,0.06607701966576013,0.13563799430535411,1.6002644701890127,0.8857982650800156,0.9312750364481442,1013.2268216498046,100.07930923988393,30.28280942335527,-4.816956757295156,40.283817419302025
0.5106382978723404,-0.1574466734773291,-0.021056868893611712,0.0022919181400026236,0.12592312051144677,0.025523527249695234,0.1266957062470155,1.6694142740502156,0.8751511250443831,0.9316259489993245,1013.2368205957581,100.01651188633004,30.324948699260684,-4.783351565151794,40.31964196167769
0.5206508135168961,-0.1789850239867001,-0.015842125071687342,0.016444449608320977,0.12859418733620134,-0.019010046590929627,0.15062625489704634,1.6510934433128677,0.9294804329414099,0.9716955852629049,1013.2347037731892,100.07411398162586,30.31636006226372,-4.81611053392122,40.32318762830168
0.5306633291614519,-0.20536331265756352,-0.018979557812586402,0.02771576132372896,0.12974395968435448,0.046007216502757714,0.1429911757376684,1.6944264543136738,0.9347069991375059,0.983803799040113,1013.238878987275,100.0718384363829,30.284864274963464,-4.772408750365153,40.33250009475412
0.5406758448060075,-0.1676034353724803,-0.033977125602510004,0.009871810108402927,0.11272236373043214,0.030114015131767598,0.19030967819613165,1.702634345414144,0.9437797070933335,0.9893955651186861,1013.220434370078,100.05447328299401,30.32684168946629,-4.785999626766588,40.34617628562192
0.5506883604505632,-0.1813019055107561,-0.03929031626321408,0.07874193985830194,0.11589003056182098,0.07155265508833514,0.15490466558500002,1.7518420616283394,0.9775993668416754,1.0218460211330223,1013.243599345457,100.03652411004755,30.329908634459667,-4.810365027532942,40.33414597692642
0.5607008760951189,-0.15810881466360102,-0.0661614614906556,0.06784307247528439,0.1120036867944687,0.03264315978566987,0.1538069797555595,1.7296619828175495,0.9309484839467911,1.054702566002308,1013.2382519822935,100.06556115784524,30.306871110913008,-4.751459936966143,40.370059893746074
0.5707133917396746,-0.17070033969946094,-0.04398998213369765,0.06323187384763834,0.07804608886536063,0.0218761741610322,0.14967922273806947,1.7408216297778287,0.9799187113433825,1.071880612078811,1013.2495780885178,100.01631175548812,30.34174056489205,-4.725501491211793,40.352431301424026
0.5807259073842304,-0.13833323875230485,-0.07234661455612278,0.056420540504536584,0.08731078302303505,0.03243033825817953,0.16273738253971254,1.7683480400453913,0.9917074641132357,1.067813835956815,1013.186998005759,100.03665464197432,30.32348630448842,-4.759834873417584,40.349053794038426
0.590738423028786,-0.1329977464543622,-0.06350604728764837,0.08867941463797653,0.12528206562758104,0.053349703671477136,0.12957607870480414,1.8264825724185454,0.9595037177456537,1.1235978398282207,1013.2097960186775,100.08870413133431,30.320514991311768,-4.750707081231388,40.35609316745537
0.6007509386733417,-0.12318684587369813,-0.03618508755661893,0.05457778002316826,0.09006147699310556,-0.002701672657326827,0.14795840359775275,1.7913981075698173,1.0337014228656622,1.113863477405013,1013.236988350998,100.06655316902066,30.3157761807735,-4.785638107544614,40.370956361605515
0.6107634543178974,-0.061139984800912865,-0.04413088964364166,0.08317649703226239,0.13087341217334394,0.0430039348401991,0.16435120324899924,1.8515862741476983,1.0448745398552886,1.1594540531863433,1013.2262959729355,100.0741333760425,30.329938772884518,-4.734950401623908,40.37667960977343
0.6207759699624531,-0.12212929105744935,-0.04668371909001274,0.06021233043770445,0.0735861098517586,0.018339082329790004,0.16947651962724353,1.8392130335738062,1.0868435827212826,1.152640496048674,1013.2285088235333,100.03690382332151,30.343582793837744,-4.746324691467186,40.322951645596106
0.6307884856070087,-0.06149907100714867,-0.0010710096943857446,0.10250024221818523,0.0924378357035589,0.020016917618318645,0.15652248434116273,1.841205642989895,1.0296011833496141,1.1562041554444398,1013.2261248201099,100.0719100971728,30.349469093677193,-4.758371928845001,40.39790328163414
0.6408010012515645,-0.020806315539324608,-0.016299802369646472,0.09445400240643335,0.09639583620076751,0.008660372187802374,0.13899558917051308,1.8808178669125983,1.077593104303334,1.1779361788743778,1013.2181633495335,100.06566221580167,30.355130479538428,-4.745998909910093,40.400610212416595
0.6508135168961202,-0.039653219631149886,-0.037115308400889946,0.09698884013337697,0.09483320863701093,0.026538241948771323,0.14552371660136632,1.8819880761662158,1.1034717791425779,1.1851320391457953,1013.2683335084976,100.05218453952676,30.37319806551587,-4.748838721839544,40.368888137168504
0.6608260325406758,-0.04200467631760964,-0.008291710475374957,0.10375465631530445,0.11778299932394906,0.031087897925054706,0.14960920489610127,1.9168805731654364,1.0994427515976253,1.1880700359598575,1013.2414418513745,100.06500587392954,30.34282199502273,-4.771931479332752,40.40473872602396
0.6708385481852316,-0.0011217819670489727,0.003681081175024908,0.0997374653987369,0.08637248161884377,-0.00524482104732618,0.14529788222452636,1.892982993649118,1.1208520484569016,1.2117327558988213,1013.2350532047728,100.04468899149387,30.37911441723163,-4.754190494143276,40.369203399406146
0.6808510638297872,0.027584101817740625,-0.038780833041997975,0.0932211217801337,0.10722702235047973,0.04856700449139252,0.17268178282546276,1.954417776325089,1.1401264859909057,1.2365290239601505,1013.2567299508221,100.07259170697405,30.38288382350135,-4.739770450501103,40.40473702867811
0.690863579474343,0.04791565486036006,0.034633022612006036,0.06856079173296976,0.06384267007428902,-0.004248888049009556,0.13141883308267102,1.9336514543650523,1.159334288213692,1.2618883769911569,1013.2517599160174,100.07613485371567,30.391420629775965,-4.726867410055008,40.400933809703034
0.7008760951188986,0.0919644723858094,0.01933925325486499,0.1055662573659507,0.09334874064065427,0.013807008143440151,0.09474231233782783,1.9117280605007576,1.1274682843105788,1.287470427922551,1013.2643126176091,100.11005514789123,30.393049253114906,-4.737514011704955,40.38895989025557
0.7108886107634543,0.10121979456824656,0.03895309948530894,0.09225020799301359,0.07107586819036538,0.0009893426927910232,0.1285238739508941,1.9385879996172366,1.1783946794993991,1.2967493765704672,1013.2490178275687,100.08423830677796,30.42131854887578,-4.72729811000422,40.37539570428571
0.7209011264080101,0.09454684858844736,0.02122852550531613,0.09023629834018088,0.030315086311620137,-0.023673595169692956,0.15848077717932907,1.983921300999801,1.1889864662332388,1.3361996319137301,1013.2407680492012,100.06742110135778,30.41745585987529,-4.731209843659743,40.39682446379171
0.7309136420525657,0.10692300622962696,0.07466046275488447,0.07563347864491872,0.06578313275219302,0.000712195646385872,0.1358327763410823,1.9957062255432563,1.2079220538453406,1.3276214104063047,1013.2571030475852,100.07633019002037,30.41703244730334,-4.694042167875041,40.36983192848096
0.7409261576971214,0.1280030876541713,0.05277163534928845,0.08705498212693531,0.06501842470930062,-0.01888678202269302,0.1423441582003633,1.98247668453792,1.1826472333048104,1.3307299795463883,1013.2094869590711,100.06847535066098,30.435514091068672,-4.704022263548569,40.4418373114377
0.7509386733416771,0.17134367826461577,0.05724758945361133,0.08423129650456856,0.11525803550922686,0.003505451819803591,0.1294358424527523,1.9509639451211493,1.2215261617555968,1.3657978255444083,1013.2359651098876,100.04203968921338,30.411590448234044,-4.688451573999679,40.41294706001392
0.7609511889862328,0.14755864957611708,0.062303839019883095,0.06685449662294007,0.05823437563045243,-0.006976177409078618,0.17291690532835197,2.00915559785957,1.1762573805467242,1.3702848392879523,1013.1905616929146,100.07467229793416,30.392186637350115,-4.70811988178046,40.41245596851579
0.7709637046307886,0.20158714536311859,0.05220311040790677,0.08233705204243666,0.05757031417631023,0.004030428013529298,0.1600445050113437,2.0133715703046438,1.2565025860187127,1.3691529453477882,1013.2456931702898,100.07534379691715,30.427154789493937,-4.756779355206327,40.38330421942155
0.7809762202753442,0.14777322238147295,0.03384821462632992,0.037548871075838784,0.07163452130631666,0.009096281682118467,0.14670332246917822,1.9762322731584783,1.2518873404008104,1.4448606051604798,1013.2478225640548,100.09476744740331,30.4113556624596,-4.711306958568831,40.41202614574234
0.7909887359198999,0.1763777582464803,0.07786213681014689,0.07524966609138148,0.07232885969010362,-0.03855230347521452,0.16161068162054845,1.9705539107268195,1.268135543637397,1.4323164419379584,1013.2511485617476,100.10270941274582,30.38842955366389,-4.7140976149824825,40.41132456816513
0.8010012515644556,0.21775666627185494,0.022460857507077735,0.006619550177545654,0.025104654815501712,-0.04496629196931938,0.15924933258209442,2.049423766298465,1.2765482202595726,1.419268273092069,1013.219940517737,100.06698847907221,30.439636968967843,-4.708401024950087,40.412165969164015
0.8110137672090113,0.17352795216786332,0.02473505237179372,0.013154313317520112,0.06242117624932713,-0.020801542001751105,0.12891702126618576,2.0115354058048966,1.2905793275401278,1.471068044898615,1013.2434652578755,100.09710635226263,30.452381313987946,-4.688689813934868,40.36891224769547
0.8210262828535669,0.19312325662785124,-0.007373797979038317,-0.01138917507570238,0.050258285725747046,-0.03229888179101851,0.13872233897178443,2.0035186511993723,1.272153070657502,1.4684867282813017,1013.2491224359445,100.07646341699197,30.424658488584747,-4.725778930162646,40.376977789968194
0.8310387984981227,0.1993193240883903,0.0069266053205465795,0.010850246199111912,0.06910295264524866,-0.04677018902099545,0.10076905789328805,2.01083712701651,1.2787062369809898,1.4892779046530848,1013.2426259777482,100.08346782516902,30.44305812779082,-4.732257974381745,40.40225919085238
0.8410513141426784,0.22098507089273436,-0.007765711713666435,-0.0320627110031705,0.023167970469192976,0.026215987334692072,0.15026895929818607,1.9861079620045474,1.2785818191234308,1.5633616680617628,1013.2427666222151,100.09179993509336,30.431243072928005,-4.6970373467419915,40.40835940686432
0.851063829787234,0.13532127234459917,-0.032117984255135595,0.002172169468545402,0.06928729908413941,-0.027604540951711682,0.1160001930372823,1.9613425047016075,1.304676285287851,1.5027885091307747,1013.252353096727,100.0915591236417,30.428034040624173,-4.69369487418258,40.394978490931656
0.8610763454317898,0.17173365029301813,0.005848295667070621,-0.023883993190007023,0.06188528955506578,-0.02340888361358762,0.1358809155123612,2.003275281271432,1.333423343104186,1.582006339634634,1013.2367035031097,100.10816077576953,30.469648113789365,-4.711558975310225,40.38380372348362
0.8710888610763454,0.20573507347385417,-0.020625136207982446,-0.016813298866258746,0.000782576705914563,-0.03107909174329147,0.10969249423066188,2.0231365431770425,1.3643091933810876,1.5756477185145048,1013.2369792548893,100.08015686046272,30.4632554531612,-4.730446466669232,40.395283689051574
0.8811013767209012,0.19306693970274563,-0.016168936224180534,-0.03231981846976022,0.056618240196888214,-0.05770128892554344,0.12431808314523954,1.9963004042407584,1.368868712343138,1.5406462771361058,1013.2409728034539,100.06919440332821,30.42814071809131,-4.69255399946652,40.42782232942428
0.8911138923654568,0.1460297872680452,-0.07419011676497142,-0.0359367169580079,-0.012011935838854161,-0.05465895246401039,0.06772555726492221,2.0049282566232933,1.3547619847447663,1.5870006029151944,1013.256543558633,100.084446507991,30.420964741809488,-4.742378752851379,40.40218408671868
0.9011264080100125,0.16870894375887688,-0.06971817518700837,-0.05335717882978185,0.04213145641111009,-0.07165433694700002,0.14354759251634502,1.9715271863297874,1.3370713267566399,1.57996677831566,1013.2331313836384,100.09447792522893,30.410701117361345,-4.688488036373964,40.38308994045789
0.9111389236545683,0.10779854741494485,0.007746649421172903,-0.04683295612784405,0.01255675956713994,-0.006170511145187359,0.14656134816269634,1.9637624583023974,1.3504523678061129,1.6188103293620921,1013.2170070278424,100.12130741683676,30.44487394437098,-4.720291606261374,40.40875426086739
0.9211514392991239,0.15469035344377868,-0.061935461499655085,-0.050430916579102675,0.01042756354093532,-0.029094290938571035,0.10695215395361982,2.0118140811655643,1.379804149630607,1.6316977104794252,1013.2205538088263,100.10782721199371,30.430549038626598,-4.701690252854813,40.39334846941363
0.9311639549436797,0.14858667289316588,-0.10467576271184723,-0.07093668895327694,-0.011715820402114177,-0.051501868770558734,0.1093763635139127,1.977135676126335,1.3596518272896958,1.6511585243469662,1013.2289423899838,100.1256691575898,30.440336740176352,-4.736934611318599,40.41080602286036
0.9411764705882353,0.10185462452770735,-0.05533727962048192,-0.12141584065426503,0.048725188651215445,-0.0567668416330815,0.07007806328451838,1.9475296803599276,1.3779603136452914,1.6657660217199861,1013.2699105774885,100.06990087828925,30.46569850308179,-4.720512104783685,40.389399729478455
0.951188986232791,0.10681718168787073,-0.08120471368200508,-0.0784897749665633,0.013322094511310867,-0.07150130521007815,0.07379742394042263,1.962307171605362,1.3944670170724287,1.6639300768526977,1013.1954297051464,100.07621133433048,30.424234668523265,-4.695973348362288,40.35786946720388
0.9612015018773468,0.07071889059971653,-0.037979927436580144,-0.06191476199521141,-0.0017804138905537278,-0.0660823254829283,0.09939462468174233,1.901265986186068,1.4220280943999357,1.6883170094701305,1013.2129456770265,100.10086167307419,30.44709709021988,-4.6824879539154525,40.42627180932812
0.9712140175219024,0.028612254405728923,-0.029713978707343706,-0.10616728962040023,-0.005154424443450746,-0.06415682420673473,0.10543437939311413,1.9159269601320263,1.389748346390867,1.6735499332404096,1013.2250490102238,100.07570711929742,30.480258613212072,-4.734465310537059,40.387564165733636
0.9812265331664581,0.047163948987664794,-0.016783882726423827,-0.07620823864887123,0.0071176894201182535,-0.06720036042661787,0.0933079946166094,1.9500655219464287,1.4204554386919823,1.7412085142040474,1013.2413389622602,100.07530611494921,30.473396670266578,-4.697942930231521,40.408842285733854
0.9912390488110138,-0.004671159655666498,-0.013406824806970367,-0.07862070433523068,0.009154964659105385,-0.06916778069274165,0.07897412700141437,1.9234322973541973,1.4073239159409154,1.737424830248661,1013.2236445779904,100.10061037012677,30.47436208879771,-4.701612663233752,40.341896002686866
1.0012515644555695,-0.03167168097520147,0.014260641502122423,-0.07111354386676398,-0.0034264296739680545,-0.08952977106357152,0.08059213735274312,1.9100142928025905,1.4351100675628083,1.779422717675986,1013.2186851378711,100.06355411154254,30.462881590667255,-4.681697370074256,40.39908458673224
1.0112640801001251,-0.011319118133125326,0.06880198524288533,-0.13038989599926423,0.03814299259050193,-0.03965474967738622,0.10877440186479921,1.8677444903028708,1.3917331746733546,1.8046850334159656,1013.2335479156108,100.07649190672181,30.481065577494896,-4.689991336450302,40.37393772249536
1.0212765957446808,-0.017871644358944252,0.0300801711347684,-0.11847775463213943,0.002010225852871689,-0.015407986298383261,0.07786563054330468,1.8660233137481588,1.449288743556603,1.7841935527220991,1013.2075620885603,100.11241625086137,30.474900282318522,-4.693095481324908,40.34952428215354
1.0312891113892366,-0.03528600063025965,0.02132585384543136,-0.11533830100752016,-0.042505143453621795,-0.08105018010674135,0.09435945789580374,1.8486766467716909,1.4939022422362445,1.8318306432870395,1013.239807279044,100.10582234903865,30.508184802496142,-4.696157073607775,40.386376325930165
1.0413016270337923,-0.04180743053318196,0.037070943296239715,-0.06362071092080472,-0.0149166682958599,-0.04374049378851932,0.09868687387665749,1.8405058714750868,1.4321249159350247,1.8235301644439084,1013.2410298204538,100.12452297997228,30.459742439531862,-4.699810910521729,40.34965910662592
1.0513141426783479,-0.1169808087724165,0.05373308769331502,-0.09292779350886939,-0.016305888182528358,-0.06405029414786292,0.07273197452072111,1.8747141219026835,1.4799891387748394,1.8847226007790232,1013.2152513220897,100.09713503755025,30.524375357695124,-4.747021021436666,40.334167205368225
1.0613266583229037,-0.09923231199235504,0.062222661645862036,-0.03734220116926218,-0.009469481117579106,-0.056782124634425384,0.11573034645774102,1.8372974611725865,1.478001610863208,1.8576558282083693,1013.2382266863762,100.12368543496409,30.476811864036552,-4.667662929203044,40.39299658464574
1.0713391739674594,-0.10722192488269981,0.06331499063347122,-0.09804408722797506,-0.027405722767517106,-0.04209615188512623,0.06564032546541669,1.8182153292327803,1.4574835225337839,1.8501798663345248,1013.2458395819311,100.1020572059417,30.494228580256973,-4.693690416533968,40.37175253646339
1.081351689612015,-0.10441188162145729,0.04052305531210864,-0.05030799345018008,-0.04028999186296794,-0.04691506637842167,0.09418463551462686,1.787334213094507,1.4752701143040927,1.8867016193041724,1013.2224836083661,100.10639812437252,30.51085646534052,-4.743408879906495,40.360909088251724
1.0913642052565709,-0.14150700703915703,0.06280586067521583,-0.07415871229991429,-0.05079575327538831,-0.041792701363661325,0.05211522436358183,1.7549014900375839,1.4428194882461387,1.915337433369711,1013.2302316528288,100.1256965318552,30.44512997370624,-4.712265419640477,40.355962409613916
1.1013767209011265,-0.16262824507763285,0.06757857700289097,-0.0922446164023274,-0.03230556083613705,-0.05758022287204795,0.0545478068547705,1.7750102085028492,1.4656100416898101,1.9210499601508684,1013.1880847089385,100.12611298631106,30.526611373047075,-4.71186042404713,40.34150968871429
1.1113892365456821,-0.2167189502202171,0.019116950643360445,-0.05927397087520189,-0.013690648016379644,-0.0820821754524045,0.03859206657644649,1.7682223753329747,1.4848445552433542,1.9256339431168963,1013.2283198838091,100.10282914638033,30.496223265785172,-4.70762714093978,40.31698147350066
1.1214017521902377,-0.16033541549295866,0.06231848101704418,-0.020023253213545058,-0.018917568048489063,-0.02736687396507858,0.03840208309526413,1.6972740964300728,1.4877063705845057,1.9483752046418858,1013.2408398094371,100.09270937932936,30.492079527583797,-4.73391005897956,40.32320915120038
1.1314142678347936,-0.19256906350851175,0.03280440364303159,-0.01553818224131234,-0.05314838684123527,-0.0496459070326473,0.0501573156108505,1.6961434654371716,1.4607244925909983,1.9716291240078365,1013.244029117852,100.12089820088669,30.48409536981148,-4.70008008864509,40.337355074871944
1.1414267834793492,-0.18276854349988045,0.038010612081878795,-0.037353687651619505,-0.05173519492500574,-0.05296105908149742,0.032563139825299084,1.6728391685428294,1.4841397632240891,1.964502829513977,1013.2393613006728,100.07399143542844,30.49957855497585,-4.7293181800568505,40.317776873808874
1.1514392991239049,-0.193414500304052,-0.012636257180394714,0.025078467634217012,-0.003921364140566742,-0.07958532179111158,0.034493057779331024,1.633918478781311,1.514516705786546,1.993277751006628,1013.2017918007823,100.12572551884703,30.502409857039876,-4.691831559545603,40.32500511335672
1.1614518147684607,-0.20876889125520984,0.0197558447833778,-0.01963906099062989,-0.07713688662803084,-0.05392493485408669,0.010148725989982052,1.6198965005033468,1.4944998739521436,2.002146933309524,1013.2562212083399,100.09709489792299,30.479402809087464,-4.703099484139104,40.33779546124285
1.1714643304130163,-0.1920429374829682,-0.012627688207481783,-0.008140905423086507,-0.0595830767113414,-0.012437681846108328,0.038054313014854145,1.6107821558453939,1.4946066672010756,2.0026150301801104,1013.2224029472612,100.09443774472145,30.49646877474917,-4.6944869122185695,40.32398163700715
1.181476846057572,-0.1647465258995103,-0.016237936213303033,0.06399242480408886,-0.036049657208897634,-0.01846427316587032,0.04984077836831918,1.5837599097225707,1.4481333256679612,2.0472259013943104,1013.1929746109865,100.14085969308995,30.476504709166658,-4.70452677181636,40.33803669562179
1.1914893617021276,-0.21346059484982613,-0.04757458384758821,0.0275378172900595,-0.08276648933578892,-0.018915782519500216,0.03811079146841213,1.5758064242106384,1.4534583576239573,2.036928451050036,1013.2267145763642,100.10687238350522,30.504732945401923,-4.722853118027361,40.31485415858726
1.2015018773466835,-0.19343294757262558,-0.04532825473076037,-0.00409998482083352,-0.07366509991428281,-0.0432196949879282,-0.004350384036691166,1.5430604806841648,1.4994821118644344,2.0373300754320853,1013.2073003097473,100.1109168820424,30.485629456460295,-4.76152715599103,40.32090817663714
1.211514392991239,-0.19336105623674152,-0.04500693188139308,0.06227243485543679,-0.10156068119915003,-0.0296384194851865,0.018568340629622804,1.5239670353691546,1.474104849391189,2.0838766464841627,1013.2534081560984,100.10376640602063,30.468421422119295,-4.746084541735515,40.28970877521143
1.2215269086357947,-0.1695862556661631,-0.060501448252207136,0.06540245948390266,-0.040969313871630164,-0.02435870229453964,0.0019569352446857403,1.4686715587556944,1.5266573245809314,2.0261530167219157,1013.2339105611379,100.11850374960106,30.493486292674326,-4.73117757909328,40.29475440672471
1.2315394242803506,-0.167384921697967,-0.05237007290589896,0.016928278993213287,-0.06136368115695604,-0.037832745249555384,0.016208925275024127,1.4835584111807296,1.486772247953952,2.052622619147028,1013.2369992236502,100.13339256954818,30.509114631064563,-4.7064198754824345,40.27308625512273
1.2415519399249062,-0.1940771382533347,-0.04823717319506653,0.07648532636822289,-0.04656486292205888,-0.061397728487131153,-0.0020062365775883337,1.4143957038727826,1.4882606484407332,2.105850107533904,1013.2510823125632,100.11748481721747,30.492080827404383,-4.709501532590568,40.26791044437875
1.2515644555694618,-0.09711778205558089,-0.04080861907928705,0.027862546346403567,-0.08103424976537973,-0.06148458788654763,-0.0020479051461682963,1.4247171463566066,1.4671127536045934,2.10580284614779,1013.2209271906307,100.12562015989622,30.484190354283953,-4.718963211607348,40.25473368396688
1.2615769712140175,-0.13538708218295345,-0.08868040035521793,0.0766488351764339,-0.06743999506777795,-0.0549708130842832,-0.006382617147025848,1.3809924919623877,1.4864619145960216,2.1403720355053126,1013.2056158634339,100.1112394798862,30.48244803355575,-4.680255751704874,40.28949883943008
1.2715894868585733,-0.11160125037368285,-0.05152705950996219,0.08287169863552997,-0.08144275118892118,-0.06254043244823694,-0.002176551591596642,1.3305849973427517,1.4881322348358643,2.150723601823666,1013.232125135021,100.11666497556617,30.49681978124334,-4.707382382110776,40.2665128287511
1.281602002503129,-0.0940569352664824,-0.07298201030654743,0.0953454928781484,-0.06419951334009098,-0.011387566142244721,-0.015026717740956498,1.325113781683269,1.4669217980488216,2.1733706976989344,1013.2066235366328,100.12339762178992,30.505952175526385,-4.727588213932443,40.26581409303872
1.2916145181476846,-0.04921339867954494,-0.024590676243792742,0.07165207924564326,-0.08593801777255289,-0.029087239954895566,0.003828802985724196,1.313285918945361,1.5255247829599377,2.1784275802059305,1013.239415929686,100.11871865337939,30.488679389966233,-4.7234522423264105,40.27751136750612
1.3016270337922404,-0.08218055040863816,-0.0347489597825581,0.09906457681498529,-0.06679100653385381,-0.019534295030673804,-0.03321158047157614,1.3010785417303212,1.481591280227931,2.154570811605236,1013.2247781709626,100.14228561850254,30.528043338635477,-4.695195696962673,40.26418730463674
1.311639549436796,-0.036842761027264616,-0.032346298307037946,0.13634767249562763,-0.05038080277944366,-0.017083621697790957,-0.042010257487809274,1.2092377454813033,1.4869454564000848,2.2214727423836913,1013.2368684420511,100.08546336651483,30.520515436615728,-4.749522333574428,40.2399067572243
1.3216520650813517,-0.0299876515507689,-0.023150086838631852,0.11027957007251761,-0.08450994496750293,-0.027240695485839943,-0.05460819109090867,1.1930529465303548,1.5161469080877965,2.2287021683034105,1013.2019437303676,100.13083470888517,30.5165465343177,-4.752758420119194,40.269245001857335
1.3316645807259073,-0.01707512178478034,-0.009047502202393566,0.09349704094751426,-0.10349525757181871,-0.020027415052911352,6.449568426518393e-05,1.1555449560396571,1.4741260434803571,2.225077998492987,1013.238695737126,100.11631807163289,30.49426116299403,-4.725344235355642,40.250771835872115
1.3416770963704632,-0.0016503771591061742,0.01666006873489256,0.07975335957154128,-0.07019147320171039,-0.052300337224939125,-0.0038359522745715947,1.1768601709281048,1.5104605544728529,2.2617410923160843,1013.252437669287,100.12430389222109,30.501270807998953,-4.736293228634336,40.24835065852939
1.3516896120150188,0.015829483994588858,0.02712036736751271,0.0675193808170968,-0.10275967676958521,-0.01215339962705697,-0.048420548644795613,1.0921518175933456,1.484581072906372,2.2638981936469933,1013.220180538183,100.15130524922448,30.48644252130261,-4.7632905429191865,40.20752758736305
1.3617021276595744,0.0456937631471334,-0.009694441720392553,0.09312938591534171,-0.08257363182492512,-0.009654949451310322,-0.03742178994890169,1.0728587131021885,1.4993527199184378,2.295324527473823,1013.23961023682,100.15387174198099,30.473616319277138,-4.7587363842733295,40.19641082971305
1.3717146433041303,0.05446916162881124,-0.0038670760266344972,0.08975860719563274,-0.06819587889338044,-0.0020540913616440074,-0.04989740873422206,1.0625671257872022,1.4772015577220596,2.2717796590080384,1013.2099614889834,100.16187070979282,30.504064313551535,-4.755238299295203,40.20985202944418
1.381727158948686,0.09059416847825258,0.0499489179406436,0.0869660551090007,-0.11800155312252683,-0.006011514359861001,-0.0489243373134073,1.033085237104034,1.4684267133051445,2.2936831881723783,1013.2126828922429,100.12380190363032,30.483344646174377,-4.7735565871829015,40.2042130831941
1.3917396745932415,0.09316027539051362,0.06342148064524625,0.06609183401147323,-0.0785996846233874,-0.018836589358648178,-0.07103441564369845,1.008767096430468,1.457366494971663,2.291450759696149,1013.2027107976154,100.11071287944559,30.500818671113826,-4.774449340451912,40.198335736606616
1.4017521902377972,0.11517166517095326,0.04903368370779259,0.07327576272247671,-0.09444948171851719,-0.0644545168697805,-0.04946069528971395,0.9414605916496008,1.4345678425295152,2.3351695228376315,1013.2300652151106,100.18137647673132,30.46764598467951,-4.771039248224438,40.18994804087252
1.411764705882353,0.14887157984908964,0.04878945673955577,0.06755273017675138,-0.09525537777491061,-0.03202127404261038,-0.07617210100418983,0.9086968781961037,1.4584821276715738,2.3357177098218873,1013.2023880958395,100.1428695627773,30.49247765829075,-4.7767877965202095,40.18692156688602
1.4217772215269087,0.1598851255578606,0.07415473253237984,0.08438373280788364,-0.09770626613338045,0.012608197825862838,-0.07406984041325443,0.856846125482507,1.4605552179458263,2.363154098163723,1013.237955714834,100.15596249927188,30.459049242381056,-4.7871655043311625,40.16101758125908
1.4317897371714643,0.15306608561099,0.039003300901257726,-0.004501732928929081,-0.09569424611496649,-0.0033201575858793466,-0.02024239656161092,0.8949616839165419,1.4908981485543775,2.3373588940816328,1013.1906768535845,100.14822043784312,30.466225122932535,-4.745940589828343,40.17695004413187
1.4418022528160201,0.18211606050144927,0.050380718623693366,0.0190947907582662,-0.08118093469253579,0.01670447957013415,-0.05534106241787258,0.8531397852839268,1.4757382890761128,2.3603248497315144,1013.2330362589697,100.11244392516424,30.47721972122002,-4.772991434497854,40.14409544862401
1.4518147684605758,0.18414370239701727,0.017159310722460838,0.04934260004224806,-0.0704642114446617,-0.017148947497142908,-0.05320056478765864,0.7845893834809943,1.4528726490814163,2.3536924719554344,1013.2289090551046,100.13079376264562,30.47283825111163,-4.760233138100172,40.18351506502631
1.4618272841051314,0.18215785752983052,0.006409660063483563,0.036810293840771426,-0.06497500601548784,0.00888237202454877,-0.0938615913038652,0.7577477402474471,1.4239459386404674,2.3800124614229032,1013.2427389423202,100.16156551947458,30.50423768933489,-4.739772566511428,40.15356249388154
1.471839799749687,0.2195413330983798,0.01778039364594408,0.011468313425700547,-0.10291430668016983,-0.0018351955897529248,-0.04834864280059436,0.7127897833267813,1.4307083301071504,2.3570890694560296,1013.2292667124933,100.14917928673106,30.499189286258613,-4.800743268636411,40.133151223365196
1.481852315394243,0.19599226710136977,0.004763719200735294,0.01839124523021099,-0.10723691899268734,-0.028622557589306097,-0.1049102482139181,0.6843949435666407,1.4580011468035339,2.4024022680563735,1013.2321706624773,100.13083517616354,30.48041518827323,-4.789583102429053,40.13548562525342
1.4918648310387985,0.17358475735971227,0.008141708456913702,0.036363887898157025,-0.06502007653862843,0.004258891515366183,-0.08012661324352699,0.6539607757010395,1.4395714200495637,2.365335952998369,1013.2329705231942,100.110174047238,30.498991613130254,-4.765176545690946,40.12131998257361
1.5018773466833542,0.16197250910241734,-0.014834319174962923,-0.038609523659038775,-0.11335766827751781,0.026614610044226706,-0.09893419267995572,0.6073442095449159,1.4590805177298856,2.460397219138507,1013.22416056129,100.16949620394229,30.503249242267042,-4.791265013255059,40.14385290832364
1.51188986232791,0.20913784349710218,0.008449760586773717,-0.01756743937497766,-0.12150513476523093,0.04237776817057981,-0.05600171135335846,0.5777314174505163,1.4287152870880404,2.4557036148786864,1013.2074886265146,100.1154756145281,30.443784922449705,-4.771481912237732,40.13161661204018
1.5219023779724656,0.2167532057959524,-0.039439632643241546,-0.022976983922320754,-0.1198755355176205,0.002920363064280264,-0.13350514372927236,0.5565440353207766,1.4233703800253887,2.4417204129775083,1013.1945133363436,100.15738197017045,30.454725003335387,-4.817825366405633,40.12361248830204
1.5319148936170213,0.18131663736538703,-0.02491001301953357,-0.036517665052906496,-0.11869510671475257,0.005866803744140125,-0.14264124174348283,0.5207380448842488,1.3996939173962972,2.456655202286763,1013.2026452580294,100.15847645383992,30.43248590474733,-4.790481154739017,40.08908541802915
1.5419274092615771,0.17331250522430364,-0.005116725539408971,-0.010315065827182213,-0.12092491694484157,-0.021353786748146295,-0.1131436148264686,0.4691970678433456,1.472971878286559,2.486508081788324,1013.2184003528472,100.10151343596472,30.47218754396763,-4.763221694126268,40.075059885276644
1.5519399249061328,0.1619619231449196,-0.02789945460677454,-0.020138574596035,-0.10870509447476942,0.05720342264504495,-0.09439214432179059,0.4686684969469824,1.3797096177457304,2.469402073528458,1013.1868945351604,100.15269514403232,30.468826659283653,-4.807097623862795,40.08854365299957
1.5619524405506884,0.16617095755178368,-0.0731258253961757,-0.0624463023978864,-0.11527314384428615,0.04307505581553904,-0.11298089657666142,0.40801565866317496,1.3797415710372556,2.5179020186602896,1013.2014942302627,100.16559712062335,30.461124596863975,-4.783047236443829,40.07722276117019
1.571964956195244,0.13338404616402172,-0.053457654535835314,-0.05761168041152176,-0.094449205094274,0.032249879412038614,-0.1266802902563738,0.3666296980506816,1.391293653261345,2.4953855873449373,1013.1950460808296,100.18908177421835,30.443824420391422,-4.804637292658113,40.07357406741095
1.5819774718397999,0.13475940964519767,-0.06517045683950193,-0.11170606144180747,-0.09450248311477773,-0.024848611925919077,-0.1147788447560946,0.325310949716351,1.3800338031039192,2.5128940356706972,1013.1871501050975,100.10958546729688,30.479907782478467,-4.810704312682598,40.052412335063956
1.5919899874843555,0.139272636382917,-0.06157537160146695,-0.07476692920558345,-0.08390544819655014,-0.00431253349898119,-0.11653145764076099,0.2920030905820409,1.3740881975192998,2.507756922919953,1013.2467548189915,100.14609470167187,30.471497438301046,-4.79058959601015,40.06917430966239
1.6020025031289111,0.11138261113640886,-0.0580555108117443,-0.06234202910566663,-0.07896748485174107,0.05599378842426618,-0.13774473043787452,0.2271695331832148,1.3332876822575859,2.5337378631816643,1013.2248525424116,100.17120631201108,30.432657131400255,-4.865897581700824,40.09020517116294
1.612015018773467,0.08607372484413578,-0.05641249020933561,-0.05442465503081676,-0.10922697520344726,0.020426883010301943,-0.11024626962963613,0.21005132255048353,1.3253575511639206,2.5941347735892664,1013.2073227867501,100.1463812160593,30.42528945551012,-4.829741528783879,40.046734058451946
1.6220275344180226,0.08007675091305543,-0.021667795501362865,-0.14134496339914063,-0.07264764655144194,0.039698077284159174,-0.12673977103667028,0.17716544368408707,1.3562508261471253,2.556486749396133,1013.2098633042152,100.14411592033085,30.459965725627367,-4.849011662507713,40.033277488756774
1.6320400500625782,0.05435112511291528,-0.03598825478816736,-0.04680830358237284,-0.12273198357340967,0.04082442772817887,-0.11863894445228265,0.10219466379242047,1.3176965617159107,2.565289462899659,1013.2213462745311,100.19925869366502,30.41518835239594,-4.813784589698749,40.02800927313373
1.6420525657071339,0.03531877689920777,-0.03320525936652545,-0.0675294789155308,-0.10788045909684436,0.03500031356533797,-0.10601053244472793,0.08639580260449632,1.3016096522066827,2.6046348053258956,1013.1745623605952,100.14772998573734,30.46087422411326,-4.834532186283322,39.99532808446641
1.6520650813516897,0.034773451352244765,-0.0063962120010376934,-0.10987474851090015,-0.07109637003081645,0.06176763914403198,-0.16711544889596097,0.0691390111797809,1.2967841930571535,2.5704934590074378,1013.2054130333786,100.1527202359625,30.438999247167015,-4.879259515785349,39.97281768370696
1.6620775969962454,-0.003980792470581361,-0.0014067225121211033,-0.10225702770125368,-0.08537611311628414,0.024840982340447067,-0.12339022992696687,0.020370088591974148,1.30613085947553,2.59453552953459,1013.2035574905453,100.16328253863269,30.390480892542115,-4.816396101945165,39.98829782426984
1.672090112640801,0.005077569818745575,0.030936412008614224,-0.04866743755651819,-0.09283571157975914,0.03332171425033169,-0.14215924359262547,-0.009678038705408043,1.3007157999611199,2.583106370416524,1013.2111243522595,100.17047322417656,30.427443184345794,-4.858878646074153,40.072170986122536
1.6821026282853568,-0.053571120005982006,-0.004137575514269243,-0.1273932161761073,-0.10308221620902007,0.05404913703824396,-0.15096906061593282,-0.056341816123181516,1.250626328819249,2.6160975274732943,1013.1874578655894,100.14995354022518,30.42663234693027,-4.879975018069713,39.99873440725061
1.6921151439299125,-0.06143554182952865,0.013828384539327571,-0.08607339823223104,-0.13718015001984996,0.04932111867748824,-0.1124561479371943,-0.1125504792699239,1.2832335878615464,2.635476243246711,1013.2547218669342,100.15296519948835,30.453312619778924,-4.8544685380797405,39.989000478094916
1.702127659574468,-0.043083405969563726,0.023595431706877567,-0.09242342546985018,-0.06466568240855725,0.031890214973967296,-0.16151029665932798,-0.1465726592480495,1.2571453545408218,2.5847804911012107,1013.2241623965805,100.16310301050304,30.410828474563996,-4.883417597523606,39.996262396158116
1.7121401752190237,-0.08381117059209857,0.08177472287340082,-0.11245135673484269,-0.05252567121042476,0.015488162492769027,-0.1256072960673219,-0.19594227317506369,1.2503476352119305,2.6253727875292387,1013.2272753132293,100.19324896087743,30.41607466911572,-4.865824466287556,39.94130912109794
1.7221526908635796,-0.10450294265000874,0.03868240751303494,-0.07434908397027108,-0.06266484861852312,0.06030494932917348,-0.17827640841642556,-0.1804278653722472,1.200899074500072,2.591185052096464,1013.2292577384169,100.17112069765848,30.38967528055449,-4.844606110957512,39.97000626809268
1.7321652065081352,-0.08971725261287511,0.011645044907451128,-0.08088707612156715,-0.06856946922394438,0.04561597134393028,-0.15468299842227695,-0.21098016029803482,1.2357039963446206,2.64747460931772,1013.2271658018766,100.15867998464758,30.438514541769777,-4.8511733477485715,39.931127891500076
1.7421777221526908,-0.12058595004807346,0.07361308548358672,-0.0634501208721925,-0.07971539066813133,0.047009887333353,-0.1546011159198041,-0.3048916479282899,1.2401385566540872,2.654042977892443,1013.2286000791923,100.15188973352618,30.416459927107706,-4.881360291443403,39.92506312451033
1.7521902377972467,-0.17059825376274657,0.029184837619757,-0.0718833504134113,-0.07206100520377677,0.010320463428039363,-0.16019980433399894,-0.32569894930532034,1.1860302734799448,2.659576123785977,1013.2552122321387,100.17360589540694,30.37828842295833,-4.926000779776884,39.939084578623266
1.7622027534418023,-0.12814408784290326,0.06747424449832282,-0.07414863641894946,-0.08845797641124455,0.0741970956643419,-0.1612624444855905,-0.3197406579273723,1.1886628234702148,2.675871464124157,1013.2013098223995,100.18021074962398,30.406588270722498,-4.886639893620038,39.89050072035913
1.772215269086358,-0.20973688979740915,0.03488264420806547,-0.07211273989592291,-0.07483537344663893,0.044008007600431345,-0.16102843471387104,-0.38746073157102134,1.175343525670272,2.6994747525724563,1013.1989111303218,100.18600597526896,30.38689829164816,-4.86297696199247,39.913472390140804
1.7822277847309136,-0.16618871087757947,0.043551167271424884,-0.005266342347596799,-0.0897129579964751,0.04934301656400522,-0.14687670319738466,-0.4382194278922175,1.1866318072238315,2.6904974473190952,1013.2311845803382,100.1838389687689,30.416344809669987,-4.890752127543879,39.960402364012296
1.7922403003754694,-0.2008229667444569,0.06810721935629145,-0.06409399590495446,-0.07648297615799989,0.05409414937729316,-0.13891426042216212,-0.42257659662862995,1.1427496987933308,2.7226131381764263,1013.2153470441324,100.16861705972448,30.3903674400997,-4.901162148877949,39.93161833126862
1.802252816020025,-0.2133953972494878,-0.0129052944518151,-0.0027894374222856254,-0.035455647142612706,0.024746628999248215,-0.12406654366629717,-0.5017249170794307,1.1178189156382463,2.729805797463219,1013.2079776934942,100.19986855085538,30.397105395219718,-4.879790813568659,39.88146312875829
1.8122653316645807,-0.2021141892179186,0.06895031619008021,-0.015789621424498922,-0.03472685051191444,0.042496530155001336,-0.1772069047794017,-0.5333683567679514,1.1322792107820658,2.725271993938925,1013.2088419120429,100.16644827490192,30.4139188241415,-4.9361048924136375,39.90711126049168
1.8222778473091366,-0.1902562577059452,-0.029676151724552874,-0.029738729700465844,-0.056279922949559164,0.03554982378978135,-0.166420876208667,-0.5806909155463347,1.1165532670318377,2.7143588322246686,1013.1962059675814,100.19861222832941,30.41460984223494,-4.876891021028162,39.91247114737548
1.8322903629536922,-0.2253237423047152,0.011363354646796792,0.005695811230199812,-0.025404549442197156,0.055672174295297375,-0.1726361879062389,-0.6334565571667569,1.0887230304227762,2.729864983896893,1013.1902753668617,100.17743655216955,30.38218731964664,-4.90368274513206,39.896486010163684
1.8423028785982478,-0.22229027034365667,-0.008948904594461208,-0.011823712770486912,-0.030039535474289895,0.03826289217784048,-0.1835665912377607,-0.6663720002383515,1.0982976552408894,2.727393544769559,1013.2029610365365,100.19272344319664,30.361923519877188,-4.928962815162909,39.911794295798444
1.8523153942428034,-0.18863939382753236,-0.06712429065211073,-0.0036570887555089256,-0.06246678540951536,0.07078537237918026,-0.143999602772216,-0.6779246532830985,1.079886763839528,2.768906757361127,1013.2427810815772,100.18072883737415,30.344610696764363,-4.964657032354051,39.847627858441655
1.8623279098873593,-0.20526856290807807,-0.029314588202115053,0.037358508320887183,-0.05702932073811945,0.06511243247365513,-0.16302167720474048,-0.7510327164015299,1.0940782267196039,2.7481652523942213,1013.2266952998244,100.18764124348556,30.362537221217615,-4.934340591369137,39.821394049398926
1.872340425531915,-0.196715135719811,-0.026772122921298335,0.04201858448748384,0.0033337180320480164,0.07009459183753797,-0.15675064549165954,-0.7505285172221625,1.0865654322789586,2.7959991375624296,1013.1999041226406,100.13858691515135,30.338791465280956,-4.926972594550795,39.866142943139714
1.8823529411764706,-0.21565736493166687,-0.05936920222259802,0.045074712665492206,-0.053780972709950595,0.06913864483255645,-0.14342149903905077,-0.802353849793801,1.0785014341455788,2.787913484639161,1013.2177416072832,100.18438365934443,30.356327339730175,-4.963673199205391,39.867914972938955
1.8923654568210264,-0.19484208189909116,-0.018865746152963842,0.043833756941973855,-0.045517956544775,0.03734897321782985,-0.13877673817437436,-0.8050994891605997,1.0455221092673337,2.7776895584576247,1013.2057723449102,100.21829496360024,30.348866294506717,-4.970122190737941,39.87347973698482
1.902377972465582,-0.15557623788285835,-0.017589054724565248,0.07764039971234256,-0.030538780924693854,0.0663986676360543,-0.12260221243867825,-0.8533885017871101,0.9954467020293419,2.8002036808761144,1013.2227803358471,100.19671846706173,30.339173192963628,-4.978202252788292,39.83785836733438
1.9123904881101377,-0.14053379140125857,-0.00980584213151648,0.04536112453613432,-0.042138594910541935,0.06468166504929046,-0.15240610298613014,-0.8885436052639211,0.9955844657499533,2.7999479857725897,1013.2262566804658,100.22927075024998,30.328656132680276,-4.966348963126796,39.86160927711081
1.9224030037546935,-0.10252350528772369,-0.043405250628267666,0.07609576428291163,-0.01135423904657159,0.037148293811343804,-0.15220722283619473,-0.9657995077939828,1.019981133338351,2.825431521419393,1013.2060303008288,100.18022265306786,30.344675667119652,-4.950466173434371,39.82587734628809
1.9324155193992492,-0.1311591729450985,-0.06464347778824962,0.02533475782067745,-0.01313496285844568,0.03650618743705279,-0.15390960501210682,-0.9510637008696503,0.9802917490753592,2.8037852695044285,1013.1986003332519,100.17647000563073,30.35356870931324,-5.024991572665912,39.810345012668954
1.9424280350438048,-0.1003181651712663,-0.07926333970924565,0.08451671041421549,-0.011297612108532442,0.04554138511692221,-0.1353228578598963,-0.9905066765574039,0.9499013624067345,2.8593130669575326,1013.1814694118425,100.18837678545411,30.342578324061645,-4.968810917809728,39.76307594246794
1.9524405506883604,-0.09883338232083319,-0.041655988172844216,0.08001811108190976,-0.02289094597490919,0.026286511598576028,-0.159527157000902,-1.0097969778268063,0.9485041618575244,2.7738152515297343,1013.2298531905678,100.17577001619283,30.319592298192294,-4.968618948121165,39.815357118714296
1.9624530663329163,-0.0632248516571646,-0.042022501879993956,0.10801264497870008,0.008151654017174933,0.024154709697035114,-0.15121534630396005,-1.0723012817760584,0.9364816144282517,2.8192988368902943,1013.2180671557051,100.19370132965004,30.324083314341653,-5.000363634623914,39.78902816787957
1.972465581977472,-0.0517166984284397,-0.015611677863837718,0.09668935867353823,-0.023504016975583575,0.05751094522534959,-0.12239634713069328,-1.1008294015266102,0.9227673568640511,2.852151350781442,1013.2155291129498,100.13962707444439,30.270739104238327,-4.972712652579147,39.77205208363571
1.9824780976220275,-0.06110376070120352,-0.0026581813480189443,0.10339273314779483,-0.0009375106650157325,0.006017148871183462,-0.1563486378633516,-1.1233967717201507,0.8704246843339606,2.860911661131,1013.1730782384709,100.23534409491835,30.296376292724027,-5.007651069427598,39.76225743650324
1.9924906132665834,-0.027300749897654932,-0.02403425774200574,0.09415580139196864,-0.035035512280681975,0.04176649839889429,-0.1576946527130216,-1.1334993179845454,0.878666281946871,2.8505690166549678,1013.201095268403,100.22192725157598,30.30585579113757,-4.988550017810368,39.722342162940215
2.002503128911139,-0.0013670118438863649,0.0013648041258546325,0.12637297104858386,-0.00858379956456168,0.02146447402334195,-0.1377926645864716,-1.2154213664390896,0.8686245882986642,2.838688482174405,1013.2332836996202,100.18388339119252,30.270196032715116,-5.002655784508096,39.7683022910721
2.0125156445556946,0.035848956933950786,0.007835683010450652,0.110312388336693,0.0021462095650545392,0.02806497084782089,-0.14497635589742583,-1.1689158077271242,0.9203516481675653,2.8770251978099672,1013.2197443619109,100.19622791959065,30.27521039671914,-4.976805538644062,39.757465375266285
2.0225281602002503,0.0354786252348524,0.06007575894387164,0.08138848101120173,0.028158275678720736,-0.0017210355163602212,-0.1549877622471229,-1.2452704678255375,0.8534022323622487,2.865643515840507,1013.1699986647327,100.21280582768148,30.253139064973666,-5.003259007841247,39.726242211268655
2.032540675844806,0.05244970025301721,0.03956831970555983,0.08300187874010782,0.01861926207113074,-0.003567489984950368,-0.1692951911780858,-1.2787690957593638,0.8120204088795572,2.861529801881634,1013.2115300556416,100.19517898244098,30.26394804722246,-4.999965671125796,39.73591160023161
