Time (s),Acc_x (m/s^2),Acc_y (m/s^2),Acc_z (m/s^2),Pitch (°),Roll (°),Yaw (°),Gyro_x,Gyro_y,Gyro_z,Pressure,Altitude,Mag_x,Mag_y,Mag_z
0.0,0.0,0.3,0.0,0,0,0,0.0,0.0,0.0,0.0,0.0,0.0,0.0,0.0
0.01,0.0470541566592571,0.2986685893809239,0.0,0,0,0,0.0,0.0,0.0,0.0,0.0,0.0,0.0,0.0
0.02,0.0936906572928623,0.2946861752186065,0.0,0,0,0,0.0,0.0,0.0,0.0,0.0,0.0,0.0,0.0
0.03,0.1394955530196146,0.2880881057030829,0.0,0,0,0,0.0,0.0,0.0,0.0,0.0,0.0,0.0,0.0
0.04,0.184062276342339,0.2789329457664753,0.0,0,0,0,0.0,0.0,0.0,0.0,0.0,0.0,0.0,0.0
0.05,0.2269952498697733,0.2673019572565103,0.0,0,0,0,0.0,0.0,0.0,0.0,0.0,0.0,0.0,0.0
0.06,0.2679133974894983,0.2532983776506045,0.0,0,0,0,0.0,0.0,0.0,0.0,0.0,0.0,0.0,0.0
0.07,0.3064535268264882,0.2370465037127071,0.0,0,0,0,0.0,0.0,0.0,0.0,0.0,0.0,0.0,0.0
0.08,0.3422735529643443,0.2186905882264234,0.0,0,0,0,0.0,0.0,0.0,0.0,0.0,0.0,0.0,0.0
0.09,0.3750555348152298,0.1983935595970955,0.0,0,0,0,0.0,0.0,0.0,0.0,0.0,0.0,0.0,0.0
0.1,0.4045084971874737,0.1763355756877419,0.0,0,0,0,0.0,0.0,0.0,0.0,0.0,0.0,0.0,0.0
0.11,0.4303710135019717,0.1527124247251114,0.0,0,0,0,0.0,0.0,0.0,0.0,0.0,0.0,0.0,0.0
0.12,0.4524135262330097,0.1277337874695218,0.0,0,0,0,0.0,0.0,0.0,0.0,0.0,0.0,0.0,0.0
0.13,0.4704403844771127,0.1016213760735874,0.0,0,0,0,0.0,0.0,0.0,0.0,0.0,0.0,0.0,0.0
0.14,0.4842915805643156,0.0746069661494564,0.0,0,0,0,0.0,0.0,0.0,0.0,0.0,0.0,0.0,0.0
0.15,0.4938441702975688,0.0469303395120692,0.0,0,0,0,0.0,0.0,0.0,0.0,0.0,0.0,0.0,0.0
0.16,0.4990133642141358,0.0188371558587939,0.0,0,0,0,0.0,0.0,0.0,0.0,0.0,0.0,0.0,0.0
0.17,0.4997532801828658,-0.0094232277234384,0.0,0,0,0,0.0,0.0,0.0,0.0,0.0,0.0,0.0,0.0
0.18,0.4960573506572388,-0.0375999700692912,0.0,0,0,0,0.0,0.0,0.0,0.0,0.0,0.0,0.0,0.0
0.19,0.4879583809693738,-0.0654429724189627,0.0,0,0,0,0.0,0.0,0.0,0.0,0.0,0.0,0.0,0.0
0.2,0.4755282581475769,-0.0927050983124842,0.0,0,0,0,0.0,0.0,0.0,0.0,0.0,0.0,0.0,0.0
0.21,0.4588773128419905,-0.1191443671904341,0.0,0,0,0,0.0,0.0,0.0,0.0,0.0,0.0,0.0,0.0
0.22,0.4381533400219318,-0.1445261022305144,0.0,0,0,0,0.0,0.0,0.0,0.0,0.0,0.0,0.0,0.0
0.23,0.4135402871372809,-0.1686250133556391,0.0,0,0,0,0.0,0.0,0.0,0.0,0.0,0.0,0.0,0.0
0.24,0.3852566213878947,-0.1912271969246068,0.0,0,0,0,0.0,0.0,0.0,0.0,0.0,0.0,0.0,0.0
0.25,0.3535533905932738,-0.2121320343559642,0.0,0,0,0,0.0,0.0,0.0,0.0,0.0,0.0,0.0,0.0
0.26,0.3187119948743449,-0.2311539728327367,0.0,0,0,0,0.0,0.0,0.0,0.0,0.0,0.0,0.0,0.0
0.27,0.2810416889260652,-0.2481241722823685,0.0,0,0,0,0.0,0.0,0.0,0.0,0.0,0.0,0.0,0.0
0.28,0.2408768370508575,-0.262892004013159,0.0,0,0,0,0.0,0.0,0.0,0.0,0.0,0.0,0.0,0.0
0.29,0.1985739453173905,-0.2753263877051942,0.0,0,0,0,0.0,0.0,0.0,0.0,0.0,0.0,0.0,0.0
0.3,0.1545084971874737,-0.2853169548885461,0.0,0,0,0,0.0,0.0,0.0,0.0,0.0,0.0,0.0,0.0
0.31,0.1090716206982713,-0.2927750285816242,0.0,0,0,0,0.0,0.0,0.0,0.0,0.0,0.0,0.0,0.0
0.32,0.062666616782152,-0.2976344103943433,0.0,0,0,0,0.0,0.0,0.0,0.0,0.0,0.0,0.0,0.0
0.33,0.0157053795390641,-0.2998519681097195,0.0,0,0,0,0.0,0.0,0.0,0.0,0.0,0.0,0.0,0.0
0.34,-0.0313952597646566,-0.2994080185284815,0.0,0,0,0,0.0,0.0,0.0,0.0,0.0,0.0,0.0,0.0
0.35,-0.0782172325201156,-0.2963065021785412,0.0,0,0,0,0.0,0.0,0.0,0.0,0.0,0.0,0.0,0.0
0.36,-0.1243449435824273,-0.2905749483385894,0.0,0,0,0,0.0,0.0,0.0,0.0,0.0,0.0,0.0,0.0
0.37,-0.1693689601226455,-0.2822642306862676,0.0,0,0,0,0.0,0.0,0.0,0.0,0.0,0.0,0.0,0.0
0.38,-0.2128896457825363,-0.2714481157398058,0.0,0,0,0,0.0,0.0,0.0,0.0,0.0,0.0,0.0,0.0
0.39,-0.2545207078751856,-0.2582226081011831,0.0,0,0,0,0.0,0.0,0.0,0.0,0.0,0.0,0.0,0.0
0.4,-0.2938926261462364,-0.2427050983124843,0.0,0,0,0,0.0,0.0,0.0,0.0,0.0,0.0,0.0,0.0
0.41,-0.330655932661826,-0.2250333208891378,0.0,0,0,0,0.0,0.0,0.0,0.0,0.0,0.0,0.0,0.0
0.42,-0.3644843137107057,-0.2053641317786066,0.0,0,0,0,0.0,0.0,0.0,0.0,0.0,0.0,0.0,0.0
0.43,-0.3950775061878452,-0.1838721160958929,0.0,0,0,0,0.0,0.0,0.0,0.0,0.0,0.0,0.0,0.0
0.44,-0.4221639627510073,-0.1607480384936991,0.0,0,0,0,0.0,0.0,0.0,0.0,0.0,0.0,0.0,0.0
0.45,-0.4455032620941838,-0.136197149921864,0.0,0,0,0,0.0,0.0,0.0,0.0,0.0,0.0,0.0,0.0
0.46,-0.4648882429441257,-0.1104373658054033,0.0,0,0,0,0.0,0.0,0.0,0.0,0.0,0.0,0.0,0.0
0.47,-0.4801468428384716,-0.0836973318117686,0.0,0,0,0,0.0,0.0,0.0,0.0,0.0,0.0,0.0,0.0
0.48,-0.4911436253643443,-0.0562143943757173,0.0,0,0,0,0.0,0.0,0.0,0.0,0.0,0.0,0.0,0.0
0.49,-0.4977809823015399,-0.0282324939955544,0.0,0,0,0,0.0,0.0,0.0,0.0,0.0,0.0,0.0,0.0
0.5,-0.5,-5.510910596163089e-17,0.0,0,0,0,0.0,0.0,0.0,0.0,0.0,0.0,0.0,0.0
0.51,-0.4977809823015399,0.0282324939955543,0.0,0,0,0,0.0,0.0,0.0,0.0,0.0,0.0,0.0,0.0
0.52,-0.4911436253643444,0.0562143943757172,0.0,0,0,0,0.0,0.0,0.0,0.0,0.0,0.0,0.0,0.0
0.53,-0.4801468428384716,0.0836973318117687,0.0,0,0,0,0.0,0.0,0.0,0.0,0.0,0.0,0.0,0.0
0.54,-0.4648882429441256,0.1104373658054034,0.0,0,0,0,0.0,0.0,0.0,0.0,0.0,0.0,0.0,0.0
0.55,-0.4455032620941839,0.1361971499218639,0.0,0,0,0,0.0,0.0,0.0,0.0,0.0,0.0,0.0,0.0
0.56,-0.4221639627510075,0.1607480384936989,0.0,0,0,0,0.0,0.0,0.0,0.0,0.0,0.0,0.0,0.0
0.5700000000000001,-0.3950775061878451,0.183872116095893,0.0,0,0,0,0.0,0.0,0.0,0.0,0.0,0.0,0.0,0.0
0.58,-0.3644843137107061,0.2053641317786063,0.0,0,0,0,0.0,0.0,0.0,0.0,0.0,0.0,0.0,0.0
0.59,-0.3306559326618261,0.2250333208891377,0.0,0,0,0,0.0,0.0,0.0,0.0,0.0,0.0,0.0,0.0
0.6,-0.2938926261462366,0.2427050983124841,0.0,0,0,0,0.0,0.0,0.0,0.0,0.0,0.0,0.0,0.0
0.61,-0.2545207078751859,0.2582226081011829,0.0,0,0,0,0.0,0.0,0.0,0.0,0.0,0.0,0.0,0.0
0.62,-0.2128896457825365,0.2714481157398057,0.0,0,0,0,0.0,0.0,0.0,0.0,0.0,0.0,0.0,0.0
0.63,-0.1693689601226457,0.2822642306862676,0.0,0,0,0,0.0,0.0,0.0,0.0,0.0,0.0,0.0,0.0
0.64,-0.1243449435824272,0.2905749483385894,0.0,0,0,0,0.0,0.0,0.0,0.0,0.0,0.0,0.0,0.0
0.65,-0.0782172325201155,0.2963065021785412,0.0,0,0,0,0.0,0.0,0.0,0.0,0.0,0.0,0.0,0.0
0.66,-0.0313952597646566,0.2994080185284815,0.0,0,0,0,0.0,0.0,0.0,0.0,0.0,0.0,0.0,0.0
0.67,0.0157053795390643,0.2998519681097195,0.0,0,0,0,0.0,0.0,0.0,0.0,0.0,0.0,0.0,0.0
0.68,0.062666616782152,0.2976344103943433,0.0,0,0,0,0.0,0.0,0.0,0.0,0.0,0.0,0.0,0.0
0.6900000000000001,0.1090716206982714,0.2927750285816242,0.0,0,0,0,0.0,0.0,0.0,0.0,0.0,0.0,0.0,0.0
0.7000000000000001,0.154508497187474,0.285316954888546,0.0,0,0,0,0.0,0.0,0.0,0.0,0.0,0.0,0.0,0.0
0.71,0.1985739453173899,0.2753263877051943,0.0,0,0,0,0.0,0.0,0.0,0.0,0.0,0.0,0.0,0.0
0.72,0.2408768370508574,0.2628920040131591,0.0,0,0,0,0.0,0.0,0.0,0.0,0.0,0.0,0.0,0.0
0.73,0.2810416889260652,0.2481241722823685,0.0,0,0,0,0.0,0.0,0.0,0.0,0.0,0.0,0.0,0.0
0.74,0.3187119948743446,0.2311539728327369,0.0,0,0,0,0.0,0.0,0.0,0.0,0.0,0.0,0.0,0.0
0.75,0.3535533905932737,0.2121320343559643,0.0,0,0,0,0.0,0.0,0.0,0.0,0.0,0.0,0.0,0.0
0.76,0.3852566213878947,0.1912271969246068,0.0,0,0,0,0.0,0.0,0.0,0.0,0.0,0.0,0.0,0.0
0.77,0.4135402871372808,0.1686250133556392,0.0,0,0,0,0.0,0.0,0.0,0.0,0.0,0.0,0.0,0.0
0.78,0.4381533400219317,0.1445261022305146,0.0,0,0,0,0.0,0.0,0.0,0.0,0.0,0.0,0.0,0.0
0.79,0.4588773128419905,0.1191443671904341,0.0,0,0,0,0.0,0.0,0.0,0.0,0.0,0.0,0.0,0.0
0.8,0.4755282581475767,0.0927050983124843,0.0,0,0,0,0.0,0.0,0.0,0.0,0.0,0.0,0.0,0.0
0.81,0.4879583809693738,0.0654429724189627,0.0,0,0,0,0.0,0.0,0.0,0.0,0.0,0.0,0.0,0.0
0.8200000000000001,0.4960573506572389,0.0375999700692911,0.0,0,0,0,0.0,0.0,0.0,0.0,0.0,0.0,0.0,0.0
0.8300000000000001,0.4997532801828658,0.0094232277234382,0.0,0,0,0,0.0,0.0,0.0,0.0,0.0,0.0,0.0,0.0
0.84,0.4990133642141358,-0.0188371558587938,0.0,0,0,0,0.0,0.0,0.0,0.0,0.0,0.0,0.0,0.0
0.85,0.4938441702975689,-0.0469303395120689,0.0,0,0,0,0.0,0.0,0.0,0.0,0.0,0.0,0.0,0.0
0.86,0.4842915805643156,-0.0746069661494564,0.0,0,0,0,0.0,0.0,0.0,0.0,0.0,0.0,0.0,0.0
0.87,0.4704403844771128,-0.1016213760735872,0.0,0,0,0,0.0,0.0,0.0,0.0,0.0,0.0,0.0,0.0
0.88,0.4524135262330099,-0.1277337874695215,0.0,0,0,0,0.0,0.0,0.0,0.0,0.0,0.0,0.0,0.0
0.89,0.4303710135019717,-0.1527124247251114,0.0,0,0,0,0.0,0.0,0.0,0.0,0.0,0.0,0.0,0.0
0.9,0.4045084971874738,-0.1763355756877418,0.0,0,0,0,0.0,0.0,0.0,0.0,0.0,0.0,0.0,0.0
0.91,0.3750555348152301,-0.1983935595970953,0.0,0,0,0,0.0,0.0,0.0,0.0,0.0,0.0,0.0,0.0
0.92,0.3422735529643442,-0.2186905882264235,0.0,0,0,0,0.0,0.0,0.0,0.0,0.0,0.0,0.0,0.0
0.93,0.3064535268264882,-0.237046503712707,0.0,0,0,0,0.0,0.0,0.0,0.0,0.0,0.0,0.0,0.0
0.94,0.2679133974894978,-0.2532983776506047,0.0,0,0,0,0.0,0.0,0.0,0.0,0.0,0.0,0.0,0.0
0.95,0.2269952498697731,-0.2673019572565104,0.0,0,0,0,0.0,0.0,0.0,0.0,0.0,0.0,0.0,0.0
0.96,0.184062276342339,-0.2789329457664753,0.0,0,0,0,0.0,0.0,0.0,0.0,0.0,0.0,0.0,0.0
0.97,0.1394955530196149,-0.2880881057030829,0.0,0,0,0,0.0,0.0,0.0,0.0,0.0,0.0,0.0,0.0
0.98,0.0936906572928628,-0.2946861752186065,0.0,0,0,0,0.0,0.0,0.0,0.0,0.0,0.0,0.0,0.0
0.99,0.047054156659257,-0.2986685893809239,0.0,0,0,0,0.0,0.0,0.0,0.0,0.0,0.0,0.0,0.0
1.0,1.8369701987210294e-16,-0.3,0.0,0,0,0,0.0,0.0,0.0,0.0,0.0,0.0,0.0,0.0
1.01,-0.0470541566592567,-0.2986685893809239,0.0,0,0,0,0.0,0.0,0.0,0.0,0.0,0.0,0.0,0.0
1.02,-0.0936906572928625,-0.2946861752186065,0.0,0,0,0,0.0,0.0,0.0,0.0,0.0,0.0,0.0,0.0
1.03,-0.1394955530196145,-0.2880881057030829,0.0,0,0,0,0.0,0.0,0.0,0.0,0.0,0.0,0.0,0.0
1.04,-0.1840622763423386,-0.2789329457664755,0.0,0,0,0,0.0,0.0,0.0,0.0,0.0,0.0,0.0,0.0
1.05,-0.2269952498697736,-0.2673019572565102,0.0,0,0,0,0.0,0.0,0.0,0.0,0.0,0.0,0.0,0.0
1.06,-0.2679133974894983,-0.2532983776506045,0.0,0,0,0,0.0,0.0,0.0,0.0,0.0,0.0,0.0,0.0
1.07,-0.306453526826488,-0.2370465037127072,0.0,0,0,0,0.0,0.0,0.0,0.0,0.0,0.0,0.0,0.0
1.08,-0.3422735529643446,-0.2186905882264233,0.0,0,0,0,0.0,0.0,0.0,0.0,0.0,0.0,0.0,0.0
1.09,-0.3750555348152298,-0.1983935595970955,0.0,0,0,0,0.0,0.0,0.0,0.0,0.0,0.0,0.0,0.0
1.1,-0.4045084971874736,-0.176335575687742,0.0,0,0,0,0.0,0.0,0.0,0.0,0.0,0.0,0.0,0.0
1.11,-0.430371013501972,-0.1527124247251111,0.0,0,0,0,0.0,0.0,0.0,0.0,0.0,0.0,0.0,0.0
1.12,-0.4524135262330097,-0.1277337874695217,0.0,0,0,0,0.0,0.0,0.0,0.0,0.0,0.0,0.0,0.0
1.13,-0.470440384477113,-0.101621376073587,0.0,0,0,0,0.0,0.0,0.0,0.0,0.0,0.0,0.0,0.0
1.14,-0.4842915805643157,-0.0746069661494561,0.0,0,0,0,0.0,0.0,0.0,0.0,0.0,0.0,0.0,0.0
1.15,-0.4938441702975689,-0.0469303395120691,0.0,0,0,0,0.0,0.0,0.0,0.0,0.0,0.0,0.0,0.0
1.16,-0.4990133642141357,-0.0188371558587945,0.0,0,0,0,0.0,0.0,0.0,0.0,0.0,0.0,0.0,0.0
1.17,-0.4997532801828659,0.0094232277234383,0.0,0,0,0,0.0,0.0,0.0,0.0,0.0,0.0,0.0,0.0
1.18,-0.4960573506572389,0.0375999700692909,0.0,0,0,0,0.0,0.0,0.0,0.0,0.0,0.0,0.0,0.0
1.19,-0.4879583809693739,0.0654429724189622,0.0,0,0,0,0.0,0.0,0.0,0.0,0.0,0.0,0.0,0.0
1.2,-0.4755282581475769,0.0927050983124841,0.0,0,0,0,0.0,0.0,0.0,0.0,0.0,0.0,0.0,0.0
1.21,-0.4588773128419907,0.1191443671904339,0.0,0,0,0,0.0,0.0,0.0,0.0,0.0,0.0,0.0,0.0
1.22,-0.4381533400219321,0.1445261022305141,0.0,0,0,0,0.0,0.0,0.0,0.0,0.0,0.0,0.0,0.0
1.23,-0.413540287137281,0.168625013355639,0.0,0,0,0,0.0,0.0,0.0,0.0,0.0,0.0,0.0,0.0
1.24,-0.3852566213878949,0.1912271969246066,0.0,0,0,0,0.0,0.0,0.0,0.0,0.0,0.0,0.0,0.0
1.25,-0.3535533905932742,0.2121320343559639,0.0,0,0,0,0.0,0.0,0.0,0.0,0.0,0.0,0.0,0.0
1.26,-0.3187119948743449,0.2311539728327367,0.0,0,0,0,0.0,0.0,0.0,0.0,0.0,0.0,0.0,0.0
1.27,-0.2810416889260655,0.2481241722823684,0.0,0,0,0,0.0,0.0,0.0,0.0,0.0,0.0,0.0,0.0
1.28,-0.2408768370508573,0.2628920040131591,0.0,0,0,0,0.0,0.0,0.0,0.0,0.0,0.0,0.0,0.0
1.29,-0.1985739453173902,0.2753263877051943,0.0,0,0,0,0.0,0.0,0.0,0.0,0.0,0.0,0.0,0.0
1.3,-0.1545084971874739,0.285316954888546,0.0,0,0,0,0.0,0.0,0.0,0.0,0.0,0.0,0.0,0.0
1.31,-0.1090716206982709,0.2927750285816243,0.0,0,0,0,0.0,0.0,0.0,0.0,0.0,0.0,0.0,0.0
1.32,-0.062666616782152,0.2976344103943433,0.0,0,0,0,0.0,0.0,0.0,0.0,0.0,0.0,0.0,0.0
1.33,-0.0157053795390643,0.2998519681097195,0.0,0,0,0,0.0,0.0,0.0,0.0,0.0,0.0,0.0,0.0
1.34,0.0313952597646571,0.2994080185284814,0.0,0,0,0,0.0,0.0,0.0,0.0,0.0,0.0,0.0,0.0
1.35,0.0782172325201156,0.2963065021785412,0.0,0,0,0,0.0,0.0,0.0,0.0,0.0,0.0,0.0,0.0
1.36,0.1243449435824273,0.2905749483385894,0.0,0,0,0,0.0,0.0,0.0,0.0,0.0,0.0,0.0,0.0
1.37,0.1693689601226462,0.2822642306862675,0.0,0,0,0,0.0,0.0,0.0,0.0,0.0,0.0,0.0,0.0
1.38,0.2128896457825365,0.2714481157398057,0.0,0,0,0,0.0,0.0,0.0,0.0,0.0,0.0,0.0,0.0
1.39,0.2545207078751856,0.258222608101183,0.0,0,0,0,0.0,0.0,0.0,0.0,0.0,0.0,0.0,0.0
1.4,0.293892626146237,0.242705098312484,0.0,0,0,0,0.0,0.0,0.0,0.0,0.0,0.0,0.0,0.0
1.41,0.3306559326618255,0.2250333208891381,0.0,0,0,0,0.0,0.0,0.0,0.0,0.0,0.0,0.0,0.0
1.42,0.3644843137107053,0.2053641317786069,0.0,0,0,0,0.0,0.0,0.0,0.0,0.0,0.0,0.0,0.0
1.43,0.3950775061878451,0.183872116095893,0.0,0,0,0,0.0,0.0,0.0,0.0,0.0,0.0,0.0,0.0
1.44,0.4221639627510073,0.1607480384936992,0.0,0,0,0,0.0,0.0,0.0,0.0,0.0,0.0,0.0,0.0
1.45,0.4455032620941835,0.1361971499218644,0.0,0,0,0,0.0,0.0,0.0,0.0,0.0,0.0,0.0,0.0
1.46,0.4648882429441257,0.1104373658054034,0.0,0,0,0,0.0,0.0,0.0,0.0,0.0,0.0,0.0,0.0
1.47,0.4801468428384715,0.083697331811769,0.0,0,0,0,0.0,0.0,0.0,0.0,0.0,0.0,0.0,0.0
1.48,0.4911436253643442,0.0562143943757177,0.0,0,0,0,0.0,0.0,0.0,0.0,0.0,0.0,0.0,0.0
1.49,0.4977809823015399,0.0282324939955543,0.0,0,0,0,0.0,0.0,0.0,0.0,0.0,0.0,0.0,0.0
1.5,0.4999999999999999,1.6532731788489266e-16,0.0,0,0,0,0.0,0.0,0.0,0.0,0.0,0.0,0.0,0.0
1.51,0.49778098230154,-0.0282324939955539,0.0,0,0,0,0.0,0.0,0.0,0.0,0.0,0.0,0.0,0.0
1.52,0.4911436253643443,-0.0562143943757174,0.0,0,0,0,0.0,0.0,0.0,0.0,0.0,0.0,0.0,0.0
1.53,0.4801468428384716,-0.0836973318117686,0.0,0,0,0,0.0,0.0,0.0,0.0,0.0,0.0,0.0,0.0
1.54,0.4648882429441258,-0.1104373658054031,0.0,0,0,0,0.0,0.0,0.0,0.0,0.0,0.0,0.0,0.0
1.55,0.4455032620941838,-0.1361971499218641,0.0,0,0,0,0.0,0.0,0.0,0.0,0.0,0.0,0.0,0.0
1.56,0.4221639627510076,-0.1607480384936989,0.0,0,0,0,0.0,0.0,0.0,0.0,0.0,0.0,0.0,0.0
1.57,0.3950775061878455,-0.1838721160958927,0.0,0,0,0,0.0,0.0,0.0,0.0,0.0,0.0,0.0,0.0
1.58,0.3644843137107056,-0.2053641317786067,0.0,0,0,0,0.0,0.0,0.0,0.0,0.0,0.0,0.0,0.0
1.59,0.3306559326618259,-0.2250333208891378,0.0,0,0,0,0.0,0.0,0.0,0.0,0.0,0.0,0.0,0.0
1.6,0.2938926261462368,-0.2427050983124841,0.0,0,0,0,0.0,0.0,0.0,0.0,0.0,0.0,0.0,0.0
1.61,0.2545207078751854,-0.2582226081011832,0.0,0,0,0,0.0,0.0,0.0,0.0,0.0,0.0,0.0,0.0
1.62,0.2128896457825362,-0.2714481157398058,0.0,0,0,0,0.0,0.0,0.0,0.0,0.0,0.0,0.0,0.0
1.63,0.169368960122645,-0.2822642306862677,0.0,0,0,0,0.0,0.0,0.0,0.0,0.0,0.0,0.0,0.0
1.64,0.124344943582427,-0.2905749483385894,0.0,0,0,0,0.0,0.0,0.0,0.0,0.0,0.0,0.0,0.0
1.65,0.0782172325201153,-0.2963065021785413,0.0,0,0,0,0.0,0.0,0.0,0.0,0.0,0.0,0.0,0.0
1.66,0.0313952597646559,-0.2994080185284815,0.0,0,0,0,0.0,0.0,0.0,0.0,0.0,0.0,0.0,0.0
1.67,-0.0157053795390637,-0.2998519681097195,0.0,0,0,0,0.0,0.0,0.0,0.0,0.0,0.0,0.0,0.0
1.68,-0.0626666167821514,-0.2976344103943433,0.0,0,0,0,0.0,0.0,0.0,0.0,0.0,0.0,0.0,0.0
1.69,-0.1090716206982703,-0.2927750285816243,0.0,0,0,0,0.0,0.0,0.0,0.0,0.0,0.0,0.0,0.0
1.7,-0.1545084971874726,-0.2853169548885463,0.0,0,0,0,0.0,0.0,0.0,0.0,0.0,0.0,0.0,0.0
1.71,-0.1985739453173897,-0.2753263877051944,0.0,0,0,0,0.0,0.0,0.0,0.0,0.0,0.0,0.0,0.0
1.72,-0.2408768370508576,-0.262892004013159,0.0,0,0,0,0.0,0.0,0.0,0.0,0.0,0.0,0.0,0.0
1.73,-0.2810416889260643,-0.2481241722823689,0.0,0,0,0,0.0,0.0,0.0,0.0,0.0,0.0,0.0,0.0
1.74,-0.3187119948743444,-0.231153972832737,0.0,0,0,0,0.0,0.0,0.0,0.0,0.0,0.0,0.0,0.0
1.75,-0.3535533905932738,-0.2121320343559642,0.0,0,0,0,0.0,0.0,0.0,0.0,0.0,0.0,0.0,0.0
1.76,-0.385256621387894,-0.1912271969246073,0.0,0,0,0,0.0,0.0,0.0,0.0,0.0,0.0,0.0,0.0
1.77,-0.4135402871372807,-0.1686250133556393,0.0,0,0,0,0.0,0.0,0.0,0.0,0.0,0.0,0.0,0.0
1.78,-0.4381533400219318,-0.1445261022305144,0.0,0,0,0,0.0,0.0,0.0,0.0,0.0,0.0,0.0,0.0
1.79,-0.4588773128419901,-0.1191443671904347,0.0,0,0,0,0.0,0.0,0.0,0.0,0.0,0.0,0.0,0.0
1.8,-0.4755282581475767,-0.0927050983124844,0.0,0,0,0,0.0,0.0,0.0,0.0,0.0,0.0,0.0,0.0
1.81,-0.4879583809693738,-0.0654429724189626,0.0,0,0,0,0.0,0.0,0.0,0.0,0.0,0.0,0.0,0.0
1.82,-0.4960573506572387,-0.0375999700692917,0.0,0,0,0,0.0,0.0,0.0,0.0,0.0,0.0,0.0,0.0
1.83,-0.4997532801828659,-0.0094232277234386,0.0,0,0,0,0.0,0.0,0.0,0.0,0.0,0.0,0.0,0.0
1.84,-0.4990133642141358,0.0188371558587942,0.0,0,0,0,0.0,0.0,0.0,0.0,0.0,0.0,0.0,0.0
1.85,-0.4938441702975689,0.0469303395120688,0.0,0,0,0,0.0,0.0,0.0,0.0,0.0,0.0,0.0,0.0
1.86,-0.4842915805643156,0.0746069661494563,0.0,0,0,0,0.0,0.0,0.0,0.0,0.0,0.0,0.0,0.0
1.87,-0.4704403844771125,0.1016213760735876,0.0,0,0,0,0.0,0.0,0.0,0.0,0.0,0.0,0.0,0.0
1.88,-0.4524135262330092,0.1277337874695223,0.0,0,0,0,0.0,0.0,0.0,0.0,0.0,0.0,0.0,0.0
1.89,-0.4303710135019718,0.1527124247251113,0.0,0,0,0,0.0,0.0,0.0,0.0,0.0,0.0,0.0,0.0
1.9,-0.4045084971874734,0.1763355756877421,0.0,0,0,0,0.0,0.0,0.0,0.0,0.0,0.0,0.0,0.0
1.91,-0.3750555348152291,0.198393559597096,0.0,0,0,0,0.0,0.0,0.0,0.0,0.0,0.0,0.0,0.0
1.92,-0.3422735529643443,0.2186905882264234,0.0,0,0,0,0.0,0.0,0.0,0.0,0.0,0.0,0.0,0.0
1.93,-0.3064535268264891,0.2370465037127067,0.0,0,0,0,0.0,0.0,0.0,0.0,0.0,0.0,0.0,0.0
1.94,-0.2679133974894987,0.2532983776506043,0.0,0,0,0,0.0,0.0,0.0,0.0,0.0,0.0,0.0,0.0
1.95,-0.2269952498697733,0.2673019572565103,0.0,0,0,0,0.0,0.0,0.0,0.0,0.0,0.0,0.0,0.0
1.96,-0.18406227634234,0.2789329457664751,0.0,0,0,0,0.0,0.0,0.0,0.0,0.0,0.0,0.0,0.0
1.97,-0.139495553019615,0.2880881057030828,0.0,0,0,0,0.0,0.0,0.0,0.0,0.0,0.0,0.0,0.0
1.98,-0.0936906572928621,0.2946861752186066,0.0,0,0,0,0.0,0.0,0.0,0.0,0.0,0.0,0.0,0.0
1.99,-0.0470541566592581,0.2986685893809239,0.0,0,0,0,0.0,0.0,0.0,0.0,0.0,0.0,0.0,0.0
2.0,-3.673940397442059e-16,0.3,0.0,0,0,0,0.0,0.0,0.0,0.0,0.0,0.0,0.0,0.0
2.01,0.0470541566592574,0.2986685893809239,0.0,0,0,0,0.0,0.0,0.0,0.0,0.0,0.0,0.0,0.0
2.02,0.0936906572928614,0.2946861752186067,0.0,0,0,0,0.0,0.0,0.0,0.0,0.0,0.0,0.0,0.0
2.03,0.139495553019616,0.2880881057030827,0.0,0,0,0,0.0,0.0,0.0,0.0,0.0,0.0,0.0,0.0
2.04,0.1840622763423393,0.2789329457664753,0.0,0,0,0,0.0,0.0,0.0,0.0,0.0,0.0,0.0,0.0
2.05,0.2269952498697726,0.2673019572565105,0.0,0,0,0,0.0,0.0,0.0,0.0,0.0,0.0,0.0,0.0
2.06,0.2679133974894981,0.2532983776506046,0.0,0,0,0,0.0,0.0,0.0,0.0,0.0,0.0,0.0,0.0
2.07,0.3064535268264871,0.2370465037127076,0.0,0,0,0,0.0,0.0,0.0,0.0,0.0,0.0,0.0,0.0
2.08,0.3422735529643438,0.2186905882264237,0.0,0,0,0,0.0,0.0,0.0,0.0,0.0,0.0,0.0,0.0
2.09,0.3750555348152286,0.1983935595970964,0.0,0,0,0,0.0,0.0,0.0,0.0,0.0,0.0,0.0,0.0
2.1,0.404508497187474,0.1763355756877416,0.0,0,0,0,0.0,0.0,0.0,0.0,0.0,0.0,0.0,0.0
2.11,0.4303710135019715,0.1527124247251116,0.0,0,0,0,0.0,0.0,0.0,0.0,0.0,0.0,0.0,0.0
2.12,0.4524135262330097,0.1277337874695218,0.0,0,0,0,0.0,0.0,0.0,0.0,0.0,0.0,0.0,0.0
2.13,0.4704403844771123,0.1016213760735881,0.0,0,0,0,0.0,0.0,0.0,0.0,0.0,0.0,0.0,0.0
2.14,0.4842915805643155,0.0746069661494567,0.0,0,0,0,0.0,0.0,0.0,0.0,0.0,0.0,0.0,0.0
2.15,0.4938441702975688,0.0469303395120692,0.0,0,0,0,0.0,0.0,0.0,0.0,0.0,0.0,0.0,0.0
2.16,0.4990133642141358,0.0188371558587936,0.0,0,0,0,0.0,0.0,0.0,0.0,0.0,0.0,0.0,0.0
2.17,0.4997532801828659,-0.0094232277234381,0.0,0,0,0,0.0,0.0,0.0,0.0,0.0,0.0,0.0,0.0
2.18,0.4960573506572389,-0.0375999700692913,0.0,0,0,0,0.0,0.0,0.0,0.0,0.0,0.0,0.0,0.0
2.19,0.487958380969374,-0.0654429724189621,0.0,0,0,0,0.0,0.0,0.0,0.0,0.0,0.0,0.0,0.0
2.2,0.475528258147577,-0.092705098312484,0.0,0,0,0,0.0,0.0,0.0,0.0,0.0,0.0,0.0,0.0
2.21,0.4588773128419904,-0.1191443671904343,0.0,0,0,0,0.0,0.0,0.0,0.0,0.0,0.0,0.0,0.0
2.22,0.4381533400219313,-0.144526102230515,0.0,0,0,0,0.0,0.0,0.0,0.0,0.0,0.0,0.0,0.0
2.23,0.4135402871372811,-0.168625013355639,0.0,0,0,0,0.0,0.0,0.0,0.0,0.0,0.0,0.0,0.0
2.24,0.3852566213878945,-0.191227196924607,0.0,0,0,0,0.0,0.0,0.0,0.0,0.0,0.0,0.0,0.0
2.25,0.3535533905932744,-0.2121320343559639,0.0,0,0,0,0.0,0.0,0.0,0.0,0.0,0.0,0.0,0.0
2.26,0.3187119948743436,-0.2311539728327374,0.0,0,0,0,0.0,0.0,0.0,0.0,0.0,0.0,0.0,0.0
2.27,0.2810416889260649,-0.2481241722823687,0.0,0,0,0,0.0,0.0,0.0,0.0,0.0,0.0,0.0,0.0
2.28,0.2408768370508567,-0.2628920040131593,0.0,0,0,0,0.0,0.0,0.0,0.0,0.0,0.0,0.0,0.0
2.29,0.1985739453173904,-0.2753263877051942,0.0,0,0,0,0.0,0.0,0.0,0.0,0.0,0.0,0.0,0.0
2.3000000000000003,0.1545084971874732,-0.2853169548885461,0.0,0,0,0,0.0,0.0,0.0,0.0,0.0,0.0,0.0,0.0
2.31,0.1090716206982719,-0.2927750285816241,0.0,0,0,0,0.0,0.0,0.0,0.0,0.0,0.0,0.0,0.0
2.32,0.0626666167821539,-0.2976344103943431,0.0,0,0,0,0.0,0.0,0.0,0.0,0.0,0.0,0.0,0.0
2.33,0.0157053795390636,-0.2998519681097195,0.0,0,0,0,0.0,0.0,0.0,0.0,0.0,0.0,0.0,0.0
2.34,-0.031395259764656,-0.2994080185284815,0.0,0,0,0,0.0,0.0,0.0,0.0,0.0,0.0,0.0,0.0
2.35,-0.0782172325201154,-0.2963065021785412,0.0,0,0,0,0.0,0.0,0.0,0.0,0.0,0.0,0.0,0.0
2.36,-0.1243449435824263,-0.2905749483385895,0.0,0,0,0,0.0,0.0,0.0,0.0,0.0,0.0,0.0,0.0
2.37,-0.1693689601226452,-0.2822642306862677,0.0,0,0,0,0.0,0.0,0.0,0.0,0.0,0.0,0.0,0.0
2.38,-0.2128896457825348,-0.2714481157398062,0.0,0,0,0,0.0,0.0,0.0,0.0,0.0,0.0,0.0,0.0
2.39,-0.2545207078751862,-0.2582226081011828,0.0,0,0,0,0.0,0.0,0.0,0.0,0.0,0.0,0.0,0.0
2.4,-0.2938926261462362,-0.2427050983124843,0.0,0,0,0,0.0,0.0,0.0,0.0,0.0,0.0,0.0,0.0
2.41,-0.330655932661826,-0.2250333208891378,0.0,0,0,0,0.0,0.0,0.0,0.0,0.0,0.0,0.0,0.0
2.42,-0.3644843137107051,-0.205364131778607,0.0,0,0,0,0.0,0.0,0.0,0.0,0.0,0.0,0.0,0.0
2.43,-0.395077506187845,-0.183872116095893,0.0,0,0,0,0.0,0.0,0.0,0.0,0.0,0.0,0.0,0.0
2.44,-0.4221639627510067,-0.1607480384936997,0.0,0,0,0,0.0,0.0,0.0,0.0,0.0,0.0,0.0,0.0
2.45,-0.4455032620941843,-0.1361971499218635,0.0,0,0,0,0.0,0.0,0.0,0.0,0.0,0.0,0.0,0.0
2.46,-0.4648882429441255,-0.1104373658054035,0.0,0,0,0,0.0,0.0,0.0,0.0,0.0,0.0,0.0,0.0
2.47,-0.4801468428384717,-0.0836973318117686,0.0,0,0,0,0.0,0.0,0.0,0.0,0.0,0.0,0.0,0.0
2.48,-0.4911436253643442,-0.0562143943757178,0.0,0,0,0,0.0,0.0,0.0,0.0,0.0,0.0,0.0,0.0
2.49,-0.4977809823015399,-0.0282324939955544,0.0,0,0,0,0.0,0.0,0.0,0.0,0.0,0.0,0.0,0.0
2.5,-0.4999999999999999,-8.084525816282295e-16,0.0,0,0,0,0.0,0.0,0.0,0.0,0.0,0.0,0.0,0.0
2.51,-0.4977809823015398,0.0282324939955549,0.0,0,0,0,0.0,0.0,0.0,0.0,0.0,0.0,0.0,0.0
2.52,-0.4911436253643443,0.0562143943757173,0.0,0,0,0,0.0,0.0,0.0,0.0,0.0,0.0,0.0,0.0
2.53,-0.4801468428384714,0.083697331811769,0.0,0,0,0,0.0,0.0,0.0,0.0,0.0,0.0,0.0,0.0
2.54,-0.4648882429441259,0.110437365805403,0.0,0,0,0,0.0,0.0,0.0,0.0,0.0,0.0,0.0,0.0
2.5500000000000003,-0.4455032620941838,0.136197149921864,0.0,0,0,0,0.0,0.0,0.0,0.0,0.0,0.0,0.0,0.0
2.56,-0.4221639627510072,0.1607480384936992,0.0,0,0,0,0.0,0.0,0.0,0.0,0.0,0.0,0.0,0.0
2.57,-0.3950775061878456,0.1838721160958926,0.0,0,0,0,0.0,0.0,0.0,0.0,0.0,0.0,0.0,0.0
2.58,-0.3644843137107058,0.2053641317786066,0.0,0,0,0,0.0,0.0,0.0,0.0,0.0,0.0,0.0,0.0
2.59,-0.3306559326618267,0.2250333208891374,0.0,0,0,0,0.0,0.0,0.0,0.0,0.0,0.0,0.0,0.0
2.6,-0.2938926261462369,0.2427050983124841,0.0,0,0,0,0.0,0.0,0.0,0.0,0.0,0.0,0.0,0.0
2.61,-0.254520707875187,0.2582226081011826,0.0,0,0,0,0.0,0.0,0.0,0.0,0.0,0.0,0.0,0.0
2.62,-0.2128896457825356,0.271448115739806,0.0,0,0,0,0.0,0.0,0.0,0.0,0.0,0.0,0.0,0.0
2.63,-0.1693689601226461,0.2822642306862675,0.0,0,0,0,0.0,0.0,0.0,0.0,0.0,0.0,0.0,0.0
2.64,-0.1243449435824272,0.2905749483385894,0.0,0,0,0,0.0,0.0,0.0,0.0,0.0,0.0,0.0,0.0
2.65,-0.0782172325201163,0.2963065021785412,0.0,0,0,0,0.0,0.0,0.0,0.0,0.0,0.0,0.0,0.0
2.66,-0.031395259764657,0.2994080185284815,0.0,0,0,0,0.0,0.0,0.0,0.0,0.0,0.0,0.0,0.0
2.67,0.0157053795390626,0.2998519681097196,0.0,0,0,0,0.0,0.0,0.0,0.0,0.0,0.0,0.0,0.0
2.68,0.062666616782153,0.2976344103943432,0.0,0,0,0,0.0,0.0,0.0,0.0,0.0,0.0,0.0,0.0
2.69,0.109071620698271,0.2927750285816243,0.0,0,0,0,0.0,0.0,0.0,0.0,0.0,0.0,0.0,0.0
2.7,0.1545084971874741,0.285316954888546,0.0,0,0,0,0.0,0.0,0.0,0.0,0.0,0.0,0.0,0.0
2.71,0.1985739453173896,0.2753263877051945,0.0,0,0,0,0.0,0.0,0.0,0.0,0.0,0.0,0.0,0.0
2.72,0.2408768370508575,0.2628920040131591,0.0,0,0,0,0.0,0.0,0.0,0.0,0.0,0.0,0.0,0.0
2.73,0.2810416889260642,0.2481241722823689,0.0,0,0,0,0.0,0.0,0.0,0.0,0.0,0.0,0.0,0.0
2.74,0.3187119948743456,0.2311539728327363,0.0,0,0,0,0.0,0.0,0.0,0.0,0.0,0.0,0.0,0.0
2.75,0.3535533905932737,0.2121320343559643,0.0,0,0,0,0.0,0.0,0.0,0.0,0.0,0.0,0.0,0.0
2.76,0.385256621387895,0.1912271969246066,0.0,0,0,0,0.0,0.0,0.0,0.0,0.0,0.0,0.0,0.0
2.77,0.4135402871372806,0.1686250133556394,0.0,0,0,0,0.0,0.0,0.0,0.0,0.0,0.0,0.0,0.0
2.78,0.4381533400219318,0.1445261022305145,0.0,0,0,0,0.0,0.0,0.0,0.0,0.0,0.0,0.0,0.0
2.79,0.45887731284199,0.1191443671904348,0.0,0,0,0,0.0,0.0,0.0,0.0,0.0,0.0,0.0,0.0
2.8000000000000003,0.4755282581475772,0.0927050983124835,0.0,0,0,0,0.0,0.0,0.0,0.0,0.0,0.0,0.0,0.0
2.81,0.4879583809693738,0.0654429724189627,0.0,0,0,0,0.0,0.0,0.0,0.0,0.0,0.0,0.0,0.0
2.82,0.4960573506572387,0.0375999700692919,0.0,0,0,0,0.0,0.0,0.0,0.0,0.0,0.0,0.0,0.0
2.83,0.4997532801828658,0.0094232277234387,0.0,0,0,0,0.0,0.0,0.0,0.0,0.0,0.0,0.0,0.0
2.84,0.4990133642141359,-0.018837155858793,0.0,0,0,0,0.0,0.0,0.0,0.0,0.0,0.0,0.0,0.0
2.85,0.493844170297569,-0.0469303395120686,0.0,0,0,0,0.0,0.0,0.0,0.0,0.0,0.0,0.0,0.0
2.86,0.4842915805643157,-0.0746069661494562,0.0,0,0,0,0.0,0.0,0.0,0.0,0.0,0.0,0.0,0.0
2.87,0.4704403844771126,-0.1016213760735875,0.0,0,0,0,0.0,0.0,0.0,0.0,0.0,0.0,0.0,0.0
2.88,0.45241352623301,-0.1277337874695213,0.0,0,0,0,0.0,0.0,0.0,0.0,0.0,0.0,0.0,0.0
2.89,0.4303710135019719,-0.1527124247251112,0.0,0,0,0,0.0,0.0,0.0,0.0,0.0,0.0,0.0,0.0
2.9,0.4045084971874746,-0.1763355756877412,0.0,0,0,0,0.0,0.0,0.0,0.0,0.0,0.0,0.0,0.0
2.91,0.3750555348152292,-0.198393559597096,0.0,0,0,0,0.0,0.0,0.0,0.0,0.0,0.0,0.0,0.0
2.92,0.3422735529643445,-0.2186905882264234,0.0,0,0,0,0.0,0.0,0.0,0.0,0.0,0.0,0.0,0.0
2.93,0.3064535268264878,-0.2370465037127073,0.0,0,0,0,0.0,0.0,0.0,0.0,0.0,0.0,0.0,0.0
2.94,0.2679133974894989,-0.2532983776506042,0.0,0,0,0,0.0,0.0,0.0,0.0,0.0,0.0,0.0,0.0
2.95,0.2269952498697734,-0.2673019572565102,0.0,0,0,0,0.0,0.0,0.0,0.0,0.0,0.0,0.0,0.0
2.96,0.1840622763423401,-0.2789329457664751,0.0,0,0,0,0.0,0.0,0.0,0.0,0.0,0.0,0.0,0.0
2.97,0.1394955530196135,-0.2880881057030831,0.0,0,0,0,0.0,0.0,0.0,0.0,0.0,0.0,0.0,0.0
2.98,0.0936906572928623,-0.2946861752186065,0.0,0,0,0,0.0,0.0,0.0,0.0,0.0,0.0,0.0,0.0
2.99,0.0470541566592565,-0.298668589380924,0.0,0,0,0,0.0,0.0,0.0,0.0,0.0,0.0,0.0,0.0
3.0,5.51091059616309e-16,-0.2999999999999999,0.0,0,0,0,0.0,0.0,0.0,0.0,0.0,0.0,0.0,0.0
3.01,-0.0470541566592572,-0.2986685893809239,0.0,0,0,0,0.0,0.0,0.0,0.0,0.0,0.0,0.0,0.0
3.02,-0.0936906572928612,-0.2946861752186067,0.0,0,0,0,0.0,0.0,0.0,0.0,0.0,0.0,0.0,0.0
3.03,-0.1394955530196159,-0.2880881057030827,0.0,0,0,0,0.0,0.0,0.0,0.0,0.0,0.0,0.0,0.0
3.04,-0.1840622763423391,-0.2789329457664753,0.0,0,0,0,0.0,0.0,0.0,0.0,0.0,0.0,0.0,0.0
3.0500000000000003,-0.226995249869774,-0.26730195725651,0.0,0,0,0,0.0,0.0,0.0,0.0,0.0,0.0,0.0,0.0
3.06,-0.2679133974894979,-0.2532983776506046,0.0,0,0,0,0.0,0.0,0.0,0.0,0.0,0.0,0.0,0.0
3.0700000000000003,-0.3064535268264884,-0.237046503712707,0.0,0,0,0,0.0,0.0,0.0,0.0,0.0,0.0,0.0,0.0
3.08,-0.3422735529643436,-0.2186905882264238,0.0,0,0,0,0.0,0.0,0.0,0.0,0.0,0.0,0.0,0.0
3.09,-0.3750555348152284,-0.1983935595970964,0.0,0,0,0,0.0,0.0,0.0,0.0,0.0,0.0,0.0,0.0
3.1,-0.4045084971874739,-0.1763355756877417,0.0,0,0,0,0.0,0.0,0.0,0.0,0.0,0.0,0.0,0.0
3.11,-0.4303710135019714,-0.1527124247251118,0.0,0,0,0,0.0,0.0,0.0,0.0,0.0,0.0,0.0,0.0
3.12,-0.4524135262330096,-0.1277337874695219,0.0,0,0,0,0.0,0.0,0.0,0.0,0.0,0.0,0.0,0.0
3.13,-0.4704403844771123,-0.1016213760735882,0.0,0,0,0,0.0,0.0,0.0,0.0,0.0,0.0,0.0,0.0
3.14,-0.4842915805643154,-0.0746069661494568,0.0,0,0,0,0.0,0.0,0.0,0.0,0.0,0.0,0.0,0.0
3.15,-0.4938441702975688,-0.0469303395120693,0.0,0,0,0,0.0,0.0,0.0,0.0,0.0,0.0,0.0,0.0
3.16,-0.4990133642141358,-0.0188371558587937,0.0,0,0,0,0.0,0.0,0.0,0.0,0.0,0.0,0.0,0.0
3.17,-0.4997532801828659,0.009423227723438,0.0,0,0,0,0.0,0.0,0.0,0.0,0.0,0.0,0.0,0.0
3.18,-0.4960573506572388,0.0375999700692912,0.0,0,0,0,0.0,0.0,0.0,0.0,0.0,0.0,0.0,0.0
3.19,-0.487958380969374,0.065442972418962,0.0,0,0,0,0.0,0.0,0.0,0.0,0.0,0.0,0.0,0.0
3.2,-0.475528258147577,0.0927050983124839,0.0,0,0,0,0.0,0.0,0.0,0.0,0.0,0.0,0.0,0.0
3.21,-0.4588773128419905,0.1191443671904342,0.0,0,0,0,0.0,0.0,0.0,0.0,0.0,0.0,0.0,0.0
3.22,-0.4381533400219314,0.1445261022305149,0.0,0,0,0,0.0,0.0,0.0,0.0,0.0,0.0,0.0,0.0
3.23,-0.4135402871372812,0.1686250133556389,0.0,0,0,0,0.0,0.0,0.0,0.0,0.0,0.0,0.0,0.0
3.24,-0.3852566213878946,0.1912271969246069,0.0,0,0,0,0.0,0.0,0.0,0.0,0.0,0.0,0.0,0.0
3.25,-0.3535533905932745,0.2121320343559638,0.0,0,0,0,0.0,0.0,0.0,0.0,0.0,0.0,0.0,0.0
3.26,-0.3187119948743437,0.2311539728327373,0.0,0,0,0,0.0,0.0,0.0,0.0,0.0,0.0,0.0,0.0
3.27,-0.281041688926065,0.2481241722823686,0.0,0,0,0,0.0,0.0,0.0,0.0,0.0,0.0,0.0,0.0
3.28,-0.2408768370508569,0.2628920040131593,0.0,0,0,0,0.0,0.0,0.0,0.0,0.0,0.0,0.0,0.0
3.29,-0.1985739453173906,0.2753263877051942,0.0,0,0,0,0.0,0.0,0.0,0.0,0.0,0.0,0.0,0.0
3.3000000000000003,-0.1545084971874734,0.2853169548885461,0.0,0,0,0,0.0,0.0,0.0,0.0,0.0,0.0,0.0,0.0
3.31,-0.1090716206982721,0.2927750285816241,0.0,0,0,0,0.0,0.0,0.0,0.0,0.0,0.0,0.0,0.0
3.3200000000000003,-0.0626666167821506,0.2976344103943434,0.0,0,0,0,0.0,0.0,0.0,0.0,0.0,0.0,0.0,0.0
3.33,-0.0157053795390637,0.2998519681097195,0.0,0,0,0,0.0,0.0,0.0,0.0,0.0,0.0,0.0,0.0
3.34,0.0313952597646559,0.2994080185284815,0.0,0,0,0,0.0,0.0,0.0,0.0,0.0,0.0,0.0,0.0
3.35,0.0782172325201152,0.2963065021785413,0.0,0,0,0,0.0,0.0,0.0,0.0,0.0,0.0,0.0,0.0
3.36,0.1243449435824261,0.2905749483385896,0.0,0,0,0,0.0,0.0,0.0,0.0,0.0,0.0,0.0,0.0
3.37,0.169368960122645,0.2822642306862677,0.0,0,0,0,0.0,0.0,0.0,0.0,0.0,0.0,0.0,0.0
3.38,0.2128896457825346,0.2714481157398063,0.0,0,0,0,0.0,0.0,0.0,0.0,0.0,0.0,0.0,0.0
3.39,0.2545207078751861,0.2582226081011829,0.0,0,0,0,0.0,0.0,0.0,0.0,0.0,0.0,0.0,0.0
3.4,0.2938926261462345,0.2427050983124851,0.0,0,0,0,0.0,0.0,0.0,0.0,0.0,0.0,0.0,0.0
3.41,0.3306559326618259,0.2250333208891379,0.0,0,0,0,0.0,0.0,0.0,0.0,0.0,0.0,0.0,0.0
3.42,0.364484313710705,0.2053641317786071,0.0,0,0,0,0.0,0.0,0.0,0.0,0.0,0.0,0.0,0.0
3.43,0.395077506187846,0.1838721160958923,0.0,0,0,0,0.0,0.0,0.0,0.0,0.0,0.0,0.0,0.0
3.44,0.4221639627510075,0.1607480384936989,0.0,0,0,0,0.0,0.0,0.0,0.0,0.0,0.0,0.0,0.0
3.45,0.4455032620941833,0.1361971499218646,0.0,0,0,0,0.0,0.0,0.0,0.0,0.0,0.0,0.0,0.0
3.46,0.4648882429441248,0.1104373658054046,0.0,0,0,0,0.0,0.0,0.0,0.0,0.0,0.0,0.0,0.0
3.47,0.4801468428384716,0.0836973318117687,0.0,0,0,0,0.0,0.0,0.0,0.0,0.0,0.0,0.0,0.0
3.48,0.4911436253643441,0.0562143943757179,0.0,0,0,0,0.0,0.0,0.0,0.0,0.0,0.0,0.0,0.0
3.49,0.4977809823015401,0.0282324939955534,0.0,0,0,0,0.0,0.0,0.0,0.0,0.0,0.0,0.0,0.0
3.5,0.4999999999999999,-1.4714331008865888e-16,0.0,0,0,0,0.0,0.0,0.0,0.0,0.0,0.0,0.0,0.0
3.51,0.49778098230154,-0.0282324939955537,0.0,0,0,0,0.0,0.0,0.0,0.0,0.0,0.0,0.0,0.0
3.52,0.4911436253643447,-0.0562143943757161,0.0,0,0,0,0.0,0.0,0.0,0.0,0.0,0.0,0.0,0.0
3.53,0.4801468428384715,-0.0836973318117689,0.0,0,0,0,0.0,0.0,0.0,0.0,0.0,0.0,0.0,0.0
3.54,0.4648882429441259,-0.1104373658054029,0.0,0,0,0,0.0,0.0,0.0,0.0,0.0,0.0,0.0,0.0
3.5500000000000003,0.4455032620941831,-0.1361971499218648,0.0,0,0,0,0.0,0.0,0.0,0.0,0.0,0.0,0.0,0.0
3.56,0.4221639627510073,-0.1607480384936991,0.0,0,0,0,0.0,0.0,0.0,0.0,0.0,0.0,0.0,0.0
3.5700000000000003,0.3950775061878457,-0.1838721160958925,0.0,0,0,0,0.0,0.0,0.0,0.0,0.0,0.0,0.0,0.0
3.58,0.3644843137107071,-0.2053641317786057,0.0,0,0,0,0.0,0.0,0.0,0.0,0.0,0.0,0.0,0.0
3.59,0.3306559326618282,-0.2250333208891366,0.0,0,0,0,0.0,0.0,0.0,0.0,0.0,0.0,0.0,0.0
3.6,0.293892626146237,-0.242705098312484,0.0,0,0,0,0.0,0.0,0.0,0.0,0.0,0.0,0.0,0.0
3.61,0.2545207078751871,-0.2582226081011825,0.0,0,0,0,0.0,0.0,0.0,0.0,0.0,0.0,0.0,0.0
3.62,0.2128896457825358,-0.271448115739806,0.0,0,0,0,0.0,0.0,0.0,0.0,0.0,0.0,0.0,0.0
3.63,0.1693689601226462,-0.2822642306862675,0.0,0,0,0,0.0,0.0,0.0,0.0,0.0,0.0,0.0,0.0
3.64,0.124344943582429,-0.2905749483385891,0.0,0,0,0,0.0,0.0,0.0,0.0,0.0,0.0,0.0,0.0
3.65,0.0782172325201148,-0.2963065021785413,0.0,0,0,0,0.0,0.0,0.0,0.0,0.0,0.0,0.0,0.0
3.66,0.0313952597646571,-0.2994080185284814,0.0,0,0,0,0.0,0.0,0.0,0.0,0.0,0.0,0.0,0.0
3.67,-0.0157053795390624,-0.2998519681097195,0.0,0,0,0,0.0,0.0,0.0,0.0,0.0,0.0,0.0,0.0
3.68,-0.0626666167821528,-0.2976344103943432,0.0,0,0,0,0.0,0.0,0.0,0.0,0.0,0.0,0.0,0.0
3.69,-0.1090716206982708,-0.2927750285816243,0.0,0,0,0,0.0,0.0,0.0,0.0,0.0,0.0,0.0,0.0
3.7,-0.1545084971874722,-0.2853169548885463,0.0,0,0,0,0.0,0.0,0.0,0.0,0.0,0.0,0.0,0.0
3.71,-0.1985739453173911,-0.2753263877051941,0.0,0,0,0,0.0,0.0,0.0,0.0,0.0,0.0,0.0,0.0
3.72,-0.2408768370508573,-0.2628920040131591,0.0,0,0,0,0.0,0.0,0.0,0.0,0.0,0.0,0.0,0.0
3.73,-0.281041688926064,-0.248124172282369,0.0,0,0,0,0.0,0.0,0.0,0.0,0.0,0.0,0.0,0.0
3.74,-0.3187119948743455,-0.2311539728327364,0.0,0,0,0,0.0,0.0,0.0,0.0,0.0,0.0,0.0,0.0
3.75,-0.3535533905932736,-0.2121320343559643,0.0,0,0,0,0.0,0.0,0.0,0.0,0.0,0.0,0.0,0.0
3.76,-0.385256621387896,-0.1912271969246059,0.0,0,0,0,0.0,0.0,0.0,0.0,0.0,0.0,0.0,0.0
3.77,-0.4135402871372815,-0.1686250133556386,0.0,0,0,0,0.0,0.0,0.0,0.0,0.0,0.0,0.0,0.0
3.78,-0.4381533400219317,-0.1445261022305146,0.0,0,0,0,0.0,0.0,0.0,0.0,0.0,0.0,0.0,0.0
3.79,-0.45887731284199,-0.1191443671904348,0.0,0,0,0,0.0,0.0,0.0,0.0,0.0,0.0,0.0,0.0
3.8,-0.4755282581475771,-0.0927050983124836,0.0,0,0,0,0.0,0.0,0.0,0.0,0.0,0.0,0.0,0.0
3.81,-0.4879583809693738,-0.0654429724189628,0.0,0,0,0,0.0,0.0,0.0,0.0,0.0,0.0,0.0,0.0
3.82,-0.4960573506572391,-0.0375999700692899,0.0,0,0,0,0.0,0.0,0.0,0.0,0.0,0.0,0.0,0.0
3.83,-0.4997532801828659,-0.0094232277234377,0.0,0,0,0,0.0,0.0,0.0,0.0,0.0,0.0,0.0,0.0
3.84,-0.4990133642141358,0.018837155858794,0.0,0,0,0,0.0,0.0,0.0,0.0,0.0,0.0,0.0,0.0
3.85,-0.493844170297569,0.0469303395120685,0.0,0,0,0,0.0,0.0,0.0,0.0,0.0,0.0,0.0,0.0
3.86,-0.4842915805643162,0.0746069661494551,0.0,0,0,0,0.0,0.0,0.0,0.0,0.0,0.0,0.0,0.0
3.87,-0.4704403844771127,0.1016213760735874,0.0,0,0,0,0.0,0.0,0.0,0.0,0.0,0.0,0.0,0.0
3.88,-0.4524135262330102,0.1277337874695212,0.0,0,0,0,0.0,0.0,0.0,0.0,0.0,0.0,0.0,0.0
3.89,-0.4303710135019711,0.152712424725112,0.0,0,0,0,0.0,0.0,0.0,0.0,0.0,0.0,0.0,0.0
3.9,-0.4045084971874736,0.1763355756877419,0.0,0,0,0,0.0,0.0,0.0,0.0,0.0,0.0,0.0,0.0
3.91,-0.3750555348152304,0.1983935595970951,0.0,0,0,0,0.0,0.0,0.0,0.0,0.0,0.0,0.0,0.0
3.92,-0.3422735529643459,0.2186905882264226,0.0,0,0,0,0.0,0.0,0.0,0.0,0.0,0.0,0.0,0.0
3.93,-0.306453526826488,0.2370465037127072,0.0,0,0,0,0.0,0.0,0.0,0.0,0.0,0.0,0.0,0.0
3.94,-0.267913397489499,0.2532983776506042,0.0,0,0,0,0.0,0.0,0.0,0.0,0.0,0.0,0.0,0.0
3.95,-0.226995249869772,0.2673019572565107,0.0,0,0,0,0.0,0.0,0.0,0.0,0.0,0.0,0.0,0.0
3.96,-0.1840622763423386,0.2789329457664755,0.0,0,0,0,0.0,0.0,0.0,0.0,0.0,0.0,0.0,0.0
3.97,-0.1394955530196154,0.2880881057030828,0.0,0,0,0,0.0,0.0,0.0,0.0,0.0,0.0,0.0,0.0
3.98,-0.0936906572928642,0.2946861752186063,0.0,0,0,0,0.0,0.0,0.0,0.0,0.0,0.0,0.0,0.0
3.99,-0.0470541566592567,0.2986685893809239,0.0,0,0,0,0.0,0.0,0.0,0.0,0.0,0.0,0.0,0.0
4.0,-7.34788079488412e-16,0.3,0.0,0,0,0,0.0,0.0,0.0,0.0,0.0,0.0,0.0,0.0
4.01,0.0470541566592552,0.298668589380924,0.0,0,0,0,0.0,0.0,0.0,0.0,0.0,0.0,0.0,0.0
4.0200000000000005,0.0936906572928628,0.2946861752186065,0.0,0,0,0,0.0,0.0,0.0,0.0,0.0,0.0,0.0,0.0
4.03,0.139495553019614,0.2880881057030831,0.0,0,0,0,0.0,0.0,0.0,0.0,0.0,0.0,0.0,0.0
4.04,0.1840622763423373,0.2789329457664758,0.0,0,0,0,0.0,0.0,0.0,0.0,0.0,0.0,0.0,0.0
4.05,0.2269952498697707,0.2673019572565111,0.0,0,0,0,0.0,0.0,0.0,0.0,0.0,0.0,0.0,0.0
4.0600000000000005,0.2679133974895008,0.2532983776506035,0.0,0,0,0,0.0,0.0,0.0,0.0,0.0,0.0,0.0,0.0
4.07,0.3064535268264897,0.2370465037127064,0.0,0,0,0,0.0,0.0,0.0,0.0,0.0,0.0,0.0,0.0
4.08,0.3422735529643448,0.2186905882264232,0.0,0,0,0,0.0,0.0,0.0,0.0,0.0,0.0,0.0,0.0
4.09,0.3750555348152295,0.1983935595970958,0.0,0,0,0,0.0,0.0,0.0,0.0,0.0,0.0,0.0,0.0
4.1,0.4045084971874728,0.1763355756877427,0.0,0,0,0,0.0,0.0,0.0,0.0,0.0,0.0,0.0,0.0
4.11,0.4303710135019721,0.1527124247251109,0.0,0,0,0,0.0,0.0,0.0,0.0,0.0,0.0,0.0,0.0
4.12,0.4524135262330095,0.127733787469522,0.0,0,0,0,0.0,0.0,0.0,0.0,0.0,0.0,0.0,0.0
4.13,0.4704403844771122,0.1016213760735883,0.0,0,0,0,0.0,0.0,0.0,0.0,0.0,0.0,0.0,0.0
4.14,0.484291580564315,0.074606966149458,0.0,0,0,0,0.0,0.0,0.0,0.0,0.0,0.0,0.0,0.0
4.15,0.4938441702975688,0.0469303395120694,0.0,0,0,0,0.0,0.0,0.0,0.0,0.0,0.0,0.0,0.0
4.16,0.4990133642141357,0.0188371558587948,0.0,0,0,0,0.0,0.0,0.0,0.0,0.0,0.0,0.0,0.0
4.17,0.499753280182866,-0.0094232277234369,0.0,0,0,0,0.0,0.0,0.0,0.0,0.0,0.0,0.0,0.0
4.18,0.4960573506572393,-0.037599970069289,0.0,0,0,0,0.0,0.0,0.0,0.0,0.0,0.0,0.0,0.0
4.19,0.4879583809693733,-0.065442972418964,0.0,0,0,0,0.0,0.0,0.0,0.0,0.0,0.0,0.0,0.0
4.2,0.4755282581475765,-0.0927050983124848,0.0,0,0,0,0.0,0.0,0.0,0.0,0.0,0.0,0.0,0.0
4.21,0.4588773128419905,-0.1191443671904341,0.0,0,0,0,0.0,0.0,0.0,0.0,0.0,0.0,0.0,0.0
4.22,0.4381533400219323,-0.1445261022305138,0.0,0,0,0,0.0,0.0,0.0,0.0,0.0,0.0,0.0,0.0
4.23,0.4135402871372803,-0.1686250133556396,0.0,0,0,0,0.0,0.0,0.0,0.0,0.0,0.0,0.0,0.0
4.24,0.3852566213878947,-0.1912271969246068,0.0,0,0,0,0.0,0.0,0.0,0.0,0.0,0.0,0.0,0.0
4.25,0.3535533905932746,-0.2121320343559637,0.0,0,0,0,0.0,0.0,0.0,0.0,0.0,0.0,0.0,0.0
4.26,0.3187119948743466,-0.2311539728327358,0.0,0,0,0,0.0,0.0,0.0,0.0,0.0,0.0,0.0,0.0
4.2700000000000005,0.2810416889260652,-0.2481241722823685,0.0,0,0,0,0.0,0.0,0.0,0.0,0.0,0.0,0.0,0.0
4.28,0.2408768370508586,-0.2628920040131587,0.0,0,0,0,0.0,0.0,0.0,0.0,0.0,0.0,0.0,0.0
4.29,0.1985739453173924,-0.2753263877051937,0.0,0,0,0,0.0,0.0,0.0,0.0,0.0,0.0,0.0,0.0
4.3,0.1545084971874736,-0.2853169548885461,0.0,0,0,0,0.0,0.0,0.0,0.0,0.0,0.0,0.0,0.0
4.3100000000000005,0.1090716206982688,-0.2927750285816246,0.0,0,0,0,0.0,0.0,0.0,0.0,0.0,0.0,0.0,0.0
4.32,0.0626666167821508,-0.2976344103943434,0.0,0,0,0,0.0,0.0,0.0,0.0,0.0,0.0,0.0,0.0
4.33,0.0157053795390639,-0.2998519681097195,0.0,0,0,0,0.0,0.0,0.0,0.0,0.0,0.0,0.0,0.0
4.34,-0.0313952597646557,-0.2994080185284815,0.0,0,0,0,0.0,0.0,0.0,0.0,0.0,0.0,0.0,0.0
4.3500000000000005,-0.0782172325201168,-0.2963065021785411,0.0,0,0,0,0.0,0.0,0.0,0.0,0.0,0.0,0.0,0.0
4.36,-0.1243449435824276,-0.2905749483385893,0.0,0,0,0,0.0,0.0,0.0,0.0,0.0,0.0,0.0,0.0
4.37,-0.1693689601226448,-0.2822642306862677,0.0,0,0,0,0.0,0.0,0.0,0.0,0.0,0.0,0.0,0.0
4.38,-0.2128896457825344,-0.2714481157398063,0.0,0,0,0,0.0,0.0,0.0,0.0,0.0,0.0,0.0,0.0
4.39,-0.2545207078751829,-0.258222608101184,0.0,0,0,0,0.0,0.0,0.0,0.0,0.0,0.0,0.0,0.0
4.4,-0.2938926261462359,-0.2427050983124845,0.0,0,0,0,0.0,0.0,0.0,0.0,0.0,0.0,0.0,0.0
4.41,-0.3306559326618271,-0.2250333208891372,0.0,0,0,0,0.0,0.0,0.0,0.0,0.0,0.0,0.0,0.0
4.42,-0.3644843137107061,-0.2053641317786064,0.0,0,0,0,0.0,0.0,0.0,0.0,0.0,0.0,0.0,0.0
4.43,-0.3950775061878448,-0.1838721160958932,0.0,0,0,0,0.0,0.0,0.0,0.0,0.0,0.0,0.0,0.0
4.44,-0.4221639627510084,-0.1607480384936981,0.0,0,0,0,0.0,0.0,0.0,0.0,0.0,0.0,0.0,0.0
4.45,-0.4455032620941841,-0.1361971499218637,0.0,0,0,0,0.0,0.0,0.0,0.0,0.0,0.0,0.0,0.0
4.46,-0.4648882429441254,-0.1104373658054037,0.0,0,0,0,0.0,0.0,0.0,0.0,0.0,0.0,0.0,0.0
4.47,-0.4801468428384711,-0.0836973318117698,0.0,0,0,0,0.0,0.0,0.0,0.0,0.0,0.0,0.0,0.0
4.48,-0.4911436253643444,-0.056214394375717,0.0,0,0,0,0.0,0.0,0.0,0.0,0.0,0.0,0.0,0.0
4.49,-0.4977809823015399,-0.0282324939955546,0.0,0,0,0,0.0,0.0,0.0,0.0,0.0,0.0,0.0,0.0
4.5,-0.4999999999999999,-1.0288890054747529e-15,0.0,0,0,0,0.0,0.0,0.0,0.0,0.0,0.0,0.0,0.0
4.51,-0.4977809823015402,0.0282324939955525,0.0,0,0,0,0.0,0.0,0.0,0.0,0.0,0.0,0.0,0.0
4.5200000000000005,-0.4911436253643438,0.0562143943757192,0.0,0,0,0,0.0,0.0,0.0,0.0,0.0,0.0,0.0,0.0
4.53,-0.4801468428384711,0.0836973318117699,0.0,0,0,0,0.0,0.0,0.0,0.0,0.0,0.0,0.0,0.0
4.54,-0.4648882429441254,0.1104373658054038,0.0,0,0,0,0.0,0.0,0.0,0.0,0.0,0.0,0.0,0.0
4.55,-0.445503262094184,0.1361971499218638,0.0,0,0,0,0.0,0.0,0.0,0.0,0.0,0.0,0.0,0.0
4.5600000000000005,-0.4221639627510065,0.1607480384936999,0.0,0,0,0,0.0,0.0,0.0,0.0,0.0,0.0,0.0,0.0
4.57,-0.3950775061878447,0.1838721160958933,0.0,0,0,0,0.0,0.0,0.0,0.0,0.0,0.0,0.0,0.0
4.58,-0.364484313710706,0.2053641317786065,0.0,0,0,0,0.0,0.0,0.0,0.0,0.0,0.0,0.0,0.0
4.59,-0.330655932661827,0.2250333208891373,0.0,0,0,0,0.0,0.0,0.0,0.0,0.0,0.0,0.0,0.0
4.6000000000000005,-0.2938926261462357,0.2427050983124845,0.0,0,0,0,0.0,0.0,0.0,0.0,0.0,0.0,0.0,0.0
4.61,-0.2545207078751857,0.258222608101183,0.0,0,0,0,0.0,0.0,0.0,0.0,0.0,0.0,0.0,0.0
4.62,-0.2128896457825375,0.2714481157398055,0.0,0,0,0,0.0,0.0,0.0,0.0,0.0,0.0,0.0,0.0
4.63,-0.1693689601226481,0.2822642306862671,0.0,0,0,0,0.0,0.0,0.0,0.0,0.0,0.0,0.0,0.0
4.64,-0.1243449435824309,0.2905749483385888,0.0,0,0,0,0.0,0.0,0.0,0.0,0.0,0.0,0.0,0.0
4.65,-0.0782172325201132,0.2963065021785415,0.0,0,0,0,0.0,0.0,0.0,0.0,0.0,0.0,0.0,0.0
4.66,-0.0313952597646556,0.2994080185284815,0.0,0,0,0,0.0,0.0,0.0,0.0,0.0,0.0,0.0,0.0
4.67,0.015705379539064,0.2998519681097195,0.0,0,0,0,0.0,0.0,0.0,0.0,0.0,0.0,0.0,0.0
4.68,0.0626666167821509,0.2976344103943434,0.0,0,0,0,0.0,0.0,0.0,0.0,0.0,0.0,0.0,0.0
4.69,0.1090716206982724,0.2927750285816241,0.0,0,0,0,0.0,0.0,0.0,0.0,0.0,0.0,0.0,0.0
4.7,0.1545084971874737,0.2853169548885461,0.0,0,0,0,0.0,0.0,0.0,0.0,0.0,0.0,0.0,0.0
4.71,0.1985739453173892,0.2753263877051946,0.0,0,0,0,0.0,0.0,0.0,0.0,0.0,0.0,0.0,0.0
4.72,0.2408768370508556,0.2628920040131597,0.0,0,0,0,0.0,0.0,0.0,0.0,0.0,0.0,0.0,0.0
4.73,0.2810416889260653,0.2481241722823685,0.0,0,0,0,0.0,0.0,0.0,0.0,0.0,0.0,0.0,0.0
4.74,0.318711994874344,0.2311539728327372,0.0,0,0,0,0.0,0.0,0.0,0.0,0.0,0.0,0.0,0.0
4.75,0.3535533905932722,0.2121320343559652,0.0,0,0,0,0.0,0.0,0.0,0.0,0.0,0.0,0.0,0.0
4.76,0.3852566213878926,0.1912271969246084,0.0,0,0,0,0.0,0.0,0.0,0.0,0.0,0.0,0.0,0.0
4.7700000000000005,0.4135402871372824,0.1686250133556378,0.0,0,0,0,0.0,0.0,0.0,0.0,0.0,0.0,0.0,0.0
4.78,0.4381533400219324,0.1445261022305138,0.0,0,0,0,0.0,0.0,0.0,0.0,0.0,0.0,0.0,0.0
4.79,0.4588773128419906,0.119144367190434,0.0,0,0,0,0.0,0.0,0.0,0.0,0.0,0.0,0.0,0.0
4.8,0.4755282581475765,0.0927050983124847,0.0,0,0,0,0.0,0.0,0.0,0.0,0.0,0.0,0.0,0.0
4.8100000000000005,0.487958380969374,0.0654429724189618,0.0,0,0,0,0.0,0.0,0.0,0.0,0.0,0.0,0.0,0.0
4.82,0.4960573506572389,0.037599970069291,0.0,0,0,0,0.0,0.0,0.0,0.0,0.0,0.0,0.0,0.0
4.83,0.4997532801828658,0.0094232277234389,0.0,0,0,0,0.0,0.0,0.0,0.0,0.0,0.0,0.0,0.0
4.84,0.4990133642141359,-0.0188371558587928,0.0,0,0,0,0.0,0.0,0.0,0.0,0.0,0.0,0.0,0.0
4.8500000000000005,0.4938441702975688,-0.0469303395120695,0.0,0,0,0,0.0,0.0,0.0,0.0,0.0,0.0,0.0,0.0
4.86,0.4842915805643158,-0.074606966149456,0.0,0,0,0,0.0,0.0,0.0,0.0,0.0,0.0,0.0,0.0
4.87,0.4704403844771134,-0.1016213760735863,0.0,0,0,0,0.0,0.0,0.0,0.0,0.0,0.0,0.0,0.0
4.88,0.4524135262330109,-0.1277337874695201,0.0,0,0,0,0.0,0.0,0.0,0.0,0.0,0.0,0.0,0.0
4.89,0.4303710135019721,-0.152712424725111,0.0,0,0,0,0.0,0.0,0.0,0.0,0.0,0.0,0.0,0.0
4.9,0.4045084971874727,-0.1763355756877427,0.0,0,0,0,0.0,0.0,0.0,0.0,0.0,0.0,0.0,0.0
4.91,0.3750555348152294,-0.1983935595970958,0.0,0,0,0,0.0,0.0,0.0,0.0,0.0,0.0,0.0,0.0
4.92,0.3422735529643447,-0.2186905882264232,0.0,0,0,0,0.0,0.0,0.0,0.0,0.0,0.0,0.0,0.0
4.93,0.3064535268264896,-0.2370465037127065,0.0,0,0,0,0.0,0.0,0.0,0.0,0.0,0.0,0.0,0.0
4.94,0.2679133974894977,-0.2532983776506047,0.0,0,0,0,0.0,0.0,0.0,0.0,0.0,0.0,0.0,0.0
4.95,0.2269952498697738,-0.2673019572565102,0.0,0,0,0,0.0,0.0,0.0,0.0,0.0,0.0,0.0,0.0
4.96,0.1840622763423405,-0.278932945766475,0.0,0,0,0,0.0,0.0,0.0,0.0,0.0,0.0,0.0,0.0
4.97,0.1394955530196173,-0.2880881057030825,0.0,0,0,0,0.0,0.0,0.0,0.0,0.0,0.0,0.0,0.0
4.98,0.0936906572928627,-0.2946861752186065,0.0,0,0,0,0.0,0.0,0.0,0.0,0.0,0.0,0.0,0.0
4.99,0.0470541566592586,-0.2986685893809239,0.0,0,0,0,0.0,0.0,0.0,0.0,0.0,0.0,0.0,0.0
5.0,2.6948419387607653e-15,-0.3,0.0,0,0,0,0.0,0.0,0.0,0.0,0.0,0.0,0.0,0.0
5.01,-0.0470541566592568,-0.298668589380924,0.0,0,0,0,0.0,0.0,0.0,0.0,0.0,0.0,0.0,0.0
5.0200000000000005,-0.0936906572928644,-0.2946861752186063,0.0,0,0,0,0.0,0.0,0.0,0.0,0.0,0.0,0.0,0.0
5.03,-0.1394955530196155,-0.2880881057030828,0.0,0,0,0,0.0,0.0,0.0,0.0,0.0,0.0,0.0,0.0
5.04,-0.1840622763423388,-0.2789329457664755,0.0,0,0,0,0.0,0.0,0.0,0.0,0.0,0.0,0.0,0.0
5.05,-0.2269952498697721,-0.2673019572565107,0.0,0,0,0,0.0,0.0,0.0,0.0,0.0,0.0,0.0,0.0
5.0600000000000005,-0.2679133974894991,-0.2532983776506042,0.0,0,0,0,0.0,0.0,0.0,0.0,0.0,0.0,0.0,0.0
5.07,-0.3064535268264881,-0.2370465037127072,0.0,0,0,0,0.0,0.0,0.0,0.0,0.0,0.0,0.0,0.0
5.08,-0.3422735529643433,-0.2186905882264239,0.0,0,0,0,0.0,0.0,0.0,0.0,0.0,0.0,0.0,0.0
5.09,-0.3750555348152282,-0.1983935595970966,0.0,0,0,0,0.0,0.0,0.0,0.0,0.0,0.0,0.0,0.0
5.1000000000000005,-0.4045084971874737,-0.1763355756877419,0.0,0,0,0,0.0,0.0,0.0,0.0,0.0,0.0,0.0,0.0
5.11,-0.4303710135019711,-0.1527124247251119,0.0,0,0,0,0.0,0.0,0.0,0.0,0.0,0.0,0.0,0.0
5.12,-0.4524135262330102,-0.1277337874695211,0.0,0,0,0,0.0,0.0,0.0,0.0,0.0,0.0,0.0,0.0
5.13,-0.4704403844771128,-0.1016213760735874,0.0,0,0,0,0.0,0.0,0.0,0.0,0.0,0.0,0.0,0.0
5.14,-0.4842915805643153,-0.0746069661494571,0.0,0,0,0,0.0,0.0,0.0,0.0,0.0,0.0,0.0,0.0
5.15,-0.493844170297569,-0.0469303395120685,0.0,0,0,0,0.0,0.0,0.0,0.0,0.0,0.0,0.0,0.0
5.16,-0.4990133642141358,-0.0188371558587939,0.0,0,0,0,0.0,0.0,0.0,0.0,0.0,0.0,0.0,0.0
5.17,-0.4997532801828659,0.0094232277234378,0.0,0,0,0,0.0,0.0,0.0,0.0,0.0,0.0,0.0,0.0
5.18,-0.4960573506572391,0.0375999700692899,0.0,0,0,0,0.0,0.0,0.0,0.0,0.0,0.0,0.0,0.0
5.19,-0.4879583809693738,0.0654429724189629,0.0,0,0,0,0.0,0.0,0.0,0.0,0.0,0.0,0.0,0.0
5.2,-0.4755282581475771,0.0927050983124837,0.0,0,0,0,0.0,0.0,0.0,0.0,0.0,0.0,0.0,0.0
5.21,-0.4588773128419914,0.119144367190433,0.0,0,0,0,0.0,0.0,0.0,0.0,0.0,0.0,0.0,0.0
5.22,-0.4381533400219333,0.1445261022305128,0.0,0,0,0,0.0,0.0,0.0,0.0,0.0,0.0,0.0,0.0
5.23,-0.4135402871372794,0.1686250133556404,0.0,0,0,0,0.0,0.0,0.0,0.0,0.0,0.0,0.0,0.0
5.24,-0.3852566213878937,0.1912271969246075,0.0,0,0,0,0.0,0.0,0.0,0.0,0.0,0.0,0.0,0.0
5.25,-0.3535533905932735,0.2121320343559644,0.0,0,0,0,0.0,0.0,0.0,0.0,0.0,0.0,0.0,0.0
5.26,-0.3187119948743455,0.2311539728327365,0.0,0,0,0,0.0,0.0,0.0,0.0,0.0,0.0,0.0,0.0
5.2700000000000005,-0.2810416889260639,0.2481241722823691,0.0,0,0,0,0.0,0.0,0.0,0.0,0.0,0.0,0.0,0.0
5.28,-0.2408768370508572,0.2628920040131591,0.0,0,0,0,0.0,0.0,0.0,0.0,0.0,0.0,0.0,0.0
5.29,-0.1985739453173909,0.2753263877051941,0.0,0,0,0,0.0,0.0,0.0,0.0,0.0,0.0,0.0,0.0
5.3,-0.1545084971874755,0.2853169548885457,0.0,0,0,0,0.0,0.0,0.0,0.0,0.0,0.0,0.0,0.0
5.3100000000000005,-0.1090716206982707,0.2927750285816243,0.0,0,0,0,0.0,0.0,0.0,0.0,0.0,0.0,0.0,0.0
5.32,-0.0626666167821527,0.2976344103943432,0.0,0,0,0,0.0,0.0,0.0,0.0,0.0,0.0,0.0,0.0
5.33,-0.0157053795390659,0.2998519681097195,0.0,0,0,0,0.0,0.0,0.0,0.0,0.0,0.0,0.0,0.0
5.34,0.0313952597646537,0.2994080185284815,0.0,0,0,0,0.0,0.0,0.0,0.0,0.0,0.0,0.0,0.0
5.3500000000000005,0.0782172325201184,0.296306502178541,0.0,0,0,0,0.0,0.0,0.0,0.0,0.0,0.0,0.0,0.0
5.36,0.1243449435824292,0.2905749483385891,0.0,0,0,0,0.0,0.0,0.0,0.0,0.0,0.0,0.0,0.0
5.37,0.1693689601226463,0.2822642306862675,0.0,0,0,0,0.0,0.0,0.0,0.0,0.0,0.0,0.0,0.0
5.38,0.2128896457825359,0.2714481157398059,0.0,0,0,0,0.0,0.0,0.0,0.0,0.0,0.0,0.0,0.0
5.39,0.2545207078751842,0.2582226081011835,0.0,0,0,0,0.0,0.0,0.0,0.0,0.0,0.0,0.0,0.0
5.4,0.2938926261462371,0.2427050983124839,0.0,0,0,0,0.0,0.0,0.0,0.0,0.0,0.0,0.0,0.0
5.41,0.3306559326618256,0.225033320889138,0.0,0,0,0,0.0,0.0,0.0,0.0,0.0,0.0,0.0,0.0
5.42,0.3644843137107047,0.2053641317786072,0.0,0,0,0,0.0,0.0,0.0,0.0,0.0,0.0,0.0,0.0
5.43,0.3950775061878436,0.1838721160958941,0.0,0,0,0,0.0,0.0,0.0,0.0,0.0,0.0,0.0,0.0
5.44,0.4221639627510073,0.1607480384936991,0.0,0,0,0,0.0,0.0,0.0,0.0,0.0,0.0,0.0,0.0
5.45,0.4455032620941832,0.1361971499218648,0.0,0,0,0,0.0,0.0,0.0,0.0,0.0,0.0,0.0,0.0
5.46,0.4648882429441247,0.1104373658054048,0.0,0,0,0,0.0,0.0,0.0,0.0,0.0,0.0,0.0,0.0
5.47,0.4801468428384705,0.0836973318117709,0.0,0,0,0,0.0,0.0,0.0,0.0,0.0,0.0,0.0,0.0
5.48,0.4911436253643447,0.0562143943757161,0.0,0,0,0,0.0,0.0,0.0,0.0,0.0,0.0,0.0,0.0
5.49,0.49778098230154,0.0282324939955536,0.0,0,0,0,0.0,0.0,0.0,0.0,0.0,0.0,0.0,0.0
5.5,0.5,7.329311375786468e-17,0.0,0,0,0,0.0,0.0,0.0,0.0,0.0,0.0,0.0,0.0
5.51,0.4977809823015401,-0.0282324939955535,0.0,0,0,0,0.0,0.0,0.0,0.0,0.0,0.0,0.0,0.0
5.5200000000000005,0.4911436253643441,-0.056214394375718,0.0,0,0,0,0.0,0.0,0.0,0.0,0.0,0.0,0.0,0.0
5.53,0.4801468428384716,-0.0836973318117687,0.0,0,0,0,0.0,0.0,0.0,0.0,0.0,0.0,0.0,0.0
5.54,0.4648882429441261,-0.1104373658054027,0.0,0,0,0,0.0,0.0,0.0,0.0,0.0,0.0,0.0,0.0
5.55,0.4455032620941849,-0.1361971499218627,0.0,0,0,0,0.0,0.0,0.0,0.0,0.0,0.0,0.0,0.0
5.5600000000000005,0.4221639627510075,-0.1607480384936989,0.0,0,0,0,0.0,0.0,0.0,0.0,0.0,0.0,0.0,0.0
5.57,0.3950775061878459,-0.1838721160958924,0.0,0,0,0,0.0,0.0,0.0,0.0,0.0,0.0,0.0,0.0
5.58,0.3644843137107074,-0.2053641317786056,0.0,0,0,0,0.0,0.0,0.0,0.0,0.0,0.0,0.0,0.0
5.59,0.3306559326618285,-0.2250333208891365,0.0,0,0,0,0.0,0.0,0.0,0.0,0.0,0.0,0.0,0.0
5.6000000000000005,0.2938926261462345,-0.2427050983124851,0.0,0,0,0,0.0,0.0,0.0,0.0,0.0,0.0,0.0,0.0
5.61,0.2545207078751844,-0.2582226081011834,0.0,0,0,0,0.0,0.0,0.0,0.0,0.0,0.0,0.0,0.0
5.62,0.2128896457825361,-0.2714481157398059,0.0,0,0,0,0.0,0.0,0.0,0.0,0.0,0.0,0.0,0.0
5.63,0.1693689601226466,-0.2822642306862674,0.0,0,0,0,0.0,0.0,0.0,0.0,0.0,0.0,0.0,0.0
5.64,0.1243449435824294,-0.2905749483385891,0.0,0,0,0,0.0,0.0,0.0,0.0,0.0,0.0,0.0,0.0
5.65,0.0782172325201151,-0.2963065021785413,0.0,0,0,0,0.0,0.0,0.0,0.0,0.0,0.0,0.0,0.0
5.66,0.0313952597646575,-0.2994080185284815,0.0,0,0,0,0.0,0.0,0.0,0.0,0.0,0.0,0.0,0.0
5.67,-0.0157053795390621,-0.2998519681097195,0.0,0,0,0,0.0,0.0,0.0,0.0,0.0,0.0,0.0,0.0
5.68,-0.0626666167821489,-0.2976344103943435,0.0,0,0,0,0.0,0.0,0.0,0.0,0.0,0.0,0.0,0.0
5.69,-0.1090716206982705,-0.2927750285816243,0.0,0,0,0,0.0,0.0,0.0,0.0,0.0,0.0,0.0,0.0
5.7,-0.1545084971874719,-0.2853169548885464,0.0,0,0,0,0.0,0.0,0.0,0.0,0.0,0.0,0.0,0.0
5.71,-0.1985739453173907,-0.2753263877051942,0.0,0,0,0,0.0,0.0,0.0,0.0,0.0,0.0,0.0,0.0
5.72,-0.240876837050857,-0.2628920040131592,0.0,0,0,0,0.0,0.0,0.0,0.0,0.0,0.0,0.0,0.0
5.73,-0.2810416889260667,-0.2481241722823679,0.0,0,0,0,0.0,0.0,0.0,0.0,0.0,0.0,0.0,0.0
5.74,-0.3187119948743452,-0.2311539728327365,0.0,0,0,0,0.0,0.0,0.0,0.0,0.0,0.0,0.0,0.0
5.75,-0.3535533905932733,-0.2121320343559645,0.0,0,0,0,0.0,0.0,0.0,0.0,0.0,0.0,0.0,0.0
5.76,-0.3852566213878935,-0.1912271969246077,0.0,0,0,0,0.0,0.0,0.0,0.0,0.0,0.0,0.0,0.0
5.7700000000000005,-0.4135402871372813,-0.1686250133556388,0.0,0,0,0,0.0,0.0,0.0,0.0,0.0,0.0,0.0,0.0
5.78,-0.4381533400219315,-0.1445261022305148,0.0,0,0,0,0.0,0.0,0.0,0.0,0.0,0.0,0.0,0.0
5.79,-0.4588773128419899,-0.1191443671904351,0.0,0,0,0,0.0,0.0,0.0,0.0,0.0,0.0,0.0,0.0
5.8,-0.475528258147576,-0.0927050983124858,0.0,0,0,0,0.0,0.0,0.0,0.0,0.0,0.0,0.0,0.0
5.8100000000000005,-0.4879583809693736,-0.065442972418963,0.0,0,0,0,0.0,0.0,0.0,0.0,0.0,0.0,0.0,0.0
5.82,-0.496057350657239,-0.0375999700692901,0.0,0,0,0,0.0,0.0,0.0,0.0,0.0,0.0,0.0,0.0
5.83,-0.4997532801828659,-0.009423227723438,0.0,0,0,0,0.0,0.0,0.0,0.0,0.0,0.0,0.0,0.0
5.84,-0.4990133642141358,0.0188371558587937,0.0,0,0,0,0.0,0.0,0.0,0.0,0.0,0.0,0.0,0.0
5.8500000000000005,-0.4938441702975685,0.0469303395120704,0.0,0,0,0,0.0,0.0,0.0,0.0,0.0,0.0,0.0,0.0
5.86,-0.4842915805643154,0.0746069661494569,0.0,0,0,0,0.0,0.0,0.0,0.0,0.0,0.0,0.0,0.0
5.87,-0.4704403844771128,0.1016213760735872,0.0,0,0,0,0.0,0.0,0.0,0.0,0.0,0.0,0.0,0.0
5.88,-0.4524135262330103,0.127733787469521,0.0,0,0,0,0.0,0.0,0.0,0.0,0.0,0.0,0.0,0.0
5.89,-0.4303710135019731,0.15271242472511,0.0,0,0,0,0.0,0.0,0.0,0.0,0.0,0.0,0.0,0.0
5.9,-0.4045084971874739,0.1763355756877418,0.0,0,0,0,0.0,0.0,0.0,0.0,0.0,0.0,0.0,0.0
5.91,-0.3750555348152307,0.1983935595970949,0.0,0,0,0,0.0,0.0,0.0,0.0,0.0,0.0,0.0,0.0
5.92,-0.3422735529643462,0.2186905882264224,0.0,0,0,0,0.0,0.0,0.0,0.0,0.0,0.0,0.0,0.0
5.93,-0.3064535268264911,0.2370465037127057,0.0,0,0,0,0.0,0.0,0.0,0.0,0.0,0.0,0.0,0.0
5.94,-0.2679133974894963,0.2532983776506052,0.0,0,0,0,0.0,0.0,0.0,0.0,0.0,0.0,0.0,0.0
5.95,-0.2269952498697724,0.2673019572565105,0.0,0,0,0,0.0,0.0,0.0,0.0,0.0,0.0,0.0,0.0
5.96,-0.184062276342339,0.2789329457664753,0.0,0,0,0,0.0,0.0,0.0,0.0,0.0,0.0,0.0,0.0
5.97,-0.1394955530196158,0.2880881057030827,0.0,0,0,0,0.0,0.0,0.0,0.0,0.0,0.0,0.0,0.0
5.98,-0.0936906572928611,0.2946861752186067,0.0,0,0,0,0.0,0.0,0.0,0.0,0.0,0.0,0.0,0.0
5.99,-0.0470541566592571,0.2986685893809239,0.0,0,0,0,0.0,0.0,0.0,0.0,0.0,0.0,0.0,0.0
6.0,-1.102182119232618e-15,0.2999999999999999,0.0,0,0,0,0.0,0.0,0.0,0.0,0.0,0.0,0.0,0.0
6.01,0.0470541566592549,0.298668589380924,0.0,0,0,0,0.0,0.0,0.0,0.0,0.0,0.0,0.0,0.0
6.0200000000000005,0.0936906572928624,0.2946861752186065,0.0,0,0,0,0.0,0.0,0.0,0.0,0.0,0.0,0.0,0.0
6.03,0.1394955530196136,0.2880881057030831,0.0,0,0,0,0.0,0.0,0.0,0.0,0.0,0.0,0.0,0.0
6.04,0.1840622763423369,0.2789329457664758,0.0,0,0,0,0.0,0.0,0.0,0.0,0.0,0.0,0.0,0.0
6.05,0.2269952498697704,0.2673019572565112,0.0,0,0,0,0.0,0.0,0.0,0.0,0.0,0.0,0.0,0.0
6.0600000000000005,0.2679133974895005,0.2532983776506037,0.0,0,0,0,0.0,0.0,0.0,0.0,0.0,0.0,0.0,0.0
6.07,0.3064535268264893,0.2370465037127065,0.0,0,0,0,0.0,0.0,0.0,0.0,0.0,0.0,0.0,0.0
6.08,0.3422735529643445,0.2186905882264233,0.0,0,0,0,0.0,0.0,0.0,0.0,0.0,0.0,0.0,0.0
6.09,0.3750555348152292,0.1983935595970959,0.0,0,0,0,0.0,0.0,0.0,0.0,0.0,0.0,0.0,0.0
6.1000000000000005,0.4045084971874746,0.1763355756877411,0.0,0,0,0,0.0,0.0,0.0,0.0,0.0,0.0,0.0,0.0
6.11,0.430371013501972,0.1527124247251111,0.0,0,0,0,0.0,0.0,0.0,0.0,0.0,0.0,0.0,0.0
6.12,0.4524135262330094,0.1277337874695222,0.0,0,0,0,0.0,0.0,0.0,0.0,0.0,0.0,0.0,0.0
6.13,0.4704403844771121,0.1016213760735885,0.0,0,0,0,0.0,0.0,0.0,0.0,0.0,0.0,0.0,0.0
6.140000000000001,0.4842915805643157,0.0746069661494561,0.0,0,0,0,0.0,0.0,0.0,0.0,0.0,0.0,0.0,0.0
6.15,0.4938441702975687,0.0469303395120696,0.0,0,0,0,0.0,0.0,0.0,0.0,0.0,0.0,0.0,0.0
6.16,0.4990133642141356,0.0188371558587951,0.0,0,0,0,0.0,0.0,0.0,0.0,0.0,0.0,0.0,0.0
6.17,0.4997532801828659,-0.0094232277234366,0.0,0,0,0,0.0,0.0,0.0,0.0,0.0,0.0,0.0,0.0
6.18,0.4960573506572394,-0.0375999700692887,0.0,0,0,0,0.0,0.0,0.0,0.0,0.0,0.0,0.0,0.0
6.19,0.4879583809693733,-0.0654429724189638,0.0,0,0,0,0.0,0.0,0.0,0.0,0.0,0.0,0.0,0.0
6.2,0.4755282581475766,-0.0927050983124846,0.0,0,0,0,0.0,0.0,0.0,0.0,0.0,0.0,0.0,0.0
6.21,0.4588773128419907,-0.1191443671904338,0.0,0,0,0,0.0,0.0,0.0,0.0,0.0,0.0,0.0,0.0
6.22,0.4381533400219325,-0.1445261022305136,0.0,0,0,0,0.0,0.0,0.0,0.0,0.0,0.0,0.0,0.0
6.23,0.4135402871372805,-0.1686250133556395,0.0,0,0,0,0.0,0.0,0.0,0.0,0.0,0.0,0.0,0.0
6.24,0.3852566213878949,-0.1912271969246066,0.0,0,0,0,0.0,0.0,0.0,0.0,0.0,0.0,0.0,0.0
6.25,0.3535533905932749,-0.2121320343559636,0.0,0,0,0,0.0,0.0,0.0,0.0,0.0,0.0,0.0,0.0
6.26,0.3187119948743469,-0.2311539728327357,0.0,0,0,0,0.0,0.0,0.0,0.0,0.0,0.0,0.0,0.0
6.2700000000000005,0.2810416889260655,-0.2481241722823684,0.0,0,0,0,0.0,0.0,0.0,0.0,0.0,0.0,0.0,0.0
6.28,0.2408768370508589,-0.2628920040131586,0.0,0,0,0,0.0,0.0,0.0,0.0,0.0,0.0,0.0,0.0
6.29,0.1985739453173927,-0.2753263877051937,0.0,0,0,0,0.0,0.0,0.0,0.0,0.0,0.0,0.0,0.0
6.3,0.154508497187474,-0.285316954888546,0.0,0,0,0,0.0,0.0,0.0,0.0,0.0,0.0,0.0,0.0
6.3100000000000005,0.1090716206982692,-0.2927750285816245,0.0,0,0,0,0.0,0.0,0.0,0.0,0.0,0.0,0.0,0.0
6.32,0.0626666167821511,-0.2976344103943433,0.0,0,0,0,0.0,0.0,0.0,0.0,0.0,0.0,0.0,0.0
6.33,0.0157053795390643,-0.2998519681097195,0.0,0,0,0,0.0,0.0,0.0,0.0,0.0,0.0,0.0,0.0
6.34,-0.0313952597646553,-0.2994080185284815,0.0,0,0,0,0.0,0.0,0.0,0.0,0.0,0.0,0.0,0.0
6.3500000000000005,-0.0782172325201164,-0.2963065021785412,0.0,0,0,0,0.0,0.0,0.0,0.0,0.0,0.0,0.0,0.0
6.36,-0.1243449435824273,-0.2905749483385894,0.0,0,0,0,0.0,0.0,0.0,0.0,0.0,0.0,0.0,0.0
6.37,-0.1693689601226445,-0.2822642306862679,0.0,0,0,0,0.0,0.0,0.0,0.0,0.0,0.0,0.0,0.0
6.38,-0.2128896457825341,-0.2714481157398064,0.0,0,0,0,0.0,0.0,0.0,0.0,0.0,0.0,0.0,0.0
6.390000000000001,-0.2545207078751856,-0.2582226081011831,0.0,0,0,0,0.0,0.0,0.0,0.0,0.0,0.0,0.0,0.0
6.4,-0.2938926261462355,-0.2427050983124846,0.0,0,0,0,0.0,0.0,0.0,0.0,0.0,0.0,0.0,0.0
6.41,-0.3306559326618268,-0.2250333208891374,0.0,0,0,0,0.0,0.0,0.0,0.0,0.0,0.0,0.0,0.0
6.42,-0.3644843137107058,-0.2053641317786065,0.0,0,0,0,0.0,0.0,0.0,0.0,0.0,0.0,0.0,0.0
6.43,-0.3950775061878445,-0.1838721160958934,0.0,0,0,0,0.0,0.0,0.0,0.0,0.0,0.0,0.0,0.0
6.44,-0.4221639627510082,-0.1607480384936983,0.0,0,0,0,0.0,0.0,0.0,0.0,0.0,0.0,0.0,0.0
6.45,-0.4455032620941839,-0.1361971499218639,0.0,0,0,0,0.0,0.0,0.0,0.0,0.0,0.0,0.0,0.0
6.46,-0.4648882429441253,-0.1104373658054039,0.0,0,0,0,0.0,0.0,0.0,0.0,0.0,0.0,0.0,0.0
6.47,-0.480146842838471,-0.08369733181177,0.0,0,0,0,0.0,0.0,0.0,0.0,0.0,0.0,0.0,0.0
6.48,-0.4911436253643444,-0.0562143943757172,0.0,0,0,0,0.0,0.0,0.0,0.0,0.0,0.0,0.0,0.0
6.49,-0.4977809823015399,-0.0282324939955548,0.0,0,0,0,0.0,0.0,0.0,0.0,0.0,0.0,0.0,0.0
6.5,-0.4999999999999999,-1.2493254293212769e-15,0.0,0,0,0,0.0,0.0,0.0,0.0,0.0,0.0,0.0,0.0
6.51,-0.4977809823015402,0.0282324939955523,0.0,0,0,0,0.0,0.0,0.0,0.0,0.0,0.0,0.0,0.0
6.5200000000000005,-0.4911436253643439,0.0562143943757189,0.0,0,0,0,0.0,0.0,0.0,0.0,0.0,0.0,0.0,0.0
6.53,-0.4801468428384711,0.0836973318117696,0.0,0,0,0,0.0,0.0,0.0,0.0,0.0,0.0,0.0,0.0
6.54,-0.4648882429441255,0.1104373658054036,0.0,0,0,0,0.0,0.0,0.0,0.0,0.0,0.0,0.0,0.0
6.55,-0.4455032620941842,0.1361971499218636,0.0,0,0,0,0.0,0.0,0.0,0.0,0.0,0.0,0.0,0.0
6.5600000000000005,-0.4221639627510066,0.1607480384936997,0.0,0,0,0,0.0,0.0,0.0,0.0,0.0,0.0,0.0,0.0
6.57,-0.3950775061878449,0.1838721160958931,0.0,0,0,0,0.0,0.0,0.0,0.0,0.0,0.0,0.0,0.0
6.58,-0.3644843137107063,0.2053641317786062,0.0,0,0,0,0.0,0.0,0.0,0.0,0.0,0.0,0.0,0.0
6.59,-0.3306559326618273,0.2250333208891371,0.0,0,0,0,0.0,0.0,0.0,0.0,0.0,0.0,0.0,0.0
6.6000000000000005,-0.293892626146236,0.2427050983124844,0.0,0,0,0,0.0,0.0,0.0,0.0,0.0,0.0,0.0,0.0
6.61,-0.2545207078751861,0.2582226081011828,0.0,0,0,0,0.0,0.0,0.0,0.0,0.0,0.0,0.0,0.0
6.62,-0.2128896457825379,0.2714481157398054,0.0,0,0,0,0.0,0.0,0.0,0.0,0.0,0.0,0.0,0.0
6.63,-0.1693689601226484,0.282264230686267,0.0,0,0,0,0.0,0.0,0.0,0.0,0.0,0.0,0.0,0.0
6.640000000000001,-0.1243449435824244,0.2905749483385898,0.0,0,0,0,0.0,0.0,0.0,0.0,0.0,0.0,0.0,0.0
6.65,-0.0782172325201135,0.2963065021785414,0.0,0,0,0,0.0,0.0,0.0,0.0,0.0,0.0,0.0,0.0
6.66,-0.0313952597646559,0.2994080185284815,0.0,0,0,0,0.0,0.0,0.0,0.0,0.0,0.0,0.0,0.0
6.67,0.0157053795390637,0.2998519681097195,0.0,0,0,0,0.0,0.0,0.0,0.0,0.0,0.0,0.0,0.0
6.68,0.0626666167821505,0.2976344103943434,0.0,0,0,0,0.0,0.0,0.0,0.0,0.0,0.0,0.0,0.0
6.69,0.109071620698272,0.2927750285816241,0.0,0,0,0,0.0,0.0,0.0,0.0,0.0,0.0,0.0,0.0
6.7,0.1545084971874734,0.2853169548885461,0.0,0,0,0,0.0,0.0,0.0,0.0,0.0,0.0,0.0,0.0
6.71,0.1985739453173889,0.2753263877051946,0.0,0,0,0,0.0,0.0,0.0,0.0,0.0,0.0,0.0,0.0
6.72,0.2408768370508553,0.2628920040131598,0.0,0,0,0,0.0,0.0,0.0,0.0,0.0,0.0,0.0,0.0
6.73,0.281041688926065,0.2481241722823686,0.0,0,0,0,0.0,0.0,0.0,0.0,0.0,0.0,0.0,0.0
6.74,0.3187119948743437,0.2311539728327373,0.0,0,0,0,0.0,0.0,0.0,0.0,0.0,0.0,0.0,0.0
6.75,0.3535533905932719,0.2121320343559653,0.0,0,0,0,0.0,0.0,0.0,0.0,0.0,0.0,0.0,0.0
6.76,0.3852566213878923,0.1912271969246086,0.0,0,0,0,0.0,0.0,0.0,0.0,0.0,0.0,0.0,0.0
6.7700000000000005,0.4135402871372822,0.168625013355638,0.0,0,0,0,0.0,0.0,0.0,0.0,0.0,0.0,0.0,0.0
6.78,0.4381533400219322,0.144526102230514,0.0,0,0,0,0.0,0.0,0.0,0.0,0.0,0.0,0.0,0.0
6.79,0.4588773128419905,0.1191443671904342,0.0,0,0,0,0.0,0.0,0.0,0.0,0.0,0.0,0.0,0.0
6.8,0.4755282581475754,0.0927050983124869,0.0,0,0,0,0.0,0.0,0.0,0.0,0.0,0.0,0.0,0.0
6.8100000000000005,0.4879583809693733,0.0654429724189641,0.0,0,0,0,0.0,0.0,0.0,0.0,0.0,0.0,0.0,0.0
6.82,0.4960573506572388,0.0375999700692912,0.0,0,0,0,0.0,0.0,0.0,0.0,0.0,0.0,0.0,0.0
6.83,0.4997532801828659,0.009423227723437,0.0,0,0,0,0.0,0.0,0.0,0.0,0.0,0.0,0.0,0.0
6.84,0.4990133642141359,-0.0188371558587926,0.0,0,0,0,0.0,0.0,0.0,0.0,0.0,0.0,0.0,0.0
6.8500000000000005,0.4938441702975688,-0.0469303395120693,0.0,0,0,0,0.0,0.0,0.0,0.0,0.0,0.0,0.0,0.0
6.86,0.4842915805643151,-0.0746069661494578,0.0,0,0,0,0.0,0.0,0.0,0.0,0.0,0.0,0.0,0.0
6.87,0.4704403844771135,-0.1016213760735861,0.0,0,0,0,0.0,0.0,0.0,0.0,0.0,0.0,0.0,0.0
6.88,0.4524135262330096,-0.1277337874695218,0.0,0,0,0,0.0,0.0,0.0,0.0,0.0,0.0,0.0,0.0
6.890000000000001,0.4303710135019705,-0.1527124247251126,0.0,0,0,0,0.0,0.0,0.0,0.0,0.0,0.0,0.0,0.0
6.9,0.404508497187475,-0.1763355756877408,0.0,0,0,0,0.0,0.0,0.0,0.0,0.0,0.0,0.0,0.0
