Timestamp,Acc x (m/s^2),Acc y (m/s^2),Acc z (m/s^2),Gyro x (rad/s),Gyro y (rad/s),Gyro z (rad/s),Beccheggio/Pitch (rad/s),Rollio/Roll (rad/s),Imbardata/Yaw (rad/s),Mag x (microTesla),Mag y (microTesla),Mag z (microTesla),Altitudine (m),Pressione (milliBar)
0.017720703125,0.19630645176387979,-0.004824945541231876,0.0917349989437548,-0.007037600004456951,-0.022688778601365926,0.013748206120539536,5.567094318595401e-05,0.0049999225180517755,1.3917789715466056e-05,14.973529570677922,-19.215826463511725,-34.59266914823156,0.0,1013.6798095703124
0.027789794921875,0.20792224644078333,0.04440614631485591,0.12364486065214021,-0.008347839889909458,-0.023386654184257193,0.013696557035066304,8.730310651721286e-05,0.004999809450558903,2.182598457675195e-05,14.978232769522572,-18.85773772437147,-34.099281490562376,0.0,1013.6798095703124
0.037858642578125,0.21817942043999883,0.08179305453832846,0.1508769415537408,-0.008974009834704765,-0.023647283289312863,0.01332243453674114,0.0001189336293182485,0.004999646357289114,2.973393309364571e-05,14.857438107763981,-19.131837875676933,-34.24798375429518,0.0,1013.6798095703124
0.0479267578125,0.226840622078231,0.10826892077882545,0.17093994112169686,-0.009027877311944064,-0.023469697913242986,0.012645066346279755,0.000150560661363341,0.004999433255061265,3.7641232004834954e-05,15.009317935954648,-19.719378442438533,-34.228717385090455,0.0,1013.6798095703124
0.05799560546875,0.23369601076345678,0.12478820536747269,0.18200707229120086,-0.008621209794728553,-0.022852930052757608,0.01168368018439786,0.00018218848771236145,0.004999170115002717,4.554901198938907e-05,14.798233096768367,-19.94322777272318,-34.4370512148356,0.0,1013.6798095703124
0.068064697265625,0.23856029522676422,0.13232757300207793,0.18300329156746797,-0.00786577475615942,-0.02179601170456677,0.010457503771811165,0.0002138152579050388,0.004998856945229756,5.345686977007106e-05,14.859855177812035,-19.77668298503092,-34.16644231419263,0.0,1013.6798095703124
0.078134033203125,0.24128328053375248,0.1318824966692551,0.17366123971517194,-0.00687333966933786,-0.020297974865380517,0.008985764829235382,0.00024544065532559336,0.004998493745237494,6.13647855554669e-05,14.923170906540829,-19.881845824611382,-34.4843345564232,0.0,1013.6798095703124
0.088201904296875,0.24175141090751057,0.12446716407194355,0.15452245272895732,-0.005755672007365066,-0.018357851531908897,0.007287691077386218,0.0002770589964619317,0.004998080589398283,6.9271397447253e-05,14.915372904680568,-19.916835489714863,-34.41019823011815,0.0,1013.6798095703124
0.098270751953125,0.23989905981412357,0.1111054879620155,0.126868331683904,-0.004624539243342228,-0.015974673700861947,0.005382510236979386,0.0003086776323933688,0.00499761738529622,7.717860298978694e-05,14.96526258201553,-19.54897223500574,-34.28662362403408,0.0,1013.6798095703124
0.10833984375,0.23570183508700243,0.09283610331344436,0.09263430691952836,-0.0035917088503705412,-0.013147473368949718,0.0032894500287305936,0.000340293946253799,0.0049971041621659,8.508580719045814e-05,14.616020368614784,-19.526898026532358,-34.067101995316534,0.0,1013.6798095703124
0.11840869140625,0.22918451616896218,0.07070594486704052,0.054262244061114934,-0.0027689483015511385,-0.00987528253288212,0.0010277381733555283,0.00037190608852045017,0.004996540950030367,9.29926068248676e-05,14.614895839808357,-19.51150916374805,-34.20829842228463,0.0,1013.6798095703124
0.1284765625,0.22007088940845823,0.04920958831001843,0.01651256579586303,-0.004112120764954123,-0.0019367416434954109,-0.0010737255681458216,0.00040351144404538966,0.004995927804585561,0.00010089840700475936,14.718591383139263,-19.539754801465943,-34.07502007987164,0.0,1013.6798095703124
0.1385458984375,0.2072063412272351,0.02608699923983215,-0.019609285833414793,-0.005667173977418774,0.004747654032479679,-0.003829881717015789,0.0004351173604165971,0.00499526457964601,0.00010880510505016034,14.640829291446487,-19.721307491179836,-34.30899055781374,0.0,1013.6798095703124
0.148614501953125,0.19450339892610316,0.0020611403437021704,-0.054565793625763546,-0.006439742357288865,0.009953629054846298,-0.006031579258247266,0.0004667166241332493,0.004994551421117759,0.00011671095580794912,14.83010344083028,-19.759650807805684,-34.07756834165232,0.0,1013.6798095703124
0.158683837890625,0.18391453002531297,-0.026290690873603306,-0.0869898968853125,-0.005341523716633511,0.014534497357893765,-0.00849260792025662,0.0004983135162393389,0.004993788232382637,0.00012461708969242101,14.948416427989445,-19.50075490815734,-33.62709130637857,0.0,1013.6798095703124
0.1687529296875,0.16907254731987784,-0.052684254685709704,-0.10966749618887037,-0.004131847908814705,0.017904738355646953,-0.011385644901599691,0.0005299046558420809,0.004992975091458921,0.00013252272013770797,14.855219503716615,-19.672059668573187,-33.617227473463196,0.0,1013.6798095703124
0.178820556640625,0.1522013903086966,-0.07870158362938469,-0.11641764307963619,-0.004830468985507448,0.020304110587579444,-0.014180992109866435,0.0005614858982985524,0.004992112117781708,0.00014042686903057653,14.860205000137157,-19.484235554499925,-33.952151706923416,0.0,1013.6798095703124
0.188889892578125,0.1356697260537007,-0.10078221632180977,-0.10752481343653042,-0.008258942721990532,0.0227604857429764,-0.01701118990300296,0.0005930668833921732,0.0049911990461166626,0.00014833200837427422,14.839425860218505,-19.537250532039113,-34.02395378728215,0.0,1013.6798095703124
0.198958740234375,0.11827529646248269,-0.11827191249179488,-0.08826804734690556,-0.01350261336152889,0.02471916156465622,-0.01973102153546776,0.0006246404027192758,0.004990236075760612,0.00015623639332264846,14.792965926114757,-19.513828591160053,-34.10485059794562,0.0,1013.6798095703124
0.20902783203125,0.09837735042866802,-0.12825215349729818,-0.06489193052143723,-0.01972667850223932,0.02464781528985414,-0.02270078977546156,0.0006562084372544288,0.004989223148118254,0.0001641405790911071,14.731412900367078,-19.815825201798283,-33.81990317890057,0.0,1013.6798095703124
0.219095703125,0.07351258857336275,-0.13699393876615823,-0.04166358488387266,-0.025718576944304593,0.02341346418495363,-0.025102832628841117,0.0006877660796022788,0.004988160427947073,0.0001720433960729592,15.010346101036061,-19.60469360323494,-33.96116481854496,0.0,1013.6798095703124
0.229164794921875,0.046096860800113465,-0.14293013373163194,-0.013955981903629747,-0.03090157560564486,0.02186300760152072,-0.026811587452844253,0.0007193206665402464,0.004987047668177237,0.00017994674088992485,14.945603451689662,-19.901574856303345,-33.80518576733517,0.0,1013.6798095703124
0.239233642578125,0.016303934156737043,-0.1441683056133714,0.017532925481219236,-0.0341759568989703,0.0190909609168731,-0.028229201538213854,0.0007508672908075093,0.004985885034564961,0.00018784944393741528,14.854689777001754,-19.68155897991106,-34.15323562216542,0.0,1013.6798095703124
0.249302734375,-0.013843710222931573,-0.14138687726988636,0.0502159561996488,-0.03531909515352301,0.015073196937510375,-0.02937151639043011,0.000782407166563099,0.0049846724823630765,0.00019575186868152396,14.564259513826226,-19.824605080896163,-33.73175482426881,0.0,1013.6798095703124
0.259370849609375,-0.041748066759342756,-0.13606367546505244,0.08279442690701269,-0.03507850831983381,0.011238647015334634,-0.030049532440001334,0.0008139361554191766,0.004983410176146988,0.00020365303737614093,14.743568822114105,-19.52696406677213,-34.28055056104744,0.0,1013.6798095703124
0.269439697265625,-0.06888407847962899,-0.1329183919646587,0.10988987525843653,-0.03297201309525994,0.006505203566380792,-0.03020575490237291,0.0008454592939771936,0.004982097916094875,0.00021155427143598982,14.826110402905949,-19.329598163234177,-34.09405640419257,0.0,1013.6798095703124
0.279509033203125,-0.0935919014728738,-0.12843213952186835,0.1300835059432803,-0.029935231099094135,0.0026915663362051725,-0.030118079481864582,0.0008769755009707992,0.0049807357380887264,0.00021945535942004938,14.671882939094477,-19.592675824310554,-34.12112492442209,0.0,1013.6798095703124
0.28957763671875,-0.11609311830884601,-0.1207882835231527,0.14223751415314095,-0.0265890855087014,-0.00028847198203895037,-0.0298672786896454,0.0009084806406721807,0.004979323822707353,0.0002273553237371356,14.925551144843135,-19.39280379166432,-33.86456379704883,0.0,1013.6798095703124
0.299645751953125,-0.13851179990052093,-0.11310030048603455,0.14891842737800765,-0.02387316426628787,-0.0021075204795852993,-0.029546447881917466,0.0009399751634010924,0.004977862158903887,0.00023525433628369334,15.039734567918579,-19.61769263533906,-33.82852343063105,0.0,1013.6798095703124
0.30971484375,-0.15666216623361903,-0.10350006396839823,0.1487036788627999,-0.023071467143006057,-0.0031886764209267896,-0.028411745040178682,0.000971463335591401,0.004976350545017946,0.00024315352651182185,14.809280729487156,-19.45699385087568,-34.072513087389076,0.0,1013.6798095703124
0.31978369140625,-0.169198536728219,-0.09503397489621737,0.1378122436282873,-0.022922241893919646,-0.0033091375744776705,-0.02668651727513146,0.001002941023760346,0.004974789173996686,0.00025105191695799295,14.681354114952523,-19.425264313548702,-34.013891223531004,0.0,1013.6798095703124
0.329852783203125,-0.17940202529213486,-0.08454152441707986,0.1141047390695605,-0.02264743623904908,-0.002539598002138349,-0.024795909143981512,0.001034409439413762,0.00497317798574643,0.00025894987088995235,14.928610214001752,-19.603413752888347,-34.1536344128727,0.0,1013.6798095703124
0.3399208984375,-0.18821440995693545,-0.0715829126120453,0.07591290268166775,-0.0204219254077479,-0.0015285173658617372,-0.022048943745773937,0.0010658644538172424,0.004971517197146381,0.00026684641113203125,15.160771114179818,-19.53536458265891,-33.9074531618975,0.0,1013.6798095703124
0.349989501953125,-0.19278603648468887,-0.05843730695407778,0.028903076877363848,-0.015826171422367866,0.0002302669516017911,-0.01869281513440439,0.001097310329488779,0.004969806586799862,0.00027474266687273354,14.918209696651827,-19.5547197149592,-34.07210038522971,0.0,1013.6798095703124
0.360058837890625,-0.19417394250463366,-0.04854775994250282,-0.02350566136131968,-0.009532757958195581,0.0023078752880877525,-0.01551909773479896,0.0011287475123116513,0.004968046121299858,0.000282638809703046,14.720586906173393,-19.456874046532487,-34.35552287812169,0.0,1013.6798095703124
0.3701279296875,-0.19117811033124102,-0.03891284367331724,-0.07411173192165302,-0.0035565977276160116,0.0034879884381491194,-0.012859339735995056,0.0011601726380213958,0.0049662359853813445,0.00029053405402230817,14.669123785040425,-19.548391898987514,-33.98312352296575,0.0,1013.6798095703124
0.38019580078125,-0.18305440953708274,-0.030268721857650067,-0.11731242807927879,0.00135711295622753,0.003351746614362957,-0.010616247707520406,0.0011915823468939652,0.0049643763835594355,0.00029842761450879377,14.765472055064015,-19.544590034505056,-34.113654811095806,0.0,1013.6798095703124
0.390260986328125,-0.17594473905832225,-0.022104148531840055,-0.14822772896511377,0.005111900656007535,0.0018428336438029145,-0.009239512027751676,0.001222971761586906,0.004962467633908583,0.000306318323364015,14.654851462321048,-19.440425408464797,-33.94810557439441,0.0,1013.6798095703124
0.400330078125,-0.16575050469480979,-0.01342637987735236,-0.1654369774382292,0.007439049748273245,-0.0013711423269555003,-0.008514308420884438,0.0012543611230890499,0.0049605084964367,0.00031421132842125363,14.806857150932407,-19.3633852504404,-34.00570173698324,0.0,1013.6798095703124
0.41039892578125,-0.153852200585814,-0.005771264817071124,-0.17004367643056706,0.008625333110645578,-0.00738302773110075,-0.008452964864120616,0.0012857371722663274,0.004958499771197247,0.0003221033560937909,14.895998030437283,-19.30413877681443,-34.16907282709833,0.0,1013.6798095703124
0.420467041015625,-0.1413016464121267,0.0005916652375392642,-0.16391651998370085,0.00793213571000733,-0.014134768250249839,-0.008462930948209397,0.0013170980754783135,0.004956441582919426,0.00032999400403860925,14.787245234701496,-19.352995123316987,-33.95854358822234,0.0,1013.6798095703124
0.4305361328125,-0.12608887474225058,0.009019417244351319,-0.1453185990243332,0.005518355247591645,-0.021232324311385803,-0.008846034656329474,0.0013484488417130724,0.004954333601032601,0.00033788459186310247,14.649740572754904,-19.664579239571687,-34.25826927286292,0.0,1013.6798095703124
0.440605224609375,-0.11156328733338329,0.017596619861977657,-0.1204608186256423,0.0016271427516399515,-0.029078212787630297,-0.009833836533438372,0.0013797861147633477,0.0049521760438595635,0.000345774334430838,14.834197732579135,-19.680556763824054,-33.835889090352936,0.0,1013.6798095703124
0.450674072265625,-0.09388061081982393,0.02625005195300493,-0.08931400839828801,-0.004254881157708678,-0.035139368947177146,-0.011143584388614628,0.001411108821738588,0.00494996898710516,0.00035366302073739644,15.007862559487807,-19.718020586016948,-34.247189203303186,0.0,1013.6798095703124
0.4607431640625,-0.07335988447577635,0.03877147202412209,-0.049345722815640675,-0.0112390037849495,-0.03741760033925004,-0.012458072373678023,0.0014424181681797499,0.004947712345824708,0.0003615510136042046,15.15238826955631,-19.350052677105495,-34.37205243501794,0.0,1013.6798095703124
0.47081103515625,-0.048561555135176085,0.05388676287745036,-0.005711079639737743,-0.017413535994733356,-0.03566790697563312,-0.013086064479972119,0.0014737092880580064,0.004945406478093876,0.00036943714589264813,15.07560561712408,-19.413170354221958,-34.18618685410835,0.0,1013.6798095703124
0.480880126953125,-0.018253846533714792,0.07277120469104989,0.03778659162387313,-0.022268180981711634,-0.029123703197686212,-0.013030024815926595,0.0015049894561874656,0.0049430508478257775,0.00037732331022023523,15.116734710504204,-19.45527860410308,-34.437151015046226,0.0,1013.6798095703124
0.49094921875,0.016753114553500308,0.0923792000560631,0.0778517885711423,-0.02620957349830407,-0.02067487873441421,-0.012618027542525447,0.0015362545647167759,0.004940645755171758,0.00038520853063062267,14.995765277454664,-19.386838837853237,-34.204290675371396,0.0,1013.6798095703124
0.50101806640625,0.05290161141745622,0.10780340935660164,0.11096427819992319,-0.02922046023240407,-0.012770371659542656,-0.012550108581988219,0.001567503543284174,0.00493819128431128,0.00039309259624393806,15.121972353538334,-19.439761754858207,-34.31457119625963,0.0,1013.6798095703124
0.5110859375,0.09009124138305058,0.12261273556818147,0.13612629794439857,-0.031805818224883695,-0.007976880172847714,-0.012984725283766128,0.0015987338089680776,0.004935687647330977,0.00040097491401901283,15.148250878670682,-19.678088481530217,-34.12016547042398,0.0,1013.6798095703124
0.5211552734375,0.1249428425332197,0.13288412182218773,0.15537942213902192,-0.03350416765447467,-0.006259360874632412,-0.014078521398366278,0.0016299526212824687,0.0049331342585716845,0.0004088573755856546,14.97493431817613,-19.621617316836687,-34.62357590081091,0.0,1013.6798095703124
0.53122412109375,0.15601825035376138,0.13781756546379836,0.16874804903662127,-0.034591947751616725,-0.006555680334738409,-0.015649791276578423,0.0016611536101001068,0.004930531631671462,0.0004167384321386089,15.3692612187446,-19.429535554363223,-34.23990265673988,0.0,1013.6798095703124
0.541293212890625,0.1846083852791919,0.1346957681839985,0.1776536005718527,-0.035390011714749585,-0.008161996827065204,-0.01805874258864324,0.001692338733402286,0.004927879605150331,0.00042461863727840694,14.913897987282311,-19.41481621986123,-34.203398672188115,0.0,1013.6798095703124
0.551361328125,0.21170471413672387,0.12354469385954125,0.18194855771170104,-0.03651327295146586,-0.01037681361781518,-0.020704068054437787,0.0017235039003517221,0.004925178532435966,0.0004324970160707283,14.93779164298132,-19.480039557491402,-34.13332669495521,0.0,1013.6798095703124
0.561429931640625,0.23468135374725263,0.1064502512494258,0.17769816638835295,-0.038068466687994,-0.013461245748148158,-0.02342424767981449,0.0017546533346745248,0.004922428051153099,0.0004403746951372812,14.972073961688912,-19.35117298557098,-34.175316594021346,0.0,1013.6798095703124
0.571499267578125,0.25325224470280894,0.08381161837259223,0.168044763117883,-0.03981154604536926,-0.016276069826361907,-0.025762107629717076,0.0017857874768357008,0.004919628113170161,0.00044825184558972903,15.18149980614608,-19.328745982713205,-34.17769602256712,0.0,1013.6798095703124
0.58156787109375,0.26399792521887533,0.05830309690903803,0.15311696561647126,-0.04110848708897189,-0.018306269889180205,-0.027284078552999524,0.00181690148606574,0.004916779153824486,0.0004561273017906136,14.981197829236661,-19.137909590482725,-34.21248652269033,0.0,1013.6798095703124
0.591635986328125,0.2651556169986789,0.0330553769287031,0.13046195957368933,-0.04059622254729187,-0.02077502595524366,-0.028155940453923077,0.001847995808767233,0.004913881141490368,0.00046400123520749293,14.959049114680386,-19.23214738831391,-34.05355285626566,0.0,1013.6798095703124
0.601705078125,0.26032319001106063,0.010449401811122059,0.09744474087303664,-0.03801917368360361,-0.02559345246674094,-0.028326558608326308,0.001879074656491013,0.004910933679946544,0.00047187477166473125,15.104992429506094,-19.423677100763886,-34.198941884965606,0.0,1013.6798095703124
0.61177392578125,0.24932397920167054,-0.013617224147595912,0.05374811471830032,-0.03340813188152005,-0.0323732103275611,-0.02838757613551375,0.0019101339484820631,0.0049079371506483335,0.0004797469368106135,15.09408036898987,-19.559292837775363,-34.29159799577206,0.0,1013.6798095703124
0.621843017578125,0.23532031183352442,-0.03961517883923368,0.0036026992708174874,-0.028241665109847946,-0.03876937581478872,-0.02756350435500412,0.0019411748801430857,0.004904891438266027,0.0004876180927067144,14.854667198923803,-19.522303010989518,-34.26780049551022,0.0,1013.6798095703124
0.6319111328125,0.2205877084610319,-0.0648615422865565,-0.04548815224292052,-0.023754745754697645,-0.04532284613719359,-0.02696437554402847,0.0019721933798319403,0.00490179694786889,0.000495487265555609,15.295772342379149,-19.33198708090714,-34.59282043038141,0.0,1013.6798095703124
0.64197998046875,0.1989864090803662,-0.08642181019343242,-0.0921005293514,-0.020860303535231516,-0.051653763039408905,-0.026683077674959057,0.002003194403028242,0.00489865318694017,0.0005033557714475675,15.417897469961854,-19.182169831273356,-34.34228034008593,0.0,1013.6798095703124
0.652049072265625,0.17673897289027432,-0.1026062870031764,-0.13124746297473266,-0.01951487630790779,-0.05570404796857077,-0.02658214217436042,0.0020341761332882727,0.004895460332255803,0.0005112232089415479,14.867996138535153,-19.42484099754124,-34.54572127301645,0.0,1013.6798095703124
0.6621181640625,0.1566980064294537,-0.11264541103114982,-0.16569325157613699,-0.01795389332838061,-0.05598687737615016,-0.025986678940653103,0.0020651375086686895,0.004892218491397581,0.0005190893675524941,14.730897659840743,-19.39190212203127,-34.14009393949911,0.0,1013.6798095703124
0.67218701171875,0.13715653236438938,-0.11852806103916708,-0.19715699345849008,-0.014828094625592645,-0.05284844385292495,-0.025453186719079694,0.0020960774694039476,0.004888927777188397,0.0005269540369225822,14.668287958888724,-19.353265916246023,-34.340913502693674,0.0,1013.6798095703124
0.682255126953125,0.11700599502344224,-0.12076136628669507,-0.21987810610787345,-0.010500739336174396,-0.04788082423971501,-0.0243960936051729,0.002126994208544567,0.0048855883892530766,0.0005348168161785018,14.937763979826752,-19.28962237096474,-34.121507630985995,0.0,1013.6798095703124
0.69232421875,0.09374995276317391,-0.12277549026337928,-0.23262243470478794,-0.006504933175945266,-0.043574291007697996,-0.02424244883513736,0.002157892663834854,0.0048821997923929675,0.0005426790202482334,15.016881988633106,-19.377836127213477,-34.493900231997664,0.0,1013.6798095703124
0.70239306640625,0.06958836113993502,-0.12485399182221782,-0.2309655203656104,-0.0035041205782287985,-0.04095169939508651,-0.025087057362575372,0.002188768777889604,0.004878762425988164,0.0005505396761629364,14.949131395066775,-19.48448431227869,-34.43605766246637,0.0,1013.6798095703124
0.7124619140625,0.04564628806898633,-0.1239495865117298,-0.20886112332604156,-0.003594009820998975,-0.03993718463826372,-0.026344722030904977,0.0022196229912034085,0.00487527624286361,0.0005583989549067739,14.919727190977186,-19.49433254897698,-34.23936177310158,0.0,1013.6798095703124
0.7225302734375,0.022765827646206466,-0.12290325047678138,-0.16505503466730742,-0.006440620381054963,-0.03748828516533194,-0.028052612735751513,0.0022504535004185962,0.004871741450509605,0.0005662564557918872,14.739744561719425,-19.223733669375516,-34.60834140337047,0.0,1013.6798095703124
0.732598876953125,0.0035861091131781098,-0.12231878538459996,-0.10681824326358166,-0.012468621352441913,-0.03326145442517446,-0.02995592933641316,0.002281262240627736,0.004868157828929906,0.0005741127308074925,14.782325759072913,-19.139064936219114,-34.49520602971036,0.0,1013.6798095703124
0.742668212890625,-0.013276900067482712,-0.12409464905062403,-0.04409724568253791,-0.021375340562107693,-0.028662769088594886,-0.03258533082596714,0.0023120503943431614,0.004864525233103886,0.0005819681410870247,14.689549184971865,-19.31157726647911,-34.976493747464296,0.0,1013.6798095703124
0.752737060546875,-0.025139555068799224,-0.12499254061302216,0.018674754621038684,-0.03159665757830961,-0.024092693383561264,-0.03479683579010495,0.002342813920234171,0.0048608441379856294,0.0005898217146188571,14.72698448064456,-19.37898120870547,-34.67897462241853,0.0,1013.6798095703124
0.762804931640625,-0.03648310031194299,-0.1223141476332355,0.07424626769424117,-0.041535317554981674,-0.020400780571265723,-0.03705013986133735,0.002373551023725947,0.004857114769535756,0.0005976730512250077,14.89288067527772,-19.31146870539973,-34.88518042251938,0.0,1013.6798095703124
0.772874267578125,-0.04963326277551662,-0.11739964821386982,0.12040847413392589,-0.04970716134635539,-0.01756242028796483,-0.03914875665575397,0.0024042688491139937,0.004853336257183817,0.0006055240350642229,14.69331082376793,-19.202255728425378,-35.19386599791944,0.0,1013.6798095703124
0.782943115234375,-0.06625424270840503,-0.10938155554497286,0.15114830557124498,-0.05447175781948502,-0.017427526746248232,-0.04105433690550079,0.002434961127331082,0.00484950936457459,0.000613373123444064,14.873990955380492,-19.203594440965055,-34.785634436816444,0.0,1013.6798095703124
0.79301220703125,-0.08075410427866443,-0.09828728390790412,0.16493050367532372,-0.053773751851973056,-0.018667445058047287,-0.042674617395510706,0.0024656297847264435,0.004845633853394978,0.0006212208677375192,14.752366834291063,-19.22270378091893,-34.56051015687077,0.0,1013.6798095703124
0.803080078125,-0.09448282502914995,-0.0848420922485918,0.1678761204331985,-0.04887749256804182,-0.019534690150928118,-0.04393663842397816,0.0024962700563781253,0.004841710333281773,0.0006290661068564812,14.901524193917513,-18.841096171323272,-34.30371049236883,0.0,1013.6798095703124
0.813149169921875,-0.10673710281886305,-0.07311079685159563,0.16370910670232114,-0.04243357539732205,-0.017911170720420592,-0.04440589851251249,0.002526889065785746,0.0048377378920630995,0.0006369107236043793,15.005924684043306,-18.963358434952347,-34.71060894678046,0.0,1013.6798095703124
0.823218017578125,-0.11342260796291705,-0.06331165981279922,0.15249271083548166,-0.0353766900230585,-0.013413670403385217,-0.0436567315501747,0.0025574820485240357,0.004833717140345444,0.0006447535569009239,14.889777466508038,-19.056813846752743,-34.63545361577842,0.0,1013.6798095703124
0.833287109375,-0.11738633644505884,-0.0539785278979664,0.12939521387786207,-0.029033600680904735,-0.009442794725515544,-0.04202572470631278,0.0025880501820484962,0.004829647923379063,0.0006525949674586412,14.779698449405913,-19.043459478354173,-34.65203601175452,0.0,1013.6798095703124
0.843356201171875,-0.12569308698211404,-0.04384591889259352,0.09672314309984348,-0.023440708135610243,-0.006112557855970799,-0.04022077120348497,0.002618592418380956,0.004825530378787336,0.0006604347454757826,14.871455971384588,-18.905473054085633,-35.07181856024169,0.0,1013.6798095703124
0.853424072265625,-0.1339562730299177,-0.030632491442847826,0.05761419048202661,-0.018194537777569082,-0.0031904481901217936,-0.03798164538405818,0.0026491047539615965,0.004821365055732093,0.0006682719212040636,14.89312692334644,-18.902879572403712,-35.03676907666047,0.0,1013.6798095703124
0.8634931640625,-0.1429854398125031,-0.01739264785144659,0.009070824435744695,-0.01287844395505481,-0.0015622713856079853,-0.03520434258865515,0.0026795942825464164,0.004817150985825143,0.0006761083755117552,15.016080913057683,-19.233226978448744,-34.948437823735,0.0,1013.6798095703124
0.87356201171875,-0.1522685930448149,-0.005391942561704416,-0.04253322196513195,-0.007594595247975096,-0.002079584420850122,-0.03280227993690733,0.002710056259619977,0.004812888817272185,0.0006839429485121835,15.24493939575838,-18.983040205711557,-34.97735707458934,0.0,1013.6798095703124
0.883631103515625,-0.15992635199562727,0.003804646753247475,-0.09097995449664151,-0.0032536832127998366,-0.0042553446557032325,-0.030042713458992485,0.002740491857595665,0.004808578386031882,0.0006917760005379621,15.064287182087805,-19.199682536832487,-34.68407371230839,0.0,1013.6798095703124
0.893698974609375,-0.16332094623719934,0.012831294228489325,-0.1335419963191018,-0.0006670976774940406,-0.006417703820893517,-0.026900553008880217,0.0027708963481888373,0.004804220369310555,0.0006996063727008306,15.109092026191348,-19.187528635615376,-34.64915418820061,0.0,1013.6798095703124
0.90376806640625,-0.1595001110834363,0.02325922663299778,-0.16851558940932324,0.0010737521673152754,-0.006845147700736017,-0.023388399233192997,0.002801276800082815,0.004799813753921026,0.0007074359442362511,15.148702126913092,-19.026038680030993,-34.928872887286445,0.0,1013.6798095703124
0.9138369140625,-0.1539551835466319,0.03411668811181012,-0.1960194756811078,0.0028451343166546097,-0.003891530169655634,-0.019235289424697693,0.002831628485544641,0.004795359218031851,0.0007152635562646636,15.08241133406434,-19.034922416755148,-34.66239001051285,0.0,1013.6798095703124
0.92390625,-0.14478301828718765,0.04405930783792687,-0.21344157509389364,0.00571085040370159,0.0021020478794875506,-0.014952464472933323,0.002861953307651014,0.0047908564804433834,0.0007230897585303939,15.156267629945123,-19.094344951539863,-34.5535019479026,0.0,1013.6798095703124
0.933973876953125,-0.13201136098002736,0.05425601779029675,-0.2185982359369232,0.009118752613731726,0.008495955634831655,-0.010544464444079533,0.0028922443509077655,0.004786306577483366,0.000730912824002689,15.103924968523026,-19.35713827074473,-34.85684742781373,0.0,1013.6798095703124
0.944043212890625,-0.11750143669581656,0.063257004298679,-0.20960698862209395,0.01204170819296415,0.012757285866318729,-0.007016025121765382,0.0029225115960233097,0.004781708009987365,0.0007387353890477892,15.131646017336086,-19.04881969951717,-34.75565394382345,0.0,1013.6798095703124
0.9541123046875,-0.0990069176371127,0.0719150475284081,-0.187572623241231,0.014270894398078974,0.012992978296642851,-0.004577585078755076,0.0029527488629655647,0.00477706170549051,0.0007465559163744717,15.220576573400711,-18.802003332781347,-34.5995309225952,0.0,1013.6798858642578
0.964180908203125,-0.08160543909110836,0.08006457610405227,-0.1561191350156081,0.015299023119303217,0.008532624841059006,-0.0036619651943003515,0.002982955119233012,0.0047723678283594605,0.0007543741970012953,15.318762350608466,-18.646146251223826,-34.2952166655173,0.0,1013.6798858642578
0.974250244140625,-0.06435939030923644,0.08441070564374113,-0.11493992911295164,0.015135313603136573,0.0007634264045255205,-0.003921430733483458,0.0030131337236412327,0.004767625854748251,0.0007621911591781784,14.980465531335971,-18.8009139968092,-34.762022690614835,0.0,1013.6798858642578
0.984318115234375,-0.04417892500495722,0.08873382389201137,-0.06633331696782735,0.015449786948142785,-0.008468003176796808,-0.004893508802030055,0.0030432777921587445,0.0047628368720688255,0.000770005077793606,15.138949827391155,-18.787020328782745,-34.467539383308164,0.0,1013.6798858642578
0.99438720703125,-0.019887259366121537,0.09593095016127258,-0.012547935721832722,0.017369977225028317,-0.015066249593519793,-0.00606559147408581,0.0030733950649958707,0.004757999652544623,0.0007778180176869403,15.261775111826203,-18.87234095986226,-34.486778920198965,0.0,1013.6798858642578
1.0044560546875,0.004238969493461463,0.10329888084415638,0.04369593568239029,0.01994970893495218,-0.017320036398409226,-0.006996956737389187,0.003103480854943515,0.004753114941356855,0.0007856288224141637,14.966029654640959,-18.9878298356045,-34.61856946655755,0.0,1013.6798858642578
1.01452490234375,0.027345055277755694,0.10681915304958522,0.09493611093685234,0.022724825300972522,-0.015167856981399764,-0.007301460536977323,0.003133535591574371,0.004748182670673505,0.0007934376618967875,14.797680553890245,-19.024935927627883,-34.72814540832482,0.0,1013.6798858642578
1.024593017578125,0.049925948580914946,0.10959541904451034,0.13828632145758704,0.02599855306143912,-0.010108990530048226,-0.007154139130135332,0.0031635567913671186,0.0047432032538094705,0.0008012439487923291,15.053358640347104,-19.010186619404237,-34.55995257294575,0.0,1013.6798858642578
1.034662109375,0.06891569315554769,0.1131328168676399,0.17591575115776215,0.027605971917887148,-0.004541091866615828,-0.006759254320077885,0.0031935492486389085,0.004738175893646147,0.0008090489885567078,15.076552640099873,-18.88870370065114,-34.34543626000809,0.0,1013.6798858642578
1.04473095703125,0.08649815518101989,0.1167161865841804,0.21119128807099163,0.02788112382549081,0.002174069542022484,-0.0064470400389382634,0.0032235090237745746,0.004733101244787711,0.0008168518152215395,15.096060424912626,-19.122233356617762,-34.50555597639421,0.0,1013.6798858642578
1.054800048828125,0.104429709566383,0.11793683076523226,0.23982940055255925,0.026811347067801437,0.008131233749995708,-0.005730642328597683,0.0032534372698588745,0.004727979111922271,0.0008246527876593409,15.13073041610202,-18.978323196354065,-34.45290938494625,0.0,1013.6798858642578
1.064869384765625,0.12325649805139009,0.11339066816046214,0.2532890291642995,0.02414502558335212,0.01188384430545684,-0.005609502104875394,0.0032833336850591715,0.0047228095428610015,0.0008324518862057413,15.177781689266675,-18.84843744561479,-34.77135880459705,0.0,1013.6798858642578
1.07493701171875,0.14273477595941608,0.10406550558243752,0.2492436998277395,0.019876664250190055,0.011708384488129728,-0.0064586842973478175,0.0033131921784672726,0.004717593602371428,0.0008402475790333651,15.132521727365145,-18.925019905985675,-34.56045261845952,0.0,1013.6798858642578
1.085006103515625,0.16254584191989946,0.09173341923427766,0.23080358439994897,0.014771566625797535,0.008977360488273186,-0.007524999263722111,0.0033430218654068194,0.004712329700037231,0.0008480423043144269,15.132806128337133,-19.040849562282432,-34.90362585086252,0.0,1013.6798858642578
1.0950751953125,0.18160117211123677,0.07965045086578382,0.20302391769499223,0.009564054232661719,0.007205339117281853,-0.008555867130225284,0.003372818100568763,0.0047070186440165,0.0008558349081211574,14.969583714026616,-18.852893541099682,-35.04117394767964,0.0,1013.6798858642578
1.10514404296875,0.19480325099913356,0.06492738624069108,0.16411019277302513,0.00646832243920863,0.007159854290822947,-0.009865818165949435,0.0034025798645729017,0.004701660617941364,0.0008636251820938244,15.097337500960215,-18.904860630789486,-34.56721313659126,0.0,1013.6798858642578
1.1152119140625,0.20353797905683021,0.04826912798671691,0.11567817498490202,0.005043783151136892,0.009407390751451116,-0.010629637154755523,0.0034323047008999437,0.004696256073729906,0.0008714125404624571,14.888063387791322,-18.825107741927006,-34.699211702480035,0.0,1013.6798858642578
1.12528125,0.21202527385534625,0.030168652337901,0.0630684926891852,0.003893243013441153,0.012417789409119615,-0.010931292829633649,0.00346199951773432,0.00469080375146966,0.0008791988519816495,14.960114313521842,-18.90928921263345,-34.697606635505515,0.0,1013.6798858642578
1.135349853515625,0.21883444849786723,0.011920205604972907,0.009252270105184673,0.0019496525715440713,0.014613922582479358,-0.011087652683320591,0.003491657534417146,0.004685304890355269,0.0008869823978590718,14.937750164466534,-18.976855368626715,-34.20882131899236,0.0,1013.6798858642578
1.145419189453125,0.22259642901186424,-0.00893223446521792,-0.0441157462559348,-0.0013066285139728437,0.01500702650945683,-0.01119639218324213,0.003521282768993754,0.0046797587454052506,0.000894764291021314,15.093767596777814,-19.12945265499546,-34.43414969061265,0.0,1013.6798858642578
1.155488037109375,0.22245226668445042,-0.02891975952816167,-0.09459982089184191,-0.004759957077698288,0.013436645009390633,-0.011124172884177327,0.0035508713323092905,0.004674166042765919,0.0009025435685246461,14.807835761394728,-19.112152449425647,-34.05834519704901,0.0,1013.6798858642578
1.165555908203125,0.21546355568824044,-0.048204902345864976,-0.13728643609323807,-0.006499986685647986,0.010692392864461385,-0.01085448462863738,0.003580421501162966,0.00466852711982082,0.0009103198341505854,14.914883150181943,-19.00817616861427,-34.36863930153379,0.0,1013.6798858642578
1.175625244140625,0.203937697038299,-0.06669292406893608,-0.1677069036098065,-0.006467237404567953,0.006705090335359196,-0.010449610799036314,0.00360994014302323,0.0046628406621873056,0.0009180949539844638,14.876636953131715,-19.15227879918387,-34.568767335880715,0.0,1013.6798858642578
1.185694091796875,0.18748644216358917,-0.08165695586147269,-0.18386156102972762,-0.004050139349803955,0.001224037656291387,-0.010369321519685983,0.003639421231667312,0.004657107822954316,0.0009258674001249898,15.049557686453438,-18.902706141296044,-34.77115609469544,0.0,1013.6798858642578
1.19576318359375,0.16667751832785935,-0.09350228406098259,-0.1852717692981207,-0.000931246751440185,-0.005156362999197671,-0.010610794296199376,0.003668866617899476,0.00465132824417023,0.0009336377185902597,14.88587008927071,-19.18227924681072,-34.608984291007594,0.0,1013.6798858642578
1.20583203125,0.14503630234934092,-0.10607585220549098,-0.1735058577569039,0.0014912570490592542,-0.012139319850408142,-0.010971041420768574,0.0036982745791940483,0.0046455022639346295,0.0009414055131363026,15.122171202218018,-18.917801685546713,-34.81180516457883,0.0,1013.6798858642578
1.215900146484375,0.1199110876676531,-0.11742910186950006,-0.1514566117877149,0.0025825530285123036,-0.01778114808223393,-0.010876496891399905,0.0037276434005564236,0.004639630229832118,0.000949170387980843,15.298070914151232,-19.154408936161555,-34.53232869275745,0.0,1013.6798858642578
1.225968994140625,0.08966810978809742,-0.12178318281484013,-0.11652648959270366,0.0026304525461433516,-0.020397220716843998,-0.010628458249101492,0.0037569770610876995,0.004633711346276891,0.000956933453437474,15.245348729212541,-19.019527169118007,-34.447923033033014,0.0,1013.6798858642578
1.2360380859375,0.05642869046733353,-0.11942973128447865,-0.0719194665138777,0.002190330798301386,-0.020298892430578447,-0.009728913553163685,0.003786273839330217,0.004627745952772354,0.0009646943132770684,14.97694789486526,-18.947673271930146,-34.615900213569134,0.0,1013.6798858642578
1.246107177734375,0.024729647111782216,-0.1142215415047153,-0.0246102010736144,0.0035891748683775653,-0.01769394440499991,-0.008141785875664744,0.0038155327304168875,0.00462173425196423,0.0009724527598240568,15.078594180813653,-19.200985597145785,-34.52863085291387,0.0,1013.6798858642578
1.256175048828125,-0.005303984632657138,-0.1069974964230603,0.021734467117761228,0.007005433392433532,-0.013507048298317493,-0.006080154452232912,0.0038447499013904403,0.0046156770412301975,0.0009802078335355755,15.137234038469725,-18.92369018285893,-34.561969466287614,0.0,1013.6798858642578
1.266244140625,-0.03471495540163387,-0.0963808699662035,0.06192804284847939,0.01156998683670146,-0.009379850613499968,-0.004484286411622995,0.0038739321448964716,0.004609572912340627,0.0009879613955759764,15.03602524318587,-19.03505282145467,-34.426975607440404,0.0,1013.6798858642578
1.27631298828125,-0.06409579912898312,-0.08577069663979667,0.09854913769351645,0.016626471916323632,-0.007728836371588531,-0.0031568227675580138,0.0039030749179420933,0.0046034228076761345,0.0009957122982115177,15.088907801773749,-19.02034873990882,-34.261222543928305,0.0,1013.6798858642578
1.286382080078125,-0.09112749715022735,-0.07469950606861736,0.13772417420540403,0.020445560588159845,-0.006009227047674574,-0.0020499512801800974,0.003932179342167478,0.004597226490532942,0.0010034608979265925,14.878744570105928,-19.34943420234772,-34.71699299490311,0.0,1013.6798858642578
1.296450927734375,-0.11686348572408574,-0.060562438365327965,0.1772815848214753,0.02206934134354991,-0.003320291166776146,-0.0016004830347961644,0.003961243714992886,0.004590984323389412,0.0010112067995847681,15.097508261320856,-19.215439681750038,-34.4446775993761,0.0,1013.6798858642578
1.30651904296875,-0.13918886146042084,-0.05048461357958337,0.20733502003817944,0.021791045351063874,-0.0014217747294688638,-0.0012218184884389195,0.003990266341906582,0.004584696678097894,0.0010189496085456161,15.040940891265008,-19.102587569717635,-34.54791406595119,0.0,1013.6798858642578
1.316588134765625,-0.15308537997289642,-0.04519620970504645,0.22488637600358766,0.018578174125784105,-3.195527561029518e-05,-0.0008891772262048183,0.0040192518574167545,0.004578362548626199,0.001026690619629156,14.841278968656745,-18.95322256176288,-34.28170726987932,0.0,1013.6798858642578
1.3266572265625,-0.16128251593505366,-0.03942600769823093,0.22704298475983087,0.01378883333494928,0.0010615391101129138,-0.0010693552426600456,0.004048197154488438,0.004571982606003431,0.0010344290623292738,14.93678540329769,-19.150767477838325,-34.50689707277218,0.0,1013.6798858642578
1.336725830078125,-0.17013228507918976,-0.03247823027754855,0.21184791764559455,0.009058140373833425,0.0009134862080719276,-0.0015338185720082157,0.004077100542786626,0.004565557226779908,0.0010421645422150135,14.981703645645052,-19.223542609675835,-34.58877889720176,0.0,1013.6798858642578
1.346795166015625,-0.1798723892419012,-0.028164290730691793,0.18180105484916453,0.006099432453832146,0.0007700089286999303,-0.001826688352407182,0.00410596523580815,0.00455908569458655,0.0010498979776786047,14.992454077233202,-19.01381787385751,-34.527657916286884,0.0,1013.6798858642578
1.35686328125,-0.18966921186815944,-0.022912707380439164,0.14532305111430543,0.004575640582103489,0.0009265973983316003,-0.0021532219468520302,0.004134785348929134,0.004552569332758177,0.0010576278495314667,14.971943448251022,-19.105501296073125,-34.54881491593402,0.0,1013.6798858642578
1.36693212890625,-0.19698516734957922,-0.01413375203556283,0.1063796987352669,0.0038271236183786985,0.00019495785735662173,-0.0025188022278079454,0.004163566187603064,0.004546006945701042,0.0010653556381544115,15.106250816239482,-19.050533830761832,-34.670499399023235,0.0,1013.6798858642578
1.377001220703125,-0.1992302609298429,-0.005919829085953109,0.06574066003838258,0.0012477034594511596,-0.0023516439325070764,-0.0034758143222714355,0.004192306062119929,0.004539398910690502,0.0010730809490778145,15.115793185324977,-19.031578420841143,-34.35706684585541,0.0,1013.6798858642578
1.38706982421875,-0.1984070713514033,0.0005635129685763896,0.02547841358104167,-0.0024867890624620716,-0.006233237591219157,-0.0047524895730764434,0.004221002595911303,0.004532745776163439,0.0010808032011385786,15.085930105709568,-19.16985848889125,-34.37432537451234,0.0,1013.6798858642578
1.39713916015625,-0.19542528554763774,0.007919607389435115,-0.014386282549305185,-0.00710076502706673,-0.00977681989671332,-0.006468778705676684,0.004249658979412811,0.0045260468004290465,0.0010885233111547876,15.294169375916848,-19.074802460328023,-34.53160115461122,0.0,1013.6798858642578
1.407207275390625,-0.1881419796830396,0.015777429456394154,-0.05458557232691469,-0.012498545892878658,-0.012066925298446763,-0.0075023756268876845,0.004278269370594642,0.004519303353190392,0.0010962397625629246,15.493785866197417,-18.941005615174557,-34.728491374621754,0.0,1013.6798858642578
1.417276123046875,-0.1806121625297201,0.022978672542948463,-0.09368633618358245,-0.01679134131696912,-0.011428414055366237,-0.007828468350914452,0.0043068390364292,0.0045125141970494,0.0011039540331809555,15.440947973132628,-18.88065823748571,-34.33608977705444,0.0,1013.6798858642578
1.427345458984375,-0.17187735334154358,0.031232235267002462,-0.12385060629713565,-0.01947106181069372,-0.00860659051616489,-0.007986034164582547,0.004335366990513911,0.0045056795563367105,0.0011116659161628643,15.41224221619515,-18.906783688192437,-34.29653504198953,0.0,1013.6798858642578
1.437414306640625,-0.15843006375920368,0.04299921619712215,-0.1438447012689315,-0.020630719226331983,-0.0055659269604553495,-0.007813095523549085,0.004363850180651907,0.004498800162288393,0.0011193746442898446,15.257207371330159,-18.772555761641364,-34.68606009173857,0.0,1013.6798858642578
1.447483154296875,-0.13967191919914612,0.05537239718517302,-0.1521607686205899,-0.01986600187612865,-0.001513201429016305,-0.007933769525713922,0.00439228970626339,0.004491875753408943,0.0011270805723095582,15.100688945077573,-18.9704518768325,-34.9698748896389,0.0,1013.6798858642578
1.45755126953125,-0.11858058993978432,0.06424146497936044,-0.14657429160888952,-0.01705354231252301,0.002394003540672625,-0.00783211448640541,0.004420683218855306,0.004484906907577098,0.0011347831207139337,15.11879622957883,-18.783308919613656,-34.739959425591735,0.0,1013.6798858642578
1.467620361328125,-0.09372698227949874,0.06992103810552455,-0.1301253373283673,-0.014180634697017922,0.004295375061882928,-0.007767724452251509,0.00444903525228696,0.004477892509984689,0.0011424835775792482,15.047510237421019,-18.930159210086252,-34.71372092170851,0.0,1013.6798858642578
1.477689208984375,-0.0657146916496533,0.07324080915391559,-0.10028964736670071,-0.01253256132968065,0.004126300591468169,-0.007952069955012858,0.0044773420808572745,0.004470833476293448,0.0011501809897865548,15.00700916014268,-18.915595603339483,-34.4888156397767,0.0,1013.6798858642578
1.48775830078125,-0.0378179908810079,0.07540188660041536,-0.0583641416262503,-0.013730921406705416,0.0032694774397306475,-0.008727169053960126,0.004505604794032789,0.004463729534816954,0.0011578757113600811,15.162631515590682,-18.84411791840767,-34.195980886635425,0.0,1013.6798858642578
1.497826904296875,-0.01035972100141173,0.07611107854865615,-0.007500473697027264,-0.016551356198799917,0.0017324293333849253,-0.009785247415586546,0.004533821054842029,0.004456581274998558,0.0011655671634460212,15.17511718122679,-18.615742911287015,-34.65180602565102,0.0,1013.6798858642578
1.507895263671875,0.017044900761680182,0.07368331183065385,0.045214641939073534,-0.019356163211158052,-0.0001611765506048592,-0.010487579431487525,0.0045619912700746315,0.004449388599902317,0.001173255513621907,15.277265684305119,-18.90882293378184,-34.111112836932534,0.0,1013.6798858642578
1.517964111328125,0.04292468219266885,0.06914013507061068,0.09496368387570148,-0.021310800221578156,-0.0011717648229105848,-0.011609110533983906,0.004590117205450237,0.004442151056645577,0.0011809413018376718,15.151253620801135,-18.824180443049613,-34.48289790336589,0.0,1013.6798858642578
1.528033203125,0.06340339694220604,0.06576761834952982,0.13578193429468,-0.021432072594463173,-0.002025254291944101,-0.013219586615479385,0.004618197892580071,0.0044348688882809425,0.00118862432218832,14.977966293662925,-18.89203545441175,-34.68470273384727,0.0,1013.6798858642578
1.538102294921875,0.0798063813538962,0.06326126473505583,0.1639893595811194,-0.020444849603140847,-0.0040772616970265515,-0.01486699007988566,0.0046462323679484965,0.004427542342627219,0.0011963043690599612,15.072758992023054,-18.85189753381072,-34.59995018442928,0.0,1013.6798858642578
1.548171142578125,0.09411736523697176,0.058995093249493834,0.18022797055338588,-0.019305589572008973,-0.007392691145551992,-0.016908820582055402,0.0046742196729841375,0.004420171672251205,0.0012039812371345275,15.023550939564894,-18.850037416465373,-34.653383911444784,0.0,1013.6798858642578
1.5582392578125,0.10737013183795385,0.05454205476464785,0.18910034352082777,-0.01951073704913946,-0.010842492374651964,-0.01887533620417567,0.004702158177222031,0.004412757314774515,0.0012116545353621677,15.030402011437824,-19.006976624531426,-34.41610987611625,0.0,1013.6798858642578
1.56830810546875,0.12132568152983686,0.0514917395283609,0.18989171972122523,-0.020057206860176584,-0.013827601323332099,-0.021259574493515992,0.004730051665973528,0.0044052982656461815,0.0012193253609617675,15.345286332172154,-18.943061254973717,-34.273076807228016,0.0,1013.6798858642578
1.57837744140625,0.13550116900778247,0.04168087498371792,0.17679624382610357,-0.019702748645153968,-0.015593819298281025,-0.023366837386219953,0.004757899175226334,0.004397794772337056,0.0012269935081969095,15.06988846049121,-19.059688996163178,-34.58250004046608,0.0,1013.6798858642578
1.588446044921875,0.14421253529348643,0.027802599619649274,0.15398916910959204,-0.017419513224235048,-0.014449618623877038,-0.024651543899149995,0.004785697052128597,0.004390247821172731,0.0012346580283901178,14.901617044553207,-19.056048037876312,-34.50581756929769,0.0,1013.6798858642578
1.598515380859375,0.14599545541975528,0.014357431866899771,0.12553107757023882,-0.01505491044372297,-0.00931828097970343,-0.025528853239086904,0.004813449062715342,0.0043826563896980555,0.0012423200174491516,14.972744822861689,-19.032815898324667,-34.75903281045484,0.0,1013.6798858642578
1.608583251953125,0.14450783531611625,0.0013039505371399383,0.09136592684986491,-0.013336653748405787,-0.002688240148303631,-0.025542687243212594,0.004841148878714589,0.004375022215204183,0.0012499777845984075,15.204545936728287,-19.115610489555724,-34.34873756656707,0.0,1013.6798858642578
1.618652099609375,0.1416604479525004,-0.014643465134771048,0.04844208609073332,-0.011622110751024095,0.0043477650059568565,-0.025305048607949483,0.004868802943518382,0.004367343526023191,0.001257633167876079,15.112065586484793,-19.088794658606716,-34.7743825184522,0.0,1013.6798858642578
1.628721435546875,0.14068510061688394,-0.029612153716710735,0.005055896062799391,-0.009814640810337321,0.010600056547041804,-0.02424097562926637,0.004896409628771599,0.0043596207618115355,0.0012652857762067674,15.108939010866697,-19.420477512799604,-35.05678065695144,0.0,1013.6798858642578
1.6387900390625,0.14042384895171278,-0.04140133346326096,-0.03835148641571562,-0.006730901204042173,0.016302278471776115,-0.022830413826157907,0.004923965313277466,0.004351854937657054,0.001272934662839128,15.069698882832448,-19.42553175032433,-35.33912046096505,0.0,1013.6798858642578
1.648859375,0.13843397328798132,-0.054258347153625736,-0.08015750782508506,-0.0016382292044556073,0.02099640194409421,-0.021241980827686874,0.004951473730258969,0.004344045001451853,0.001280580921445563,15.059595616383275,-19.026656374328002,-34.544497633128714,0.0,1013.6798858642578
1.65892822265625,0.13324530540551255,-0.07033925680010958,-0.11636390261568219,0.005135080992965973,0.02326172106905682,-0.019858669329479373,0.004978931267841735,0.004336191976553503,0.0012882236058294552,15.012045551897454,-19.20970644358161,-34.28082233108551,0.0,1013.6798858642578
1.66899609375,0.1279514646744073,-0.08501662857904897,-0.14305298029037344,0.01124116906274524,0.023109657656743277,-0.01898371895434789,0.005006336330609822,0.0043282963318382025,0.0012958623269485432,14.833029739400281,-19.327274401990344,-34.194456859408255,0.0,1013.6798858642578
1.679065185546875,0.12141041650487414,-0.09798383922853866,-0.1561848975802963,0.015343653317023098,0.021618013406441844,-0.018909270897380707,0.005033694623546997,0.004320356421548864,0.0013034987326913051,15.173684605411799,-19.083416084492814,-34.14410483138344,0.0,1013.6798858642578
1.68913427734375,0.11148397668684332,-0.11277835089856482,-0.15488410469525274,0.01666756904610611,0.019718328292653953,-0.01951048986839501,0.00506100254707594,0.004312373279833589,0.0013111318775836497,14.96432514201632,-19.273366127152602,-34.34204652052236,0.0,1013.6798858642578
1.699203369140625,0.09938591239918375,-0.1276476775917253,-0.13819999350650816,0.015971628004022933,0.01880382411574645,-0.02062633602924664,0.005088259827941307,0.004304346986575277,0.0013187617425303958,14.803198871079857,-19.213752021377424,-34.615125188122526,0.0,1013.6798858642578
1.709272216796875,0.08497010738412247,-0.13969394148978184,-0.10979691322015281,0.013916532041692926,0.019445730683500972,-0.02140773875147421,0.005115465534353761,0.004296277818264281,0.0013263881235668904,14.884304119598374,-19.246759723473005,-34.78914649730484,0.0,1013.6798858642578
1.71934033203125,0.06774800296484164,-0.15122309247038346,-0.07515312839664376,0.01074852405743729,0.020477583499283438,-0.02242556456555573,0.0051426180822144955,0.00428816625320429,0.0013340106322624545,14.922175633925368,-19.426313769274678,-34.8761954072177,0.0,1013.6798858642578
1.7294091796875,0.049053233063419785,-0.16096591010169714,-0.03578059417627666,0.007405921214617172,0.02086950578303913,-0.023293730691403784,0.005169721150347785,0.004280011192381591,0.0013416303585734866,14.751658019101992,-19.491458377612197,-34.64659662560071,0.0,1013.6798858642578
1.739478271484375,0.02928988823337707,-0.16742475965503775,0.005299484418502365,0.003636647270332891,0.019895156961903488,-0.024253363903439823,0.005196773145726828,0.00427181310662851,0.0013492469134405037,14.914083506632533,-19.31955863618675,-34.579781303045934,0.0,1013.6798858642578
1.749547119140625,0.007319730600507447,-0.17217406638475136,0.04882382462204331,-0.0006935269988637305,0.016903575574787125,-0.025543807237309733,0.005223772485836922,0.004263572475524871,0.0013568599084606415,15.018161418888974,-19.278694659335347,-34.654142991723006,0.0,1013.6798858642578
1.7596162109375,-0.013847976734417313,-0.17508351856219626,0.09192854020370765,-0.0055605256939126445,0.01269838187570142,-0.02710952579819209,0.005250720209822296,0.004255288981907213,0.0013644696937755595,14.849234927261673,-19.061897760475738,-34.47832426888958,0.0,1013.6798858642578
1.76968408203125,-0.035485402959963774,-0.17473403847714322,0.12848246270573768,-0.010466971478798387,0.0074097776778489196,-0.029052604429774122,0.0052776121353638504,0.004246963919927393,0.0013720751437809506,14.623763279813467,-19.0907834877029,-34.368426202823265,0.0,1013.6798858642578
1.779753173828125,-0.05761731111393421,-0.17380601843099336,0.1531698302361558,-0.015239736892772308,0.0023416576860761226,-0.030955351552407685,0.005304454514515201,0.004238595354107281,0.0013796780837325056,14.640752013513808,-19.162722808985624,-34.8110820983068,0.0,1013.6798858642578
1.789822265625,-0.08230210475369994,-0.16873991359693563,0.16515182382793359,-0.02022759722933587,-0.0016052704750480744,-0.0324543196925339,0.005331243814913298,0.004230184374999176,0.001387277572262328,14.454251551143557,-19.237730021942177,-34.56483687158902,0.0,1013.6798858642578
1.799891357421875,-0.10719583088681124,-0.1596849037716443,0.1612088483834489,-0.025186532395323667,-0.0036218186600505495,-0.034096585421652906,0.005357979768492369,0.004221731066767116,0.001394873590359431,14.700431320796294,-19.083749451105824,-34.69878231669652,0.0,1013.6798858642578
1.809960205078125,-0.13010790546829615,-0.14656942631775727,0.14136582495381292,-0.02832882524988274,-0.004187445543997427,-0.035251932080144106,0.005384661461418215,0.004213235720497888,0.0014024659349714272,14.75255944126333,-18.72159406635877,-34.58657565617232,0.0,1013.6798858642578
1.820029296875,-0.15111889901112363,-0.12945952920403814,0.10650439966784746,-0.02933541442023687,-0.003245223776034515,-0.035612103551194596,0.005411289920609535,0.004204698009224611,0.0014100549552902087,14.925792850323205,-18.858165420421297,-34.30078768926014,0.0,1013.6798858642578
1.830097412109375,-0.17112441558759386,-0.11001605884853344,0.06482082834531729,-0.02729628318521858,-0.0009064803101809186,-0.034817930108807106,0.0054378616572984114,0.004196119058013124,0.0014176397126799154,15.304579387609316,-19.06949038334923,-34.54991450103673,0.0,1013.6798858642578
1.840166015625,-0.19291457143376906,-0.09128988253409401,0.019199162727226854,-0.02196677965631092,0.0022360205253930997,-0.034124264557519324,0.005464380275564768,0.004187497707582021,0.0014252212919560773,15.312802505091481,-19.101662735487388,-34.31497416006127,0.0,1013.6798858642578
1.8502353515625,-0.2150229531788051,-0.0745365143655903,-0.025058160092539777,-0.01497523353385452,0.005070059604841642,-0.03366403480557522,0.0054908461431672695,0.004178833827518902,0.0014327998573432177,15.060138561496647,-19.174470070078872,-34.42097887088825,0.0,1013.6798858642578
1.860303955078125,-0.23291876438133574,-0.05925579533665941,-0.06535699432726035,-0.007103845633288609,0.00698839763563631,-0.03336474923620907,0.005517255145164697,0.004170128764893049,0.0014403742873876151,15.049171990755516,-19.153947794766534,-34.49500381760051,0.0,1013.6798858642578
1.870373291015625,-0.24517038798422786,-0.047183963718771045,-0.09734752460242216,0.00042330243464299474,0.008507870010658235,-0.03284058367864502,0.005543610859428365,0.004161381340349257,0.0014479456651155318,15.093764652938493,-19.109431877708428,-34.42901677642543,0.0,1013.6798858642578
1.8804423828125,-0.253619429197792,-0.04106898140978891,-0.120605755012683,0.007192469788967837,0.00985058916604175,-0.03215390291392524,0.0055699104621433,0.004152592486739657,0.001455513237023579,15.030130596634756,-19.19925510372817,-34.331599280612316,0.0,1013.6798858642578
1.890510009765625,-0.25933075900455266,-0.03691001809817879,-0.13527242945680792,0.012633666227778215,0.010630346693925888,-0.03128035904930318,0.0055961505159621465,0.004143763368083915,0.001463076067670514,14.861529461620265,-19.324471807823862,-34.69408432554178,0.0,1013.6798858642578
1.900579345703125,-0.26024616300153885,-0.03188042934444401,-0.13727174700381184,0.016716473692636326,0.01186009317325321,-0.03027174040619101,0.005622339028469834,0.004134891287837713,0.001470636522192251,15.151477897430812,-19.074506203963555,-34.408439697873106,0.0,1013.6798858642578
1.910648193359375,-0.25406109985465797,-0.030305329628682383,-0.12546939556759715,0.018766780684684483,0.013838266264162968,-0.02821428020402198,0.005648470012766662,0.004125978263238786,0.0014781929312180592,15.134680844757947,-18.854807129989027,-34.31780502773907,0.0,1013.6798858642578
1.92071728515625,-0.24253284602953654,-0.03137655014471459,-0.10288104636053613,0.018890381848543438,0.016931802101814213,-0.026074524426326417,0.005674545110221112,0.004117023736635048,0.0014857458256419167,15.125854646556265,-18.910728294239185,-34.70385756003665,0.0,1013.6798858642578
1.9307861328125,-0.22615173744917186,-0.031391163077345505,-0.06939491412835369,0.017695449415049726,0.02094807089263761,-0.02391582717324367,0.005700562795466035,0.004108028231857361,0.0014932948203072957,15.098904856129648,-19.06154457292333,-34.40839416059354,0.0,1013.6798858642578
1.940855224609375,-0.20646410444446883,-0.028327758246062693,-0.028729329242780516,0.015034542337727124,0.02433104888709843,-0.021950186712191462,0.005726524069863961,0.004098991402688859,0.0015008402624123113,15.397396461606396,-19.08245585868445,-34.55989383045528,0.0,1013.6798858642578
1.950923095703125,-0.18387124342363598,-0.02420753005874117,0.01427216704981013,0.010983292195165206,0.02523107472638161,-0.020800958263031986,0.005752424905166343,0.004089914660186139,0.0015083810359238325,15.384149114522636,-19.231427184281767,-34.82913291960152,-0.0105693340301513,1013.6811065673828
1.9609921875,-0.15994293549545968,-0.01933432312109426,0.05499109322434609,0.0053216801979433705,0.023949804286684966,-0.02046936387381868,0.005778271323010078,0.004080795894114265,0.0015159189505756366,15.289164286311285,-19.18740605864248,-34.60637022838262,-0.0105693340301513,1013.6811065673828
1.971061279296875,-0.1348057764114472,-0.012379785752254055,0.09226119831433408,-0.002091438407227535,0.020298028200753073,-0.020941308095817075,0.005804059920876855,0.00407163629376664,0.0015234530729836748,15.326608600765898,-19.311560341545597,-34.285160428574216,-0.0105693340301513,1013.6811065673828
1.981130126953125,-0.10637751149425356,-0.00683771416711261,0.12664070246579412,-0.01130988605073221,0.014850962235908424,-0.022323280957719842,0.005829789817544499,0.004062436174367989,0.001530983201762851,15.39911190355626,-19.1136632681644,-34.25490780789708,-0.0105693340301513,1013.6811065673828
1.99119921875,-0.07412808357445583,-0.00301690085506659,0.15586284009725448,-0.02149783098572684,0.00815664699348912,-0.0236478799466319,0.005855462003299204,0.0040531951818262866,0.0015385096832435886,15.322786713858864,-18.976252682830683,-34.60905718716789,-0.0105693340301513,1013.6811065673828
2.00126708984375,-0.03972269703250491,0.001485419108277486,0.182068199585104,-0.032252848643386525,0.0016674248491915832,-0.02544317168103515,0.0058810724950290084,0.004043914758875776,0.00154603140421227,15.551152834499653,-18.78259116408241,-34.58216665159307,-0.0105693340301513,1013.6811065673828
2.011336181640625,-0.00894361417354949,0.006562526409392672,0.20647104881445322,-0.04189215953564978,-0.003173593502724864,-0.027005831225999765,0.005906627246869374,0.0040345927479282315,0.0015535501698301932,15.50389183448409,-18.91201989826549,-34.28898230818503,-0.0105693340301513,1013.6811065673828
2.0214052734375,0.017617572865184915,0.008764101156400361,0.22330249131393967,-0.049588969919918784,-0.005779332835099278,-0.028132966590174713,0.005932122894345784,0.004025230365034361,0.0015610650490655732,15.634380467914685,-18.954573321779716,-34.42945531035828,-0.0105693340301513,1013.6811065673828
2.03147412109375,0.0421835534701,0.007064653640523444,0.23307131785440222,-0.05469181478460648,-0.005495029385087363,-0.028530687532755943,0.0059575585663170704,0.0040158279323478895,0.0015685758410514548,15.57361352553046,-18.89268091959844,-34.70518476858153,-0.0105693340301513,1013.6811065673828
2.04154345703125,0.06367033278184518,-0.0005149919467835745,0.23747514922905502,-0.05724418694326888,-0.003193676818634651,-0.02840464292614684,0.005982935856317134,0.004006384858547503,0.0015760830732011704,15.460344901286906,-18.845025562964707,-34.81093386490123,-0.0105693340301513,1013.6811065673828
2.051612060546875,0.0839628875039622,-0.013459797623306222,0.23636416027539098,-0.05897006083732795,0.001570379960902661,-0.027787939829543792,0.006008251436120543,0.0039969023843582745,0.001583585816779222,15.541795573649678,-18.703895411003245,-34.773069766180015,-0.0105693340301513,1013.6811065673828
2.06168017578125,0.10432437108923888,-0.02746323694894201,0.2265601626513724,-0.05943848498667266,0.005963441035178933,-0.026800099462538255,0.006033505677180608,0.0039873803820124,0.0015910842356610176,15.458476100647614,-18.777464592123756,-34.26255193804892,-0.0105693340301513,1013.6811065673828
2.071749267578125,0.12256759247993135,-0.04525518251320673,0.20708352525855278,-0.058507783443463135,0.0088400155495079,-0.02595180620132728,0.006058701996743053,0.003977817558494285,0.0015985794017703,15.318699098125494,-19.04076975953378,-34.45357472229964,-0.0105693340301513,1013.6811065673828
2.081818115234375,0.1369248009711307,-0.06787377464263195,0.1763684008334855,-0.05647065018277129,0.008459816799608898,-0.02529789078414363,0.006083837081496759,0.00396821516446012,0.001606070387265049,15.552857771151285,-19.042310925196695,-34.53339395643601,-0.0105693340301513,1013.6811065673828
