time,acc_x,acc_y,acc_z,gyro_x,gyro_y,gyro_z,pitch,roll,yaw,pressure,altitude,mag_x,mag_y,mag_z
0.0,0.0,0.0,0.1,0.0,0.0,0.0,0.0,0.0,0.0,1013.25,100.0,30.0,-5.0,40.0
0.010012515644555695,0.018845149267281737,0.009380652250976292,0.09955508569266297,0.0031450058709247847,0.0022011555848637436,0.0037742311113883893,0.03774405390678687,0.018872649394210902,0.018873022864613745,1013.2497997496871,100.00100125156446,30.006290883131403,-4.9952819076764206,40.00754881078136
0.02002503128911139,0.037522609003905166,0.01842816034538423,0.09822430174546937,0.006286900227471312,0.004398043185686778,0.00754607236692103,0.07547466394326822,0.037742311113883896,0.037745298788421804,1013.2495994993742,100.0020025031289,30.012580770371294,-4.990564982387226,40.01509493278866
0.030037546933667086,0.055866181828639574,0.02682121139660197,0.09601948985478077,0.009422574633640868,0.006586403093939633,0.011313135424006955,0.11317839102764513,0.05660599795745118,0.056616080860180315,1013.2493992490613,100.00300375469337,30.018868665985817,-4.985850390878132,40.02263567820553
0.04005006257822278,0.07371264138153692,0.03426173488259285,0.09296026906770027,0.012548926807148215,0.008761992136069296,0.015073034965626547,0.15084180565342603,0.0754607236692103,0.07548462222776779,1013.2491989987484,100.00400500625783,30.025153574556402,-4.9811392993175865,40.030168361130684
0.05006257822277847,0.09090318475878927,0.04048548831201949,0.0890738612061774,0.015662863688667362,0.010920591900903569,0.01882339021072232,0.18845149267281733,0.09430350341206968,0.09435017612774353,1013.2489987484355,100.00500625782227,30.03143450113736,-4.9764328730083145,40.037690298534564
0.06007509386733417,0.10728484558640788,0.045271441522856636,0.0843948486394469,0.018761304501952583,0.013058016919041765,0.02256182642171751,0.2259940560749992,0.11313135424006954,0.11321199591490236,1013.2487984981227,100.00600750938673,30.037710451413357,-4.971732276099077,40.045198811215
0.07008760951188986,0.12271185515878975,0.04844962633984935,0.07896486656021179,0.021841183801807135,0.015170122778372193,0.02628597640820789,0.2634561237575853,0.13194129557060336,0.1320693350918246,1013.2485982478098,100.0070087609512,30.043980431856866,-4.9670386712967165,40.05269122475152
0.08010012515644556,0.1370469395303714,0.0499071728183554,0.07283223250278467,0.024899454506884258,0.0172528141599806,0.029993482025874735,0.3008243522895668,0.15073034965626547,0.1509214473384206,1013.2483979974969,100.00801001251564,30.05024344988542,-4.962353219578556,40.06016487045791
0.09011264080100126,0.1501625410184767,0.04959231770361918,0.06605151639984184,0.027933090914319787,0.019302052778868165,0.03368199566966973,0.3380854316640438,0.1694955420562494,0.16976758654146767,1013.248197747184,100.0090112640801,30.05649851401875,-4.957677079905226,40.06761708633281
0.10012515644555695,0.16194195324807795,0.04751624274919407,0.05868305500354712,0.03093909169321403,0.021313865214082205,0.03734918176032639,0.3752260900390516,0.1882339021072232,0.18860700682413936,1013.2479974968711,100.01001251564456,30.06274463403574,-4.953011408933998,40.07504521800781
0.11013767209011265,0.1722803596385157,0.04375267760853697,0.0507924149918659,0.03391448285400116,0.023284350613077157,0.04099271822325675,0.4122330984647937,0.2069424633936065,0.20743896257552502,1013.2477972465582,100.01101376720901,30.068980821131202,-4.948357360732677,40.08244661969296
0.12015018773466835,0.18108576609142654,0.03843528140266947,0.04244980953750309,0.03685632069076846,0.025209688255367298,0.04461029795889683,0.44909327559559636,0.22561826421717512,0.22626270848013907,1013.2475969962453,100.01201501877347,30.07520608807239,-4.943716086494142,40.08981865511912
0.13016270337922403,0.1882798195805542,0.03175289595481964,0.03372947353100091,0.03976169469361446,0.02708614496080545,0.04819963030356973,0.4857934923849081,0.2442583480659189,0.24507749954741828,1013.2473967459324,100.01301627033793,30.081419449355305,-4.939088734251592,40.09715869847698
0.14017521902377972,0.1937985053593974,0.023942839268504525,0.024709003017441004,0.0426277304281644,0.028910082328123213,0.05175844247994179,0.5223206767616706,0.2628597640820789,0.2638825911412067,1013.2471964956195,100.01401752190237,30.087619921360695,-4.9344764485945785,40.10446413535234
0.15018773466833543,0.197592716582742,0.015282477424237563,0.015468664724631204,0.04545159237939463,0.030677963789697445,0.05528448103615268,0.5586618182863957,0.2814195675292887,0.28267723900922603,1013.2469962453066,100.01501877346684,30.093806522509762,-4.929880370385889,40.11173236365728
0.16020025031289112,0.1996286912734216,0.006079374210228141,0.006090681826793646,0.048230486756951754,0.032386361468863825,0.058775513272708794,0.594803972785291,0.2999348202587474,0.30146069931253094,1013.2467959949937,100.0160200250313,30.099978273419584,-4.925301636479348,40.11896079455706
0.1702127659574468,0.19988831274605096,-0.003339631687256073,-0.003341497700767452,0.050961664259191734,0.03403196282648155,0.06222932865623606,0.6307342669607807,0.3184025911743492,0.32023222865494827,1013.2465957446808,100.01702127659574,30.106134197058115,-4.920741379438614,40.12614685339216
0.18022528160200252,0.19836927081447672,-0.012640034021583594,-0.012743943625628472,0.05364242279320394,0.035611577083861486,0.06564374021919717,0.666439902976784,0.3368199566966973,0.3389910841124988,1013.246395494368,100.0180225281602,30.1122733188989,-4.91620072725704,40.133287980595355
0.1902377972465582,0.19508508234847513,-0.02149153862892441,-0.022032990293470694,0.05627011014812912,0.037122141409603904,0.06901658594468671,0.7019081630171128,0.3551840012259264,0.3577365232627993,1013.2461952440551,100.01902377972466,30.118394667075307,-4.9116808030786565,40.14038163260342
0.2002503128911139,0.19006497099677627,-0.02957979348365406,-0.03112598110901328,0.05884212661912666,0.0385607268583498,0.07234573013542762,0.737126413815369,0.3734918176032639,0.3764678042144464,1013.2459949937422,100.02002503128911,30.12449727253442,-4.907182724920358,40.14742528276307
0.2102628285356696,0.18335360714667615,-0.0366175525852177,-0.039942004038049816,0.06135592757939489,0.03992454404993057,0.07562906476610189,0.7720821111547266,0.39174050757125295,0.39518418563637797,1013.2457947434293,100.02102628285357,30.130580169190416,-4.902707605395362,40.154416422230945
0.2202753441802253,0.17501071043414787,-0.042354877202566206,-0.04840261158588152,0.06380902599769983,0.04121094857790438,0.07886451081815925,0.8067628043359933,0.4099271822325675,0.413884926787213,1013.2455944931164,100.02202753441803,30.136642394077523,-4.8982565514379965,40.1613525608672
0.23028785982478098,0.16511051834143226,-0.046588012189525574,-0.05643251884557247,0.06619899489892186,0.042417446136992186,0.08205001959625882,0.8411561406123663,0.42804896250734586,0.4325692875445683,1013.2453942428035,100.02302878598248,30.14268298750245,-4.893830664029902,40.16823122812247
0.2403003754693367,0.15374112561067788,-0.04916662213794511,-0.06396027340459425,0.0685234697651857,0.04354169735947154,0.08518357402550976,0.8752498695892956,0.4461029795889683,0.45123652843435025,1013.2451939924906,100.02403003754694,30.14870099319632,-4.889431037927695,40.17504997391786
0.2503128911138924,0.14100370035171764,-0.04999913038413428,-0.07091889114883818,0.07078015087519822,0.04458152235115037,0.08826318992868998,0.9090318475878926,0.4640863753982104,0.46988591066002083,1013.2449937421777,100.02503128911138,30.15469545846607,-4.885058761392178,40.18180636951758
0.26032540675844806,0.12701158381927857,-0.04905597125930032,-0.0772464523064302,0.07296680557947986,0.04553490491812575,0.0912869172826339,0.9424900419703278,0.48199630303569735,0.4885166961318378,1013.2447934918648,100.02603254067584,30.160665434345233,-4.880714915919157,40.18849800839406
0.27033792240300375,0.11188928187006493,-0.04637064008367745,-0.08288665242757902,0.07508127050923835,0.04639999647613196,0.09425284145299351,0.9756125354256774,0.4998299272325879,0.5071281474960656,1013.2445932415519,100.0270337922403,30.166609975744198,-4.876400575971928,40.19512250708514
0.28035043804755944,0.0957713570740181,-0.04203850361489349,-0.08778930339768183,0.0771214537166996,0.04717511963489787,0.09715908440659146,1.0083875302146919,0.5175844247994179,0.5257195281641578,1013.244392991239,100.02803504380475,30.172528141599805,-4.872116808715507,40.20167750604294
0.2903629536921152,0.0788012313380649,-0.03621341319626856,-0.09191078002552908,0.07908533674477804,0.04785877145056347,0.10000380590059793,1.0408033523719757,0.5352569850730311,0.5442901023419094,1013.2441927409261,100.02903629536921,30.178418995024344,-4.867864673752662,40.20816067047439
0.30037546933667086,0.06112990969695025,-0.02910224088557945,-0.09521440823273902,0.08097097662403897,0.04844962633984935,0.10278520464777854,1.0728484558640787,0.5528448103615269,0.5628391350585774,1013.2439924906133,100.03003754693367,30.184281603453844,-4.863645222861816,40.21456969117281
0.31038798498122655,0.04291463662722764,-0.020957532608021245,-0.09767079139020148,0.0827765077949772,0.04894653865032858,0.10550151945707557,1.1045114267020235,0.5703451163871555,0.5813658921959688,1013.2437922403004,100.03103879849812,30.190115038795717,-4.859459499736892,40.22090228534041
0.32040050062578224,0.024317496840912563,-0.01206853924903639,-0.09925807189769531,0.08450014395370983,0.04934854488181728,0.10815103034880011,1.1357809870067967,0.587755132727088,0.5998696405174948,1013.2435919899875,100.03204005006258,30.195918377575698,-4.855308539729145,40.22715619740136
0.3304130162703379,0.005503973009334678,-0.002750944208466603,-0.09996212567906974,0.08614017981925783,0.049654865554576696,0.1107320596437288,1.1666459990263622,0.6050721032519949,0.6183496476971905,1013.2433917396746,100.03304130162704,30.201690701083997,-4.851193369591068,40.233329199805276
0.3404255319148936,-0.013358526749024291,0.006664347768688933,-0.09977668786231532,0.08769499282066714,0.049864906720704365,0.11324297302541622,1.1970954691027629,0.6222932865623606,0.6368051823486984,1013.2431914893617,100.03404255319148,30.207431095520786,-4.847115007222425,40.23941909382055
0.3504380475594493,-0.03210215851387147,0.015842962331835506,-0.09870340852618803,0.08916304470230074,0.04997826111578374,0.11568218057504939,1.2271185515878975,0.639415956422466,0.6552355140542141,1013.2429912390488,100.03504380475594,30.21313865214082,-4.843074461418462,40.24542371031758
0.36045056320400504,-0.050560136086334376,0.02445893048379745,-0.0967518380173361,0.09054288304571327,0.04999470894855952,0.11804813777818977,1.2567045527065803,0.6564374021919717,0.6736399133933946,1013.2427909887359,100.0360450563204,30.218812467397324,-4.839072731620388,40.251340910541316
0.3704630788485607,-0.06856821510028284,0.03220626503240405,-0.09393934196858278,0.09183314270660248,0.04991421832710717,0.12033934650276504,1.2858429343655025,0.6733549292550309,0.6920176519722261,1013.242590738423,100.03704630788485,30.22445164308501,-4.835110807668153,40.2571685868731
0.3804755944931164,-0.08596615451569764,0.038809827408950795,-0.09029094677455651,0.093032547165416,0.04973694532067055,0.1225543559476913,1.3145233179067461,0.6901658594468671,0.7103680024518528,1013.2423904881101,100.03804755944931,30.23005528648229,-4.831189669555613,40.26290466358135
0.3904881101376721,-0.10259914248929691,0.04403509892972336,-0.08583911689967015,0.0941399097902771,0.049463233657047745,0.12469176356152534,1.3427354878045072,0.7068675314777458,0.7286902385773621,1013.2421902377972,100.03904881101377,30.235622510492583,-4.82731028718812,40.2685470975609
0.4005006257822278,-0.11831917393461625,0.04769650948434407,-0.080623466000027,0.09515413501098001,0.049093614056111554,0.12675021593056474,1.3704693953037137,0.7234573013542762,0.7469836352065278,1013.2419899874843,100.04005006257822,30.24115243378476,-4.82347362014262,40.27409387906074
0.41051314142678347,-0.13298636751361934,0.049664027866193665,-0.07469040442977361,0.09607421940289324,0.048628803200757464,0.12872840963583418,1.397715161999242,0.7399325427979738,0.7652474683385093,1013.2417897371714,100.04105131414268,30.24664418093266,-4.8196806174302935,40.27954303239985
0.4205256570713392,-0.1464702103408708,0.04986777969614405,-0.06809272626848825,0.0968992526796987,0.04806970234727384,0.1306250920784146,1.4244630833544594,0.7562906476610189,0.7834810151425059,1013.2415894868586,100.04205256570714,30.252096882553673,-4.815932217261816,40.284892616670895
0.4305381727158949,-0.15865071932453578,0.0483005289388192,-0.06088913954435424,0.09762841859398425,0.04741739557782928,0.13243906227259317,1.4507036321578333,0.7725290263391453,0.8016835539863634,1013.2413892365457,100.04305381727158,30.257509675446382,-4.812229346815289,40.29014072643157
0.4405506883604506,-0.16941950881026482,0.04501793488290295,-0.053143743833325756,0.0982609957447988,0.04667314769846511,0.13416917160633132,1.4764274619163842,0.7886451081815926,0.819854364465135,1013.2411889862328,100.04405506883604,30.2628817027272,-4.808572922006901,40.29528549238328
0.45056320400500627,-0.17868075502775982,0.040136575459103874,-0.04492545988275934,0.098796358291371,0.045838401786669036,0.1358143245685699,1.501625410184767,0.8046363418980591,0.8379927274295935,1013.2409887359199,100.0450563204005,30.26821211396602,-4.8049638472643705,40.300325082036956
0.46057571964956195,-0.1863520487581023,0.03382980709559338,-0.03630741633488214,0.09923397657228542,0.04491477639328504,0.13737347944291042,1.5262885018287973,0.8205001959625882,0.8560979250146917,1013.240788485607,100.04605757196495,30.273500065320864,-4.801403015303235,40.30525770036576
0.47058823529411764,-0.19236512863456381,0.02632160814386781,-0.027366299007208317,0.09957341762950345,0.0439040624041849,0.13884564896723342,1.5504079522222598,0.8362341590143281,0.874169240667974,1013.2405882352941,100.04705882352941,30.278744719671444,-4.797891306906033,40.310081590444454
0.4806007509386734,-0.19666648855178043,0.017878624519392136,-0.018181668520191093,0.0998143456367108,0.042808219567786625,0.1402299009588361,1.5739751703758638,0.8518357402550976,0.8922059591779365,1013.2403879849812,100.04806007509387,30.2839452467517,-4.794429590704443,40.314795034075175
0.49061326658322907,-0.19921785377838855,0.008800700047866584,-0.008835252344056016,0.09995652223156748,0.041629372695152635,0.14152535890469362,1.5969817619972229,0.8673024698436963,0.9102073667023315,1013.2401877346683,100.04906132665832,30.28910082328123,-4.791018722964422,40.319396352399444
0.5006257822277848,-0.19999652153653713,-0.0005897721779318587,0.0005897824356151254,0.09999980675153192,0.040369807540035864,0.14273120251647,1.6194195324807794,0.8826318992868998,0.9281727507964208,1013.2399874843554,100.05006257822278,30.294210633095634,-4.787659547374405,40.32388390649616
0.5106382978723404,-0.19899556301770083,-0.009959299255191727,0.010009569162409755,0.09994415637302549,0.039031966366861987,0.1438466682499276,1.6412804898265991,0.8978216018270722,0.9461014004411711,1013.2397872340425,100.05106382978724,30.29927386727569,-4.784352894836621,40.32825609796532
0.5206508135168961,-0.19622388503720128,-0.018975132126375915,0.01934028787859185,0.0997896261538,0.0376184432152415,0.1448710497884058,1.6625568474870045,0.912869172826339,0.9639926060713947,1013.2395869837296,100.05206508135169,30.304289724275446,-4.78109958326156,40.332511369497404
0.5306633291614519,-0.1917061507788156,-0.027317082817634137,0.02849891117906981,0.09953636897846647,0.03613197887019381,0.14580369849006314,1.6832410271400249,0.9277722301472595,0.9818456596038323,1013.2393867334167,100.05306633291615,30.309257410049085,-4.777900417365666,40.336648205428006
0.5406758448060075,-0.1854825603347098,-0.03468889558332946,0.03740394301300578,0.09918463540723838,0.03457545554783547,0.14664402379859942,1.703325661388684,0.9425284145299351,0.9996598544651758,1013.2391864831039,100.0540675844806,30.314176138176645,-4.774756188472285,40.340665132277735
0.5506883604505632,-0.1776084929935156,-0.04082876812224662,0.045976143858995795,0.09873477342803975,0.03295189130683731,0.14739149361719817,1.722803596385157,0.9571353899654975,1.0174344856200346,1013.238986232791,100.05506883604505,30.3190451299885,-4.771667674315928,40.344560719277034
0.5607008760951189,-0.16815401445957395,-0.04551864921537746,0.054139235821004605,0.09818722811222312,0.03126443419648646,0.1480456346454518,1.7416678943788615,0.9715908440659147,1.0351688495988358,1013.2387859824781,100.05607008760951,30.323863614688637,-4.768635638849902,40.348333578875774
0.5707133917396746,-0.15720325338824778,-0.04859198258930161,0.061820581370912335,0.09754254117423757,0.029516356152699555,0.14860603267905742,1.7599118361875867,0.9858924884300596,1.0528622445256692,1013.2385857321652,100.05707133917397,30.328630829476687,-4.765660832057332,40.35198236723752
0.5807259073842304,-0.14485365278507423,-0.049939621989865624,0.06895182969802391,0.09680135043568323,0.027711046653823398,0.149072332872092,1.7775289235907608,1.0000380590059794,1.0705139701460622,1013.2383854818523,100.05807259073842,30.33334601966866,-4.762743989765666,40.355505784718154
0.590738423028786,-0.13121510293001873,-0.049513707398443116,0.075469524914141,0.09596438919428191,0.025852006148523583,0.14944423996170234,1.7945128816440228,1.0140253164493107,1.0881233278546958,1013.2381852315394,100.05907384230288,30.338008438816438,-4.759885833464652,40.3589025763288
0.6007509386733417,-0.1164089635423178,-0.047329364730965495,0.08131567070221356,0.09503248549838814,0.023942839268504504,0.14972151845506618,1.8108576609142653,1.0278520464777854,1.1056896207230538,1013.2379849812265,100.06007509386734,30.34261734882593,-4.757087070127883,40.362171532182856
0.6107634543178974,-0.10056698388697186,-0.043464168656671465,0.08643824638416368,0.09400656132775907,0.021987247839221475,0.14990399277850738,1.8265574396343498,1.0415160602217648,1.1232121535270028,1013.2377847309136,100.06107634543179,30.34717202007392,-4.754348392037923,40.36531148792687
0.6207759699624531,-0.08383013043208498,-0.0380553876140119,0.09079166981576506,0.09288763168139275,0.01998902370213613,0.14999154738866957,1.8416066257767363,1.0550151945707558,1.140690232774311,1013.2375844806007,100.06207759699625,30.351671731523584,-4.751670476615068,40.36832132515535
0.6307884856070087,-0.066347332488895,-0.03129510886411862,0.09433720298960535,0.09167680357333807,0.017952041362433637,0.14998412684567855,1.8559998590452782,1.0683473125158445,1.1581231667320897,1013.2373842302878,100.0630788485607,30.356115770838613,-4.749053986249787,40.371199971809055
0.6408010012515645,-0.04827415699614556,-0.02342341671051798,0.09704329673696106,0.09037527493746939,0.015880250476456668,0.14988173584824718,1.8697320127844814,1.0815103034880011,1.175510265454176,1013.2371839799749,100.06408010012515,30.360503434496,-4.74649956813887,40.373946402556896
0.6508135168961202,-0.029771424240951895,-0.014719866153557193,0.09888587146132816,0.08898433344230954,0.013777668193423501,0.1496844392307,1.882798195805542,1.094502083692198,1.1928508408084335,1013.236983729662,100.06508135168961,30.3648340278974,-4.744007854125355,40.37655963916111
0.6608260325406758,-0.011003776833866412,-0.0054935547838805615,0.09984853140556259,0.08750535521707395,0.011648371366279064,0.14939236192191999,1.8951937541285144,1.107320596437288,1.2101442065039898,1013.2367834793492,100.06608260325407,30.369106865479097,-4.741579460542226,40.3790387508257
0.6708385481852316,0.007861785328182044,0.003927854498614347,0.0999227105460185,0.08593980349019577,0.009496488646781794,0.14900568886624305,1.906914272639992,1.119963812461596,1.227389678118398,1013.2365832290363,100.06708385481852,30.373321270820533,-4.739214988059971,40.381382854528
0.6808510638297872,0.026657391074755732,0.013209770093564284,0.099107748815478,0.08428922714167972,0.007326192480154346,0.14852466490635094,1.9179555766657013,1.1324297302541622,1.2445865731247212,1013.2363829787234,100.06808510638298,30.377476576751388,-4.736915021537999,40.38359111533314
0.690863579474343,0.04521579172762086,0.02202255437455644,0.09741089797661813,0.08255525917071613,0.005141691014819476,0.1479495946282356,1.928313733457463,1.144716376371598,1.2617342109185494,1013.2361827284105,100.06908635794744,30.3815721254572,-4.734680129879973,40.385662746691494
0.7008760951188986,0.06337184932734202,0.030053230428284408,0.09484725709375136,0.08073961508007176,0.002947219942908675,0.14728084216833467,1.937985053593974,1.156821805750494,1.278831912844932,1013.2359824780976,100.07008760951189,30.3856072685835,-4.732510865893098,40.38759701071879
0.7108886107634543,0.0809640060781007,0.037016597105722276,0.09143963817703085,0.0788440911788556,0.0007470342873640374,0.1465188309829589,1.946966092294928,1.1687441020153397,1.2958790022252398,1013.2357822277847,100.07108886107635,30.389581367338447,-4.7304077661513695,40.389393218458984
0.7209011264080101,0.0978357219351898,0.04266535764577416,0.08721836319465674,0.07687056280533894,-0.0014545998484417212,0.1456640435801582,1.9552536506479925,1.1804813777818979,1.3128748043839433,1013.2355819774718,100.07209011264081,30.393493792593965,-4.72837135086286,40.3910507301296
0.7309136420525657,0.11383686754312652,0.046798902163815465,0.0822209942593263,0.07482098247158755,-0.0036534135525699073,0.14471702121419597,1.9628447767482158,1.1920317749559906,1.329818646675318,1013.2353817271589,100.07309136420525,30.39734392498533,-4.7264021237410425,40.392568955349645
0.7409261576971214,0.1288250601296162,0.04927043210413209,0.07649199938980675,0.0726973779317423,-0.005845143381826345,0.14367836354282498,1.9697367667494494,1.2033934650276503,1.3467098585100619,1013.235181476846,100.07409261576971,30.401131155009217,-4.724500571880193,40.39394735334989
0.7509386733416771,0.1426669304682012,0.04999217363870312,0.07008235682178049,0.07050185017585882,-0.00802553962846789,0.14254872824758222,1.9759271658274198,1.2145646493605844,1.3635477713818387,1013.2349812265331,100.07509386733416,30.404854883120194,-4.722667165634905,40.39518543316549
0.7609511889862328,0.15523930963580318,0.048938494863865395,0.06304910138891599,0.06823657135129088,-0.010190374560276485,0.14132883061734247,1.981413769054099,1.225543559476913,1.3803317188937343,1013.2347809762202,100.07609511889862,30.408514519825637,-4.720902358503752,40.39628275381082
0.7709637046307886,0.1664303250050434,0.046146816090845165,0.055454817010598005,0.06590378261367462,-0.01233545061802312,0.1400194430953953,1.9861946221830677,1.2363284573371316,1.3970610367846295,1013.2345807259073,100.07709637046308,30.412109485779045,-4.719206587017107,40.397238924436614
0.7809762202753442,0.17614039571889345,0.04171628090213181,0.04736707980230473,0.06350579190963929,-0.014456608554427156,0.13862139479033117,1.990268022345589,1.2469176356152534,1.4137350629554917,1013.2343804755945,100.07809762202753,30.415639211871753,-4.717580270629169,40.39805360446912
0.7909887359198999,0.18428311878963682,0.03580423516974989,0.038857856763994975,0.061044971693437956,-0.016549735498829855,0.1371355709510471,1.993632518657144,1.2573094179690942,1.430353137495578,1013.2341802252816,100.07909887359199,30.41910313932303,-4.716023811614207,40.39872650373143
0.8010012515644556,0.19078603793737628,0.028620639079453378,0.030002865397150125,0.058523756579757925,-0.018610772931944634,0.13556291240620405,1.996286912734216,1.2675021593056475,1.4469146027085524,1013.2339799749687,100.08010012515645,30.42250071976855,-4.71453759496706,40.39925738254684
0.8110137672090113,0.195591288326746,0.020420610612018133,0.020880899948779296,0.05594464093503243,-0.020635724555221627,0.13390441496849126,1.9982302591211363,1.277494246041513,1.463418803138516,1013.2337797246558,100.0811013767209,30.425831415347172,-4.713121988307904,40.39964605182423
0.8210262828535669,0.19865611146477466,0.011495365292178754,0.011573130277662855,0.05331017640963718,-0.022620664039567674,0.13216112880407396,1.9994618656268424,1.2872840963583418,1.4798650855959476,1013.233579474343,100.08210262828536,30.429094698786113,-4.71177734179132,40.39989237312537
0.8310387984981227,0.1999532356781911,0.0021618739706489257,0.00216237958172209,0.050622969413412315,-0.024561742638397527,0.13033415776762494,1.9999812935714245,1.296870160453246,1.4962527991835555,1013.23337922403,100.08310387984982,30.432290053484415,-4.710503988019687,40.39999625871428
0.8410513141426784,0.1994711187845762,-0.0072483940676047465,-0.00726761258649462,0.04788567853700901,-0.026455196650254278,0.12842465870335987,1.9997883579423807,1.3062509207841462,1.5125812953220379,1013.2331789737171,100.08410513141426,30.435416973594716,-4.709302241960904,40.399957671588474
0.851063829787234,0.19721405079800575,-0.016401242891978415,-0.01663293545831296,0.04510101192161021,-0.02829735471652974,0.12643384071251956,1.9988831274605094,1.3154248923100071,1.528849927775752,1013.2329787234042,100.08510638297872,30.438474964103335,-4.708172400870489,40.3997766254921
0.8610763454317898,0.1932021157552768,-0.024971618548843853,-0.025850253710963136,0.042271724579628474,-0.030084644940134377,0.1243629643877633,1.9972659245554374,1.3243906227259317,1.5450580526782907,1013.2327784730913,100.08610763454318,30.441463540908643,-4.707114744218047,40.39945318491109
0.8710888610763454,0.18747101300240168,-0.032655153016309404,-0.03483754900912715,0.039400615669032496,-0.03181360181131363,0.12221334101495704,1.994937325250772,1.3331466926930704,1.5612050285579633,1013.2325782227784,100.08710888610763,30.44438223089769,-4.706129533618147,40.398987465050155
0.8811013767209012,0.1800717395316118,-0.039178973519525255,-0.04351484982755702,0.03649052572399715,-0.03348087292718246,0.11998633174286286,1.991898158958933,1.341691716063313,1.5772902163631852,1013.2323779724655,100.08811013767209,30.447230572021105,-4.705217012765604,40.398379631791784
0.8911138923654568,0.17107013619552847,-0.044311393324882514,-0.05180494306058867,0.03354433384461893,-0.03508322549194801,0.11768334672125504,1.988149508185725,1.3500243400987257,1.5933129794877687,1013.2321777221526,100.08911138923655,30.45000811336624,-4.704377407375207,40.397629901637146
0.9011264080100125,0.1605463018364155,-0.04787013985458352,-0.05963406108645162,0.030564954848475125,-0.03661755258521768,0.11530584420800838,1.983692708144767,1.358143245685699,1.6092726837961182,1013.2319774718399,100.090112640801,30.452714415228566,-4.703610925125887,40.396738541628956
0.9111389236545683,0.14859388054376088,-0.04972882790860611,-0.06693253817267526,0.027555336386847002,-0.03808087918623766,0.11285532964572449,1.9785293462819096,1.3660471475437723,1.6251686976483268,1013.231777221527,100.09111389236546,30.455349049181258,-4.7029177556093416,40.39570586925638
0.9211514392991239,0.1353192283823735,-0.04982144810428536,-0.07363543038171069,0.024518456028458133,-0.03947036794238165,0.11033335470848041,1.9726612617098078,1.3737347944291043,1.6410003919251763,1013.231576971214,100.09211514392992,30.457911598143035,-4.702298070283144,40.39453225234196
0.9311639549436797,0.12084046700568339,-0.048144711131225225,-0.07968309346067137,0.02145731831361382,-0.04078332467070477,0.10774151631930334,1.9660905445528594,1.3812049693325523,1.6567671400530353,1013.2313767209012,100.09311639549436,30.460401656444184,-4.701752022428331,40.393218108910574
0.9411764705882353,0.10528643257547124,-0.04475816456775314,-0.0850217135729614,0.018374951781657038,-0.04201720358189463,0.10508145563899365,1.958819535202732,1.3884564896723344,1.6724683180286561,1013.2311764705883,100.09411764705882,30.46281882989078,-4.7012797471114895,40.39176390704055
0.951188986232791,0.08879552934083275,-0.039782078110301905,-0.0896037861491931,0.015274405974679831,-0.04316961221649168,0.10235485702693631,1.9508508234847513,1.3954882074812398,1.6881033044438736,1013.2309762202754,100.09511889862328,30.46516273582708,-4.700881361151345,40.39017016469695
0.9612015018773468,0.07151449807756854,-0.03339317231960945,-0.09338853859643785,0.012158748420456281,-0.04423831608380625,0.09956344697455881,1.9421872477354427,1.4022990095883612,1.7036714805101951,1013.2307759699625,100.09612015018773,30.46743300319612,-4.700556963089868,40.38843744954709
0.9712140175219024,0.05359711034676926,-0.025818342572893435,-0.09634229310442566,0.009031061597581288,-0.04522124299453864,0.09670899301211115,1.9328318937915596,1.4088878177953164,1.7191722300832941,1013.2305757196496,100.09712140175219,30.46962927259844,-4.700306633167898,40.38656637875831
0.9812265331664581,0.035202800191466335,-0.017326601109346355,-0.09843876632033706,0.00589443988581735,-0.04611648707870082,0.09379330258945937,1.9227880938909534,1.4152535890469362,1.7346049396873926,1013.2303754693366,100.09812265331665,30.47175119634898,-4.700130433305297,40.38455761877819
0.9912390488110138,0.01649524544689321,-0.008219523338862977,-0.09965930322559799,0.002751986504667339,-0.04692231248104928,0.09081822193160256,1.9120594254856795,1.4213953155963859,1.7499689985395435,1013.2301752190237,100.0991239048811,30.47379843853213,-4.700028407085635,40.382411885097135
1.0012515644555695,-0.002359088711727435,0.0011794622965384304,-0.09999304313357282,-0.00039318955679857985,-0.04763715672686371,0.08778563486963688,1.9006497099677626,1.4273120251647,1.7652637985737996,1013.2299749687108,100.10012515644556,30.4757706750549,-4.700000579745405,40.38012994199355
1.0112640801001251,-0.021192431023945232,0.010536560549114705,-0.09943701633106168,-0.0035379766158238958,-0.048259633751545246,0.08469746164790722,1.888563011308075,1.4330027810947004,1.7804887344652842,1013.229774718398,100.10112640801002,30.477667593698232,-4.700046958167781,40.37771260226162
1.0212765957446808,-0.03983719702076691,0.019519463758174593,-0.09799617050365872,-0.006679263374512101,-0.04878853658816014,0.08155565770810212,1.8758036346088076,1.438466682499276,1.7956432036541443,1013.2295744680852,100.10212765957446,30.479488894166426,-4.700167530880924,40.37516072692176
1.0312891113892366,-0.05812748023921441,0.027809153412739485,-0.09568332670982932,-0.009813941997992145,-0.04922283970771748,0.07836221245106155,1.8623761245700594,1.4437028644039993,1.810726606369399,1013.2293742177723,100.10312891113892,30.481234288134665,-4.700362268060807,40.37247522491401
1.0413016270337923,-0.07590052850550366,0.035111229763804555,-0.09251906529546387,-0.012938911189157066,-0.04956170100764355,0.07511914797708164,1.8482852638710825,1.4487104978840581,1.825738345652678,1013.2291739674594,100.10413016270338,30.482903499294686,-4.7006311215386,40.369657052774215
1.0513141426783479,-0.09299819215046212,0.04116636712674939,-0.08853154276407042,-0.016051079256935736,-0.04980446344459714,0.07182851780551357,1.8335360714667615,1.4534887901954805,1.8406778273818463,1013.2289737171465,100.10513141426783,30.484496263398494,-4.700974024812584,40.36670721429335
1.0613266583229037,-0.10926833127053655,0.04575952356464758,-0.08375624123214981,-0.019147367175060062,-0.049950656308459546,0.06849240557446867,1.8181338007999372,1.4580369849006314,1.855544460294519,1013.2287734668336,100.10613266583229,30.48601232830021,-4.701390893064601,40.36362676015999
1.0713391739674594,-0.12456616951218857,0.048727577880107745,-0.07823565269917021,-0.022224711628301853,-0.04999999613502945,0.06511292372145175,1.8020839379302098,1.4623543619879622,1.87033765601146,1013.2285732165207,100.10713391739675,30.487451453995988,-4.701881623181026,40.36041678758604
1.081351689612015,-0.13875558233331783,0.04996512269578366,-0.07201890094159634,-0.025280068043167143,-0.04995238725565271,0.06169221214575798,1.7853921995798834,1.4664402379859944,1.8850568290598702,1013.2283729662078,100.1081351689612,30.488813412661997,-4.702446093778285,40.35707843991597
1.0913642052565709,-0.15171030827838805,0.04942820788829328,-0.06516130439547016,-0.028310413600047588,-0.049807921982721375,0.058232436853482054,1.768064531097757,1.4702939660715164,1.8997013968965584,1013.2281727158949,100.10913642052566,30.490097988690504,-4.7030841652328705,40.35361290621955
1.1013767209011265,-0.16331507248898647,0.047135901431366534,-0.05772388391713845,-0.03131275022384922,-0.049566880430682435,0.05473578858599572,1.7501071043414786,1.4739149361719819,1.914270779930995,1013.227972465582,100.11013767209012,30.491304978723996,-4.70379567971588,40.350021420868295
1.1113892365456821,-0.17346661245250217,0.04316961221649168,-0.04977281980221085,-0.03428410755014138,-0.049229729972903015,0.051204481432762745,1.7315263154792218,1.477302575062087,1.9287644015482535,1013.227772215269,100.11113892365456,30.492434191687362,-4.7045804612320605,40.34630526309584
1.1214017521902377,-0.18207459686150984,0.03767019890038509,-0.041378862894353025,-0.037221545863889226,-0.04879712433544544,0.04764075142937,1.7123287827114648,1.4804563464545182,1.9431816881318293,1013.2275719649562,100.11214017521903,30.493485448818173,-4.705438315663331,40.342465756542296
1.1314142678347936,-0.18906242940759155,0.030832967455573637,-0.03261670502403434,-0.04012215900786335,-0.04826990232950928,0.04404685514166244,1.6925213439136875,1.4833757510848482,1.9575220690863424,1013.2273717146433,100.11314142678349,30.49445858369495,-4.706369030816807,40.338504268782735
1.1414267834793492,-0.19436793035720645,0.02290073508090508,-0.023564314379248122,-0.04298307725784882,-0.04764908622499803,0.040425068236878,1.6721110542008213,1.4860603267905743,1.9717849768601192,1013.2271714643305,100.11414267834793,30.495353442263525,-4.707372376477287,40.33442221084017
1.1514392991239049,-0.19794388984475317,0.014155206800023905,-0.01430224172226361,-0.045801470161810034,-0.04693587976836396,0.03677768404268719,1.6511051834143224,1.488509648584281,1.9859698469676559,1013.2269712140176,100.11514392991239,30.496169882861427,-4.70844810446419,40.330221036682865
1.1614518147684607,-0.1997584879594625,0.0049069709989959225,-0.004912903625894193,-0.04857454934020049,-0.046131665848574865,0.03310701209505025,1.62951121353276,1.49072332872092,2.000076118011959,1013.2267709637047,100.11614518147685,30.496907776240306,-4.70959594869295,40.325902242706555
1.1714643304130163,-0.19979557788806818,-0.004515530798790706,0.004520150892749438,-0.051299571244648456,-0.045238003815727845,0.029415376675811705,1.607336836006853,1.4927010167591919,2.0141032317067613,1013.2265707133918,100.1171464330413,30.497567005586397,-4.710815625240831,40.32146736720137
1.181476846057572,-0.19805482959377246,-0.0137776681934235,0.013912983815322941,-0.05397383987228965,-0.04425662645750961,0.025705115340956774,1.5845899490198816,1.4944423996170233,2.0280506328986214,1013.2263704630789,100.11814768460576,30.49814746653901,-4.712106832417154,40.316917989803976
1.1914893617021276,-0.19455173275300752,-0.022550505960805003,0.023182015026752736,-0.05659470943305948,-0.04318943663936571,0.021978577440463033,1.5612786546744792,1.4959472016211308,2.041917769588893,1013.226170212766,100.11914893617022,30.498649067207044,-4.713469250837926,40.31225573093489
1.2015018773466835,-0.18931745892386198,-0.030522485846718975,0.03224476603501661,-0.05915958696730812,-0.04203850361489347,0.01823812263068442,1.5374112561067785,1.4972151845506618,2.0557040929555708,1013.2259699624531,100.12015018773467,30.499071728183555,-4.714902543504835,40.30748225122136
1.211514392991239,-0.1823985841726382,-0.03741049123579371,0.04102059388836604,-0.061665934911147295,-0.040806059013612526,0.014486119380208828,1.5129962545289621,1.4982461476749063,2.0694090573750117,1013.2257697121402,100.12115143929913,30.4994153825583,-4.716406355888613,40.30259925090579
1.2215269086357947,-0.17385667462668586,-0.04296990174509789,0.0494314087593877,-0.06411127360699156,-0.039494492513892435,0.010724943470135589,1.488042346201256,1.499039927785074,2.0830321204435296,1013.2255694618273,100.12215269086357,30.49967997592836,-4.717980316016723,40.29760846924025
1.2315394242803506,-0.16376773864138447,-0.04700328066387957,0.057402368810631835,-0.06649318375680971,-0.038106347209428015,0.006956976489722795,1.4625584193344474,1.4995963992201315,2.0965727429988634,1013.2253692115144,100.12315394242803,30.49986546640671,-4.719624034565375,40.29251168386689
1.2415519399249062,-0.1522215504560476,-0.049367386714019884,0.06486254615869809,-0.06880930881565928,-0.036644314678246,0.0031846043283575527,1.4365535509240446,1.4999154738866958,2.1100303891415115,1013.2251689612015,100.1241551939925,30.499971824628897,-4.721337104955822,40.28731071018481
1.2515644555694618,-0.1393208513570523,-0.04997826111578375,0.0717455580108381,-0.07105735732313666,-0.03511122976380453,-0.0005897843351978031,1.4100370035171763,1.4999971012729785,2.1234045262559462,1013.2249687108886,100.12515644555694,30.49999903375766,-4.723119103454929,40.282007400703435
1.2615769712140175,-0.12518043545647448,-0.04881420929699215,0.0779901573580401,-0.07323510517043536,-0.03351006507830463,-0.0043637995453250965,1.3830182219134188,1.4998412684567857,2.136694625031689,1013.2247684605758,100.1261576971214,30.499947089485595,-4.7249695892799854,40.27660364438268
1.2715894868585733,-0.10992612822123111,-0.04591657135330124,0.08354077796844105,-0.07534039780077008,-0.031843925238871536,-0.008135051582877983,1.3555068298006916,1.4994480001075583,2.1499001594842615,1013.2245682102629,100.12715894868586,30.499816000035853,-4.726888104707735,40.271101365960135
1.281602002503129,-0.09369366684207192,-0.041388253897488556,0.08834802883155746,-0.07737115234098929,-0.03011604084778229,-0.011901152478360174,1.3275126263274515,1.498817358482472,2.1630206069760023,1013.22436795995,100.1281602002503,30.499605786160824,-4.728874175187592,40.26550252526549
1.2916145181476846,-0.07662749240521492,-0.03539007543759911,0.0923691336536301,-0.07932535966226785,-0.02832976222841059,-0.01565971752399602,1.2990455826123715,1.497949443416578,2.17605544823675,1013.2241677096371,100.12916145181477,30.49931648113886,-4.730927309459025,40.259809116522476
1.3016270337922404,-0.05887946461422877,-0.028135055074064486,0.09556831149332633,-0.08120108636784039,-0.026488552929036333,-0.019408366783735597,1.2701158381927857,1.496844392307,2.189004167384396,1013.2239674593242,100.13016270337923,30.498948130769,-4.733046999673071,40.25402316763856
1.311639549436796,-0.040607510498938675,-0.019880847346807222,0.09791709515079401,-0.08299647670580873,-0.024595983007114616,-0.023144726600237604,1.2407336974131322,1.495502380091183,2.2018662519453,1013.2237672090113,100.13116395494367,30.49850079336373,-4.7352327215179555,40.24814673948263
1.3216520650813517,-0.021974219135522246,-0.010920591900903642,0.09939458447695232,-0.08470975440513237,-0.022655722107025867,-0.026866431097877803,1.210909625754701,1.4939236192191998,2.214641192874576,1013.2235669586984,100.13216520650813,30.497974539739733,-4.737483934348778,40.24218192515094
1.3316645807259073,-0.0031453948823867693,-0.0015725029354625463,0.09998763234899838,-0.08633922443298336,-0.020671532344730226,-0.030571123680829385,1.180654246107982,1.4921083596201168,2.227328484576234,1013.2233667083855,100.1331664580726,30.497369453206705,-4.739800081321246,40.236130849221595
1.3416770963704632,0.015711417994457386,0.007831431844333802,0.0996909616572679,-0.08788327467172859,-0.018647261013121103,-0.03425645852526709,1.1499783349889543,1.4900568886624306,2.239927624923192,1013.2231664580726,100.13416770963704,30.496685629554143,-4.742180589529413,40.22999566699779
1.3516896120150188,0.0344284261782151,0.016957241427000613,0.09850721226246735,-0.08934037751387991,-0.01658683312222371,-0.03792010206475078,1.1188928187006486,1.4877695311085752,2.2524381152771507,1013.2229662077597,100.1351689612015,30.495923177036193,-4.744624870147382,40.22377856374013
1.3617021276595744,0.052839080374257136,0.025480832129595832,0.09644691750543768,-0.09070909137343407,-0.014494243788701245,-0.04155973446784782,1.0874087694413617,1.4852466490635092,2.2648594605083243,1013.2227659574468,100.13617021276596,30.495082216354504,-4.747132318574961,40.21748175388827
1.3717146433041303,0.07077955731339874,0.03309949744946098,0.09352841047847348,-0.09198806211210683,-0.01237355048942648,-0.045173051107058236,1.055537401360902,1.4824886419173913,2.2771911690150417,1013.2225657071339,100.13717146433041,30.49416288063913,-4.74970231458721,40.21110748027218
1.381727158948686,0.08809021749822576,0.039542668372389005,0.08977766089222206,-0.09317602437905115,-0.010228865194138926,-0.048757764018112014,1.0232900665662796,1.4794959462823558,2.289432752743196,1013.2223654568211,100.13817271589487,30.49316531542745,-4.7523342224878515,40.20465801331326
1.3917396745932415,0.10461702572102499,0.04458152235115033,0.08522804398976665,-0.09427180286273312,-0.00806434639244072,-0.05231160334871644,0.9906782510782541,1.4762690359233923,2.301583727205566,1013.2221652065082,100.13917396745933,30.49208967864113,-4.755027391266521,40.19813565021565
1.4017521902377972,0.12021292171313763,0.04803710970144657,0.07992004356416332,-0.09527431345372739,-0.005884191030592765,-0.05583231879583384,0.9577135707401809,1.4728084216833466,2.313643611500988,1013.2219649561953,100.14017521902377,30.490936140561114,-4.757781154759785,40.191542714148035
1.411764705882353,0.1347391287293116,0.04978670881475174,0.07390089172206586,-0.09618256431728191,-0.0036926263737437,-0.059317681030581396,0.9244077670806264,1.4691146514020488,2.3256119283333896,1013.2217647058824,100.14117647058823,30.489704883800684,-4.760594831815928,40.184881553416126
1.4217772215269087,0.1480663884228891,0.04976818448923323,0.06722414859892638,-0.09699565687459048,-0.001493901809371601,-0.0627654831098491,0.8907727031312068,1.465188309829589,2.3374882040306795,1013.2215644555695,100.1421777221527,30.48839610327653,-4.763467726463433,40.17815454062624
1.4317897371714643,0.16007611102356534,0.04798219459714096,0.05994922576558266,-0.09771278669180244,0.0007077193921689605,-0.06617354187374416,0.8568203592011544,1.4610300185337441,2.349271968563493,1013.2213642052566,100.14317897371714,30.487010006177915,-4.766399128083132,40.17136407184023
1.4418022528160201,0.17066143058309663,0.044492166721154754,0.0521408575671011,-0.09833324427589021,0.002907968344018654,-0.06953969932797514,0.8225628286101057,1.456640435801582,2.3609627555637958,1013.2211639549437,100.1441802252816,30.48554681193386,-4.769388311583983,40.16451256572202
1.4518147684605758,0.17972815589908725,0.03942204558942783,0.04386852509805118,-0.09885641577658662,0.005102578820074723,-0.07286182401030067,0.7880123133806498,1.4520202565352485,2.372560102343341,1013.2209637046308,100.14518147684606,30.484006752178416,-4.772434537582418,40.15760246267613
1.4618272841051314,0.18719560865526186,0.03295189130683742,0.03520583793984334,-0.09928178359369838,0.007287295527094027,-0.07613781234017918,0.7531811198921382,1.4471702121419598,2.384063549911981,1013.2207634543179,100.14618272841051,30.482390070713986,-4.775537052585237,40.15063622397843
1.471839799749687,0.19299734132020874,0.025311484706706334,0.026229879161611003,-0.09960892688919427,0.009457882355597092,-0.07936558995076277,0.7180816544973454,1.4420910704182153,2.395472642995834,1013.220563204005,100.14718397997497,30.48069702347274,-4.778695089175985,40.14361633089947
1.481852315394243,0.19708172841652835,0.016772166922309387,0.017020519413003872,-0.09983752200356158,0.01161013059357518,-0.08254311300239368,0.6827264191035025,1.43678363542825,2.4067869300553006,1013.2203629536921,100.14818523153943,30.47892787847608,-4.781907866204773,40.1365452838207
1.4918648310387985,0.19941242589910335,0.007637202987339921,0.007659706212294027,-0.09996734277601889,0.013739867087074751,-0.08566836947676983,0.6471280067193137,1.4312487473767461,2.418005963302935,1013.2201627033792,100.14918648310388,30.47708291579225,-4.7851745889815005,40.12942560134386
1.5018773466833542,0.19996869455481248,-0.0017689883079118546,-0.0017692652460927737,-0.09999826076826857,0.015842962331835547,-0.08873938045096212,0.6112990969695025,1.4254872824758222,2.429129298721169,1013.2199624530664,100.15018773466834,30.47516242749194,-4.788494449472424,40.1222598193939
1.51188986232791,0.19874558454598265,-0.011112355814150921,-0.011182493276050535,-0.09993024539156732,0.01791533848029312,-0.09175420135047514,0.575252451578527,1.4195001528063214,2.440156496079882,1013.2197622027535,100.1511889862328,30.47316671760211,-4.791866626500023,40.1150504903157
1.5219023779724656,0.19575397945546158,-0.02006107950393159,-0.020496216281003822,-0.09976336393698904,0.0199529772484203,-0.0947109231805577,0.53900090982504,1.413288306173425,2.451087118953826,1013.2195619524406,100.15219023779724,30.471096102057807,-4.795290285946128,40.10780018196501
1.5319148936170213,0.1910204994413825,-0.028297354716529773,-0.029627558088563422,-0.09949778150885041,0.02195192770707651,-0.09760767373498534,0.5025573839687297,1.4068527259566055,2.4619207347398993,1013.2193617021277,100.1531914893617,30.4689509086522,-4.798764580958233,40.10051147679375
1.5419274092615771,0.18458726436338066,-0.03552867866156842,-0.03849526540642181,-0.09913376086136487,0.0239083139427579,-0.10044261878154742,0.4659348546511625,1.400194430953953,2.472656914674263,1013.2191614518148,100.15419274092616,30.466731476984652,-4.8022886521589765,40.09318697093023
1.5519399249061328,0.17651151898802958,-0.04149823835290439,-0.04702043083739896,-0.09867166213868643,0.025818342572893505,-0.10321396322348891,0.42914636627227637,1.3933144752208912,2.4832952338493155,1013.2189612015019,100.15519399249061,30.464438158406963,-4.805861627858702,40.085829273254454
1.5619524405506884,0.16686512360852723,-0.0459940310560534,-0.05512719502004191,-0.09811194251860064,0.027678310101116793,-0.10591995223617218,0.392205022344157,1.386213947903312,2.4938352712305067,1013.218760951189,100.15619524405507,30.46207131596777,-4.809482624271082,40.07844100446883
1.571964956195244,0.15573391461124497,-0.0488563933459012,-0.06274342164692938,-0.09745515576021552,0.029484610098249788,-0.10855887237823743,0.35512398082375946,1.378893973065157,2.5042766096730014,1013.2185607008761,100.15719649561953,30.45963132435505,-4.813150745731717,40.07102479616475
1.5819774718397999,0.14321694067899957,-0.049983671388009444,-0.06980133935417702,-0.09670195165609931,0.03123374019507625,-0.11112905267655974,0.31791644942624486,1.371355709510471,2.5146188359381885,1013.2183604505632,100.15819774718398,30.457118569836823,-4.816865084919686,40.06358328988525
1.5919899874843555,0.12942558142753163,-0.049335831069343195,-0.07623814477042544,-0.0958530753894078,0.03292230887334562,-0.11362886568431489,0.2805956809205853,1.363600350599953,2.524861540710037,1013.2181602002503,100.15919899874844,30.454533450199985,-4.820624723081973,40.056119136184115
1.6020025031289111,0.11448255631781351,-0.04693587976836397,-0.08199656135920985,-0.09490936679663654,0.03454704204183961,-0.11605672851148394,0.2431749684091265,1.3556291240620406,2.535004318611295,1013.2179599499374,100.1602002503129,30.451876374687348,-4.824428730260726,40.04863499368182
1.612015018773467,0.09852083266316888,-0.042869049271793774,-0.08702534908197133,-0.09387175953672793,0.03610478938475081,-0.11841110382714501,0.20566764059277812,1.3474432917985508,2.5450467682195312,1013.2177596996245,100.16120150187734,30.44914776393285,-4.828276165523279,40.04113352811856
1.6220275344180226,0.08168244244807253,-0.03727976885591743,-0.09127976034658138,-0.09274128016735488,0.03759253047006402,-0.12069050083291581,0.1680870570235387,1.3390441496849126,2.554988492083026,1013.2175594493117,100.1622027534418,30.446348049894972,-4.832166077194903,40.033617411404705
1.6320400500625782,0.06411721848690857,-0.030366536030305924,-0.09472193818422166,-0.09151904712929514,0.03900738060609612,-0.12289347620693265,0.1304466033460096,1.3304330273650198,2.5648290967364993,1013.2173591989988,100.16320400500626,30.44347767578834,-4.836097503094195,40.0260893206692
1.6420525657071339,0.045981461168715015,-0.02237486710419133,-0.0973212531115249,-0.09020626963990075,0.04034659643483917,-0.12501863501776664,0.09275968652963815,1.3216112880407398,2.5745681927166837,1013.2171589486859,100.16420525657071,30.44053709601358,-4.8400694707710885,40.01855193730593
1.6520650813516897,0.027436547651596307,-0.013588577928831044,-0.09905457568048243,-0.0888042464967578,0.04160758125126085,-0.1270646316076986,0.05503973009334588,1.312580328256109,2.5842053945777352,1013.216958698373,100.16520650813517,30.43752677608537,-4.844080997747382,40.01100794601867
1.6620775969962454,0.008647495882595703,-0.0043197044712755045,-0.09990648229089105,-0.08731436479272024,0.04278789003824867,-0.12903017044479448,0.017300169324281495,1.3033415776762496,2.593740320906492,1013.2167584480601,100.16620775969963,30.43444719255875,-4.848131091759763,40.003460033864854
1.672090112640801,-0.010218503779220992,0.005102578820074676,-0.09986939243396104,-0.08573809854358767,0.04388523420743548,-0.13091400694324043,-0.020445553507640976,1.2938964988610437,2.6031725943375696,1013.2165581977472,100.16720901126408,30.431298832953683,-4.852218751005246,39.99591088929847
1.6821026282853568,-0.028993576270418986,0.014343649305336797,-0.0989436361458525,-0.08407700722978693,0.04489748603671318,-0.13271494825141875,-0.05818399393766884,1.2842465870335986,2.6125018415682923,1013.2163579474343,100.16821026282854,30.428082195677867,-4.856342964388973,39.988363201212465
1.6921151439299125,-0.047510655623545096,0.023075319929897017,-0.09713745107091924,-0.08233273425349884,0.04582268279583124,-0.13443185400722535,-0.09590171009493346,1.2743933698435446,2.621727693373471,1013.2161576971214,100.169211514393,30.42479778994785,-4.8605027117743065,39.980819657981016
1.702127659574468,-0.06560497156791366,0.030987494448012173,-0.09446690916079192,-0.08050700531275634,0.04665903055208012,-0.1360636370601511,-0.1335852674902429,1.2643384071251957,2.6308497846200143,1013.2159574468085,100.17021276595744,30.421446135708397,-4.864696964235169,39.97328294650195
1.7121401752190237,-0.08311551570262216,0.03779918017005508,-0.09095577366155373,-0.07860162669412389,0.0474049076486807,-0.13760926415966912,-0.17122124380124965,1.2540832906506163,2.6398677542813798,1013.2157571964956,100.1712140175219,30.418027763550207,-4.8689246843105485,39.96575575123975
1.7221526908635796,-0.09988647419537541,0.043268467127085056,-0.08663528766157674,-0.07661848348564626,0.048058867849134976,-0.1390677566094926,-0.20879623365328118,1.243629643877633,2.6487812454518633,1013.2155569461827,100.17221526908635,30.414543214625876,-4.873184826261115,39.958240753269344
1.7321652065081352,-0.11576861425854859,0.0472011192530392,-0.08154389608158201,-0.07455953771183486,0.048619643141441383,-0.14043819088728837,-0.2462968533941288,1.2329791216928307,2.657589905360723,1013.2153566958698,100.17321652065081,30.41099304056428,-4.8774763363278915,39.950740629321174
1.7421777221526908,-0.13062061206523762,0.04945747247760307,-0.0757269035807333,-0.07242682639253717,0.04908614619673761,-0.1417196992294545,-0.28370974586111686,1.2221334101495704,2.666293385386141,1013.215156445557,100.17421777221527,30.40737780338319,-4.881798152992903,39.94325805082778
1.7521902377972467,-0.1443103102891083,0.04995739475112743,-0.06923607142281633,-0.07022245952760905,0.0494574724776031,-0.1429114701805911,-0.3210215851387156,1.2110942262010758,2.6748913410690225,1013.2149561952441,100.17521902377972,30.40369807540036,-4.886149207241744,39.935795682972255
1.7622027534418023,-0.15671589407810102,0.048683131851442255,-0.06212915688970322,-0.06794861800938483,0.04973290199193389,-0.14401274910731662,-0.35821908130503827,1.1998633174286286,2.683383432126626,1013.2147559449312,100.17622027534418,30.399954439142878,-4.890528422828009,39.92835618373899
1.772215269086358,-0.16772697499784453,0.04567993790668326,-0.0544693993405298,-0.06560755146500936,0.049911900688988875,-0.14502283867610435,-0.395288985165512,1.1884424617649112,2.691769322466034,1013.2145556946183,100.17722152690864,30.39614748725497,-4.894934716539494,39.9209422029669
1.7822277847309136,-0.17724557329953006,0.04105446824176501,-0.0463249574897833,-0.06320157603076734,0.049994121494900276,-0.14594109929483604,-0.43221809297204694,1.1768334672125504,2.7000486801974515,1013.2143554443054,100.17822277847308,30.392277822404182,-4.899366998466143,39.91355638140559
1.7922403003754694,-0.1851869897717533,0.03497099162489504,-0.03776830291155711,-0.06073307206061171,0.049979404985641074,-0.14676694951779426,-0.4689932511260099,1.165038171557895,2.708221177647342,1013.2141551939925,100.17922403003755,30.388346057185966,-4.903824172269638,39.9062013497748
1.802252816020025,-0.19148055941833408,0.02764555643227445,-0.028875575166747117,-0.0582044817711589,0.049867779696144046,-0.1474998664138353,-0.5056013608633437,1.1530584420800838,2.716286491371398,1013.2139549436796,100.180225281602,30.384352814026695,-4.908305135454575,39.89887972782733
1.8122653316645807,-0.19607028025567252,0.019338317913607527,-0.01972590429145169,-0.05561830682547884,0.04965946206497329,-0.14813938589751133,-0.5420293829201503,1.1408961752554398,2.724244302167338,1013.2137546933667,100.18122653316645,30.380298725085147,-4.912808779641178,39.89159412341597
1.8222778473091366,-0.19891531163442444,0.010344299047645231,-0.010400706675267362,-0.052977105858072665,0.049354856014655384,-0.14868510302293064,-0.5782643421770871,1.128553296457245,2.7320942950875446,1013.2135544430538,100.18222778473091,30.376184432152414,-4.917333990839459,39.88434713156458
1.8322903629536922,-0.19999033765128515,0.0009829131064183325,-0.0009829605949585396,-0.05028349194348593,0.04895455216848402,-0.1491366722401708,-0.6142933322809012,1.1160317596509415,2.7398361594515253,1013.2133541927409,100.18322903629537,30.372010586550314,-4.921879649724759,39.87714133354382
1.8423028785982478,-0.19928579241714145,-0.008413379976557011,0.008443532149995192,-0.04754013001106001,0.04845932670531664,-0.14949380761408204,-0.6501035202414935,1.1033335470848042,2.7474695888582086,1013.213153942428,100.18423028785982,30.36777784902827,-4.926444631914626,39.8699792959517
1.8523153942428034,-0.19680794517709013,-0.017510880576750855,0.01779489192978907,-0.04474973420838241,0.04787013985458356,-0.14975628300534236,-0.6856821510028275,1.0904606689761351,2.7549942811980737,1013.2129536921151,100.18523153942428,30.363486889658713,-4.931027808246927,39.86286356979944
1.8623279098873593,-0.1925788445249009,-0.02598650037543638,0.026987907669241702,-0.04191506521604249,0.04718813403442785,-0.14992393221364964,-0.7210165519860994,1.0774151631930335,2.7624099386651046,1013.2127534418023,100.18623279098874,30.35913838773101,-4.9356280450591585,39.85579668960278
1.872340425531915,-0.18663612220832054,-0.033539236506961154,0.03594077728375126,-0.03903892751634952,0.04641463163658607,-0.14999664908296034,-0.756094137603512,1.0641990949317872,2.7697162677685756,1013.2125531914894,100.18723404255319,30.354733031643928,-4.940244204468849,39.8487811724793
1.8823529411764706,-0.17903265827101256,-0.039900861364011914,0.04457383557765373,-0.03612416661871531,0.045551132462304425,-0.14997438756870793,-0.7909024137410844,1.0508145563899367,2.7769129793446687,1013.2123529411765,100.18823529411765,30.350271518796646,-4.944875144655029,39.841819517251785
1.8923654568210264,-0.16983611051079717,-0.04484544842349594,0.052810263127928775,-0.03317366624444742,0.044599310814263014,-0.1498571617669581,-0.825428982208865,1.0372636664350636,2.7839997885679177,1013.2121526908636,100.1892365456821,30.345754555478354,-4.949519720140657,39.83491420355823
1.902377972465582,-0.15912831244120762,-0.04819739579319488,0.060576769845406546,-0.030190345473736686,0.043561012250145886,-0.14964504590548353,-0.8596615451569763,1.0235485702693632,2.7909764149624796,1013.2119524405507,100.19023779724655,30.341182856756454,-4.954176782075961,39.8280676909686
1.9123904881101377,-0.14700454511346822,-0.04983766253123586,0.06780424713095466,-0.027177155857662335,0.0424382500041522,-0.14933817429676233,-0.8935879094559381,1.0096714390900383,2.7978425824132365,1013.2117521902378,100.19123904881101,30.336557146363347,-4.958845178522605,39.821282418108815
1.9224030037546935,-0.1335726892784378,-0.049707996261944803,0.07442838282356724,-0.02413707849807278,0.04123320108338696,-0.14893674125293113,-0.9271959910396685,0.9956344697455881,2.8045980191767224,1013.2115519399249,100.19224030037547,30.331878156581862,-4.963523754738631,39.81456080179207
1.9324155193992492,-0.11895226543281819,-0.04781300194868278,0.08039023346837659,-0.02107312109822959,0.03994820204670017,-0.14844100096274568,-0.9604738192096531,0.981439884388029,2.811242457891878,1013.211351689612,100.19324155193992,30.32714662812934,-4.968211353464082,39.80790523615807
1.9424280350438048,-0.10327337029157374,-0.04421997835333766,0.0856367488123812,-0.01798831498713332,0.03858574447415942,-0.14785126733062806,-0.9934095408987281,0.9670899301211116,2.8177756355906327,1013.2111514392991,100.19424280350438,30.32236331004037,-4.972906815207256,39.80131809182026
1.9524405506883604,-0.08667551915013717,-0.039056527990444595,0.09012124386077652,-0.014885712120476036,0.03714847013594022,-0.14716791377790095,-1.0259914248929691,0.9525868786445892,2.824197293708313,1013.2109511889862,100.19524405506884,30.317528959548195,-4.977608978531511,39.79480171502141
1.9624530663329163,-0.06930640443738542,-0.03250602545593835,0.0938038142933985,-0.01176838206118553,0.03563916587000161,-0.1463913730063363,-1.058207866010171,0.9379330258945937,2.8305071780938724,1013.2107509386733,100.19624530663329,30.312644341964866,-4.982316680342548,39.78835842679796
1.972465581977472,-0.05132058150614807,-0.024801105068155353,0.09665169154478212,-0.008639408942551089,0.034060758178479054,-0.14552213672416695,-1.0900473892334435,0.9231306916801671,2.8367050390199537,1013.2105506883604,100.19724655819775,30.307710230560055,-4.987028756176106,39.781990522153315
1.9824780976220275,-0.03287809335545191,-0.016215399100773287,0.09863953438823375,-0.005501888416933206,0.032416307553272114,-0.1445607553347354,-1.1214986537984402,0.9081822193160257,2.8427906311927718,1013.2103504380476,100.19824780976221,30.302727406438674,-4.991744040485998,39.77570026924031
1.9924906132665834,-0.01414304652211898,-0.007053820015795658,0.09974965442931766,-0.0023589245930768703,0.030709002541829396,-0.14350783758797642,-1.1525504572327738,0.8930899752515911,2.848763713761819,1013.2101501877347,100.19924906132665,30.2976966584172,-4.996461366932409,39.769489908553446
2.002503128911139,0.004717849186153721,0.0023582681869780677,0.09997217350225102,0.0007863730349406715,0.028942153564637113,-0.1423640501949548,-1.1831917393461624,0.8778563486963689,2.8546240503294,1013.2099499374218,100.20025031289111,30.29261878289879,-5.001179568670396,39.76336165213077
2.0125156445556946,0.02353676412237086,0.011686604935685152,0.09930511156864971,0.0039308926640909325,0.027119186496398925,-0.14113011740570136,-1.213411586169914,0.8624837512417157,2.860371408959988,1013.2097496871089,100.20125156445557,30.28749458374724,-5.005897478638509,39.757317682766015
2.0225281602002503,0.04214624219645882,0.020599904004678538,0.09775440433647664,0.0070715232610595695,0.02524363602335311,-0.13980682055061563,-1.2431992338443112,0.8469746164790721,2.8660055621894007,1013.209549436796,100.20225281602002,30.28232487215969,-5.010613929847472,39.75136015323114
2.032540675844806,0.060380690947472865,0.028781618801979797,0.09533385044241341,0.01020515764014936,0.02331913878960663,-0.13839499754572465,-1.2725440724525452,0.8313313996147025,2.871526287033808,1013.2093491864831,100.20325406758448,30.277110466538232,-5.015327755668832,39.74549118550949
2.0425531914893615,0.07807785503269837,0.03594118419389625,0.09206498866764301,0.013328695537377777,0.02134942634577618,-0.13689554236211168,-1.3014356497998039,0.8155565770810213,2.876933364998552,1013.2091489361702,100.20425531914894,30.271852192360342,-5.020037790123537,39.73971287004004
