Timestamp,Acc x (m/s^2),Acc y (m/s^2),Acc z (m/s^2),Gyro x (rad/s),Gyro y (rad/s),Gyro z (rad/s),Beccheggio/Pitch (rad/s),Rollio/Roll (rad/s),Imbardata/Yaw (rad/s),Mag x (microTesla),Mag y (microTesla),Mag z (microTesla),Altitudine (m),Pressione (milliBar)
0.0280869140625,-0.1499284033998847,-0.0026515374220907,0.0024064766198396,0.0289835296571254,-0.0537708699703216,-0.0528197325766086,0.0847155544276914,0.072573226913391,2.332088264610875,-15.57590103149414,-17.265670776367188,-33.604766845703125,-0.031707763671875,1013.6824035644532
0.03815625,-0.1666835772372782,0.0010961246736347,0.06182488027215,0.023038288578391,-0.0391304083168506,-0.0602369047701358,0.0849000062309087,0.0721286556889451,2.3315015616896027,-15.58273696899414,-17.41131591796875,-34.005401611328125,-0.031707763671875,1013.6824035644532
0.048224853515625,-0.1697138848438859,0.0196031836796551,0.2094002908051014,0.0009398264810442,-0.0213308315724134,-0.069550059735775,0.0849104118636827,0.0718562087519371,2.3308334919162306,-15.668399810791016,-17.86761474609375,-34.259246826171875,-0.031707763671875,1013.6824035644532
0.058294189453125,-0.1293006259128451,-0.0033128508750349,0.2769166607171296,-0.0294335260987281,-0.0097359614446759,-0.0760425850749015,0.0846325653234737,0.0717151907752222,2.330105103486669,-15.698637008666992,-18.58216094970703,-34.567413330078125,-0.031707763671875,1013.6824035644532
0.068362060546875,-0.0686489541385322,-0.0706448041308671,0.253773101016879,-0.0528331100940704,-0.0135688968002796,-0.0793495029211044,0.0841124167946819,0.0716149439502449,2.3293518189304128,-15.710233688354492,-18.914535522460938,-34.348541259765625,-0.031707763671875,1013.6824035644532
0.07843115234375,-0.0394255630679428,-0.0969834335453808,0.2277098544776439,-0.0713378190994262,-0.027205878868699,-0.0787220671772956,0.0834078018330032,0.0714066223843619,2.328607364287067,-15.89909553527832,-18.947433471679688,-34.287994384765625,-0.031707763671875,1013.6824035644532
0.088500244140625,0.0182017193838953,-0.0800330293968319,0.1686006629049778,-0.081264816224575,-0.0387477278709411,-0.0700021386146545,0.0825852147000283,0.0710776541006206,2.327912253077489,-15.653858184814451,-18.750511169433597,-34.489898681640625,-0.031707763671875,1013.6824035644532
0.098568115234375,0.0641143794488161,-0.0533257858656346,0.0743020845293998,-0.0903224945068359,-0.0428101122379303,-0.0570016503334045,0.0816739253289634,0.0706605764579035,2.3273373997892537,-15.717903137207031,-18.632164001464844,-34.330291748046875,-0.031707763671875,1013.6824035644532
0.108637451171875,0.070228551480174,-0.0280349119383841,0.0206441440999507,-0.0767830163240432,-0.0292089246213436,-0.0494640506803989,0.080786210926653,0.0702892933569223,2.32685956673379,-15.6807861328125,-18.343727111816406,-34.315277099609375,-0.031707763671875,1013.6824035644532
0.1187060546875,0.0820598590493202,-0.0280270208928734,-0.0477758966535329,-0.0562580339610576,-0.0178558677434921,-0.0380292385816574,0.080098147080946,0.0700388427994674,2.32646718026185,-15.758184432983398,-18.251220703125,-34.478973388671875,-0.031707763671875,1013.6824035644532
0.128775146484375,0.0940249490659684,-0.0075137366309761,-0.0580862782657146,-0.033682681620121,-0.0104885306209325,-0.022660844027996,0.0796402378484667,0.0698834311546369,2.326198466672092,-15.293052673339844,-18.005149841308594,-34.487945556640625,-0.031707763671875,1013.6824035644532
0.13884326171875,0.092854809308052,-0.0051388241931796,-0.035158991664648,-0.019625985994935,-0.0232250969856977,-0.014848462305963,0.079378047805123,0.0696950662565418,2.326030237866882,-15.42483901977539,-18.18519592285156,-34.520721435546875,-0.031707763671875,1013.6824035644532
0.148911376953125,0.1180635579098016,-0.0188799109064042,-0.0012134674429893,-0.0143471173942089,-0.0269218869507312,-0.0058751683682203,0.0792428981194379,0.0694416761281554,2.325953169462136,-15.363121032714844,-18.362403869628903,-34.441986083984375,-0.031707763671875,1013.6824035644532
0.158980224609375,0.1125134495019912,0.0146174311563372,0.0623679011076688,-0.020382372662425,-0.0245596636086702,-0.0047246827743947,0.079102938771527,0.06918145259796,2.3259118850075566,-15.48931884765625,-18.14839172363281,-34.631866455078125,-0.031707763671875,1013.6824035644532
0.169049560546875,0.0813153242923319,0.0338407486729323,0.082709262868762,-0.0298217646777629,-0.0181951690465211,-0.0084017924964427,0.078895774569179,0.0689883940243056,2.325866977253769,-15.299962997436523,-18.1317138671875,-34.547698974609375,-0.031707763671875,1013.6824035644532
0.1791171875,0.0811614489048719,0.0412746980659663,0.0740729519486427,-0.0361813940107822,-0.0217808485031127,-0.0035569700412452,0.0786000594993524,0.0688184510311955,2.3258300019595497,-15.398796081542969,-18.1829833984375,-34.406280517578125,-0.031707763671875,1013.6824035644532
0.1891865234375,0.1031415908489376,0.0205859111066907,0.043355742123723,-0.037986185401678,-0.0206896476447582,0.0006403820589184,0.0782440495471275,0.0686187708493287,2.325839893841005,-15.18167495727539,-18.39009094238281,-34.351165771484375,-0.031707763671875,1013.6824035644532
0.19925537109375,0.09489610587731,-0.0074416212428361,0.0319675021469593,-0.0499323271214962,-0.0153460148721933,-0.0022390277590602,0.0778108679290027,0.0684646174726878,2.3258685729217747,-15.043325424194336,-18.02764892578125,-34.647430419921875,-0.031707763671875,1013.6824035644532
0.20932421875,0.085909520214796,0.0106309918686747,0.0638426498353481,-0.0549115538597106,-0.0060870428569614,0.0004688701592385,0.0772717718615117,0.0684012367411955,2.3259003219221963,-15.23777198791504,-18.263648986816406,-34.027130126953125,-0.031707763671875,1013.6824035644532
0.219392333984375,0.0967476520281285,0.0167489632923156,0.0275906022369861,-0.0459111332893371,-0.005585303530097,0.0054633622057735,0.0767496766008259,0.0683765531581106,2.325980576745225,-15.479949951171877,-18.26069641113281,-34.203094482421875,-0.031707763671875,1013.6824035644532
0.22946142578125,0.1050048274375498,0.0142828654397279,-0.0228232417047023,-0.0269235633313655,-0.0147954765707254,0.0131254866719245,0.0763903407360478,0.0683105359334708,2.326109435400442,-15.439531326293944,-18.224937438964844,-34.594146728515625,-0.031707763671875,1013.6824035644532
0.239530517578125,0.1288711484543979,0.0087515347976237,-0.0733802935093641,-0.0056251976639032,-0.0068171778693795,0.0151713266968727,0.0762378411951998,0.0682254595662748,2.3262663687461167,-15.503807067871094,-18.10772705078125,-34.207489013671875,-0.031707763671875,1013.6824035644532
0.249599365234375,0.1272404785126447,0.0185172150738537,-0.066071431800723,0.0042868051677942,0.0050693908706307,0.0224054306745529,0.0762571635847196,0.0682393314393978,2.326456653359957,-15.51646614074707,-18.228500366210938,-34.528411865234375,-0.031707763671875,1013.6824035644532
0.25966748046875,0.0970556219987571,0.0235552092410624,-0.0302349792659282,-0.003439825028181,0.0123020038008689,0.0166386216878891,0.0762673848889987,0.0683424510764078,2.3266607937716763,-15.261796951293944,-18.24720001220703,-34.280914306640625,-0.031707763671875,1013.6824035644532
0.269736328125,0.0924112302590161,0.0121790980935096,-0.0118120183467864,-0.0203722342848777,-0.0031753608491271,0.0170081481337547,0.0761751897911316,0.0684192422682312,2.3268496562553915,-15.227981567382812,-17.967872619628906,-34.532623291015625,-0.031707763671875,1013.6824035644532
0.279805419921875,0.0615401450466364,0.0243309428539127,0.004481529328227,-0.0360161773860454,-0.021871019154787,0.0051775882020592,0.0759029229324195,0.0682997894713857,2.32698402591689,-15.224807739257812,-17.90790557861328,-34.671844482421875,-0.031707763671875,1013.6824035644532
0.289873291015625,0.0424566743921488,0.0038050913713872,0.0284632934182882,-0.0476263277232646,-0.0323519743978977,-0.0076543353497982,0.0754718409938383,0.0680449633612103,2.327001753682344,-15.334077835083008,-17.875953674316406,-34.400604248046875,-0.031707763671875,1013.6824035644532
0.2999423828125,0.0126774030044674,-0.0100983462966978,0.0115402156680822,-0.0462268367409706,-0.037109974771738,-0.0153918843716382,0.0749834856777374,0.0677051747160976,2.326921602787003,-15.174541473388672,-17.949813842773438,-34.223236083984375,-0.031707763671875,1013.6824035644532
0.31001123046875,-1.5270634368e-05,-0.0166475487444549,0.0286795665174722,-0.0449176095426082,-0.0263836719095706,-0.024887453764677,0.0745127015180872,0.0674240160522972,2.3267477461410797,-15.220930099487305,-18.052001953125,-34.193817138671875,-0.031707763671875,1013.6824035644532
0.320080322265625,-0.039934754699096,-0.0064914809111505,0.0385650007158517,-0.039329495280981,-0.0246289148926734,-0.0285437069833278,0.0740670085796888,0.0672189651650251,2.326486024954637,-15.474271774291992,-18.110694885253903,-34.503143310546875,-0.031707763671875,1013.6824035644532
0.330148193359375,-0.0728274088669568,-0.0224570387408137,-0.0250298118382692,-0.0383823476731777,-0.0289687849581241,-0.0286252424120903,0.0736432643771245,0.0669993305735738,2.3262157153405907,-15.377080917358398,-17.96441650390625,-34.230194091796875,-0.031707763671875,1013.6824035644532
0.340217529296875,-0.075522785430774,0.0006276303790509,-0.0572176787376403,-0.0335862599313259,-0.0307602956891059,-0.0261349231004714,0.0732649025794639,0.0667523158850622,2.3259641953521304,-15.208602905273438,-17.9808349609375,-34.142791748046875,-0.031707763671875,1013.6824035644532
0.35028662109375,-0.1077392939027398,0.0557152382854372,-0.0547369678378105,-0.0279301535338163,-0.0256130080670118,-0.019788259640336,0.0729457532829849,0.0665099737899312,2.3257533262841648,-15.217077255249023,-18.1746826171875,-34.094512939453125,-0.031707763671875,1013.6824035644532
0.360355224609375,-0.1326208563767373,0.0598169014506042,-0.0517792870759964,-0.0076043773442506,-0.0224230736494064,-0.0177986118942499,0.0727531420540179,0.0663139813572012,2.325583197373366,-15.373022079467772,-18.086227416992188,-34.256683349609375,-0.031707763671875,1013.6824035644532
0.370423583984375,-0.1479472395200282,0.0400027053687721,-0.0585340220332145,0.0109687400981783,-0.0285881329327821,-0.0181583520025014,0.072762101804166,0.0661058566184542,2.325402648974573,-15.385126113891602,-18.07166290283203,-33.895111083984375,-0.031707763671875,1013.6824035644532
0.380492431640625,-0.1194789046004414,0.0373296137019991,-0.0624205080777406,0.0065162014216184,-0.0397523716092109,-0.0295942313969135,0.0728406831773426,0.0657804353666643,2.325154414192109,-15.488006591796877,-17.939712524414062,-33.847686767578125,-0.031707763671875,1013.6824035644532
0.3905615234375,-0.1161803014464676,0.0208973882086575,-0.0611181933075189,-0.0060982927680015,-0.0444082617759704,-0.0367377027869224,0.0728282379940863,0.0653963944147884,2.324823438601991,-15.464649200439451,-18.241432189941406,-34.010345458984375,-0.031707763671875,1013.6824035644532
0.40063037109375,-0.1135795443635433,-0.0141293553784489,-0.0353057066589593,-0.0096410941332578,-0.0523226410150527,-0.0368428975343704,0.0727199604131709,0.0649300967456993,2.324453835616733,-15.309226989746094,-18.008819580078125,-34.503631591796875,-0.031707763671875,1013.6824035644532
0.410698486328125,-0.0884049172271043,-0.0249178758963942,0.0077045830279588,-0.0167804807424545,-0.0292224343866109,-0.034975741058588,0.0725807767240784,0.064511855114137,2.3241058969388786,-15.176803588867188,-18.01361083984375,-33.846466064453125,-0.031707763671875,1013.6824035644532
0.420767333984375,-0.090314769436419,-0.0282316035542637,0.0739478642642497,-0.0216165147721767,-0.0026731148827821,-0.0290624573826789,0.0723643688865019,0.064353892227975,2.3237828620559955,-15.376951217651367,-18.05731964111328,-33.886444091796875,-0.031707763671875,1013.6824035644532
0.43083642578125,-0.0779334998343139,0.0045716918297111,0.0766021781653165,-0.018643096089363,0.0200058333575725,-0.024794477969408,0.0721229326028497,0.0644487155326026,2.323538448623636,-15.45612907409668,-18.08049774169922,-34.312225341796875,-0.031707763671875,1013.6824035644532
0.440905517578125,-0.0403677392888814,0.0422319987908005,0.0454570983171463,-0.0097169810906052,0.0280376598238945,-0.0260624065995216,0.071934401133066,0.0646924261673093,2.323306607213348,-15.468599319458008,-17.909622192382812,-34.281036376953125,-0.031707763671875,1013.6824035644532
0.450973388671875,-0.0483615875869989,0.0515685669347643,-0.0093996965080499,-0.0007716082036495,0.0177556816488504,-0.0316720977425575,0.0718486443806524,0.0649284459181786,2.323035325620491,-15.396228790283203,-17.967910766601562,-34.224334716796875,-0.031707763671875,1013.6824035644532
0.46104248046875,-0.0554340101912617,0.0132988228384405,-0.0719739338427782,0.0083931284025311,-0.0139561761170625,-0.0357022620737552,0.0718677712954637,0.0649479096383462,2.32268878195126,-15.309938430786133,-17.90753173828125,-33.919586181640625,-0.031707763671875,1013.6824035644532
0.471111328125,-0.063143926981464,-0.0133486533295363,-0.0749000504225492,0.0001478865742683,-0.0583485774695873,-0.0431932061910629,0.0718971520259224,0.0645728218288603,2.3222816737287726,-15.44582176208496,-17.900733947753906,-33.726837158203125,-0.031707763671875,1013.6824035644532
0.481179443359375,-0.0746160458493977,-0.0182066147547215,-0.0658966597557067,-0.0077640991657972,-0.081729806959629,-0.054505780339241,0.0718441467146761,0.0638776113706424,2.321803569398788,-15.583723068237305,-18.06158447265625,-33.914703369140625,-0.031707763671875,1013.6824035644532
0.491248291015625,-0.063386868891865,-0.0366979647349566,-0.0222825589567422,-0.0265545807778835,-0.0878254622220993,-0.0580973401665687,0.071651784118626,0.0630176608847957,2.321227240058321,-15.477012634277344,-18.23739624023437,-34.337493896484375,-0.031707763671875,1013.6824035644532
0.5013173828125,-0.0327204028734937,-0.0563266481820493,0.0188636904239654,-0.0342860035598278,-0.0756723880767822,-0.0575388744473457,0.0713125589076969,0.0621893778333256,2.3206539977506657,-15.47865867614746,-18.47767639160156,-34.287811279296875,-0.031707763671875,1013.6824035644532
0.51138623046875,0.0197769693439826,-0.0437201915219426,0.0272983412921428,-0.0397274419665336,-0.0547508411109447,-0.0436345748603343,0.0709185958578687,0.0615618485038468,2.3201613235590512,-15.718439102172852,-18.254859924316406,-33.949127197265625,-0.031707763671875,1013.6824035644532
0.52145458984375,0.0383623908158391,-0.0371375982612371,0.0161146839767694,-0.0308575183153152,-0.0249846894294023,-0.0367407165467739,0.0705360200049709,0.0611892502976181,2.319782881805412,-15.51317024230957,-18.2823486328125,-34.156951904296875,-0.031707763671875,1013.6824035644532
0.531523193359375,0.02023980108276,-0.0215553406607359,-0.0222264448553323,-0.024522740393877,0.0021292916499078,-0.0265105329453945,0.0702168283143389,0.0611129294065012,2.3194812676338232,-15.825532913208008,-18.290122985839844,-34.215301513671875,-0.031707763671875,1013.6824035644532
0.541592529296875,0.0037647958936169,-0.0084530633077025,-0.0825678085714578,-0.0098788170143961,0.0007516383193433,-0.0137667758390307,0.0700265384154251,0.0611442798572491,2.319293155785282,-15.631536483764648,-18.06583404541016,-33.986480712890625,-0.031707763671875,1013.6824035644532
0.55166162109375,-0.0059513096198439,-0.0018304302975535,-0.137626263448596,0.0048640919849276,0.000355165451765,-0.0089870179072022,0.0700151928287266,0.0611431779800787,2.31918787264135,-15.52851104736328,-18.21649932861328,-34.161956787109375,-0.031707763671875,1013.6824035644532
0.5617294921875,-0.0367255833942443,-0.0145075410410761,-0.1906938367694616,0.0212984587997198,-0.0036720666103065,-0.0009256293997168,0.0701724559483411,0.0611232962284863,2.3191313571722088,-15.526008605957031,-18.019332885742188,-34.569183349609375,-0.031707763671875,1013.6824035644532
0.571798583984375,-0.0337336350366473,-0.0394734207976609,-0.2286497656762599,0.0230566952377557,-0.0213310346007347,-0.0061106975190341,0.0704196138950588,0.0610018402125011,2.319091269738525,-15.783733367919922,-18.19316864013672,-34.303375244140625,-0.031707763671875,1013.6824035644532
0.581867431640625,-0.0294723608629778,-0.0471935667209327,-0.2341442714393138,0.0210944786667823,-0.0499363131821155,-0.0119182523339986,0.0706552973967764,0.0606583850833677,2.318994636358616,-15.576488494873049,-18.00237274169922,-34.624542236328125,-0.031707763671875,1013.6824035644532
0.5919365234375,-0.0092277740072458,-0.0522621021568775,-0.1913303811073303,0.0221528187394142,-0.0616523586213588,-0.0145643688738346,0.0708867207369163,0.0601032261250488,2.318841148322868,-15.694551467895508,-18.26062774658203,-34.711395263671875,-0.031707763671875,1013.6824035644532
0.60200439453125,0.0187686325516551,-0.0538996402308344,-0.0859668033599853,0.0317473895847797,-0.0597913414239883,-0.0154072605073452,0.0711476376453739,0.0595052187866113,2.318667895467803,-15.669174194335938,-18.425621032714844,-34.549407958984375,-0.031707763671875,1013.6824035644532
0.612073486328125,0.0222934091443195,-0.0442674501411616,-0.0425420876532793,0.042951226234436,-0.03507686778903,-0.0129620293155312,0.0715051470309794,0.0590231625710272,2.318509669410361,-15.546951293945312,-18.39508056640625,-34.314788818359375,-0.031707763671875,1013.6824035644532
0.622142333984375,0.0296040244186297,-0.0479491343285888,-0.0140256027430295,0.0527772232890129,-0.0074540288187563,-0.0117502901703119,0.0719701496039713,0.0588281248046501,2.318348793203972,-15.645635604858398,-18.40478515625,-34.473297119140625,-0.031707763671875,1013.6824035644532
0.63221142578125,0.0323147812146693,-0.0721150228139013,-0.0043798225194215,0.0524905659258365,0.0088569168001413,-0.0129454424604773,0.0724827153728423,0.0588591910463332,2.3181948531035315,-15.833826065063477,-18.12753295898437,-33.923797607421875,-0.031707763671875,1013.6824035644532
0.642279296875,0.0477170426057651,-0.0689436993014067,-0.0317594123542308,0.0564139373600482,0.014000279828906,-0.0054316003806889,0.0730058493721777,0.0589851133383479,2.3180843566305014,-15.714729309082031,-18.401023864746094,-34.504241943359375,-0.031707763671875,1013.6824035644532
0.652348388671875,0.0334009324835613,-0.0758337510760873,-0.0181681093752384,0.0561944954097271,0.0113570317625999,-0.0038391163107007,0.073571256262407,0.0591051496792336,2.318005104940227,-15.642616271972656,-18.344039916992188,-34.418121337890625,-0.031707763671875,1013.6824035644532
0.662417236328125,-0.0003168839294463,-0.0602943827692419,0.0540039773881435,0.0434211753308773,0.0043790177442133,-0.00443433271721,0.0740738139853281,0.0591737078583556,2.317932032527026,-15.812368392944336,-18.425819396972656,-33.982635498046875,-0.031707763671875,1013.6824035644532
0.672485595703125,-0.0026295082533732,-0.0356657721430063,0.1339046125769615,0.0287137180566787,0.0029763947241008,-0.00436168955639,0.0744500476376775,0.0592283272329158,2.317862594325072,-15.618183135986328,-18.47159576416016,-34.112396240234375,-0.031707763671875,1013.6824035644532
0.68255419921875,0.0475324432864785,-0.0352426513601094,0.1729834080338478,0.011797584593296,-0.0150007419288158,-0.004344645421952,0.0746616345457103,0.0591798639464521,2.317815653101849,-15.676692962646484,-18.49210357666016,-34.274566650390625,-0.031707763671875,1013.6824035644532
0.692623291015625,0.0561701424460858,-0.0491817448634654,0.1442418821960687,-0.0079454937949776,-0.0376543886959552,-0.0021976048592478,0.0746746007680843,0.0589235712638414,2.3177813209529705,-15.661188125610352,-18.372459411621094,-34.415313720703125,-0.031707763671875,1013.6824035644532
0.702692626953125,0.060941813827306,-0.0362396265082061,0.1155266598433256,-0.0180865451693534,-0.0411748215556144,-0.0005312650464475,0.0745443791263049,0.0585415159144475,2.3177685535322667,-15.733503341674805,-18.40125274658203,-34.009918212890625,-0.031707763671875,1013.6824035644532
0.71276025390625,0.0656287660671398,-0.0105635526556521,0.1048000986456871,-0.0161102786660194,-0.0384637303650379,0.0048502054996788,0.0743850644759027,0.0581373759285713,2.3177913278977607,-15.876375198364258,-18.579917907714844,-34.166351318359375,-0.031707763671875,1013.6824035644532
0.72282958984375,0.0667730772640556,-0.0027773557588458,0.0674865592956543,-0.0070251710712909,-0.0255849510431289,0.0095389671623706,0.0742937810288782,0.0578205305997591,2.317863407236945,-15.976051330566406,-18.77478790283203,-34.568817138671875,-0.031707763671875,1013.6824035644532
0.7328984375,0.0596637932481244,0.008899272705242,0.0276104759812355,0.0068047242239117,-0.0168981049209833,0.0124134179204702,0.0743248762782718,0.0576445577837478,2.317963683183106,-15.91582489013672,-18.37865447998047,-34.640777587890625,-0.031707763671875,1013.6824035644532
0.74296728515625,4.02589451521e-05,-0.0024601795684546,0.0132096101850271,0.0229914169758558,-0.0198723245412111,0.0126541685312986,0.0745098295420108,0.0574683824696665,2.318073680931714,-15.965173721313477,-18.608657836914062,-34.505828857421875,-0.031707763671875,1013.6824035644532
0.753035400390625,-0.015953027141653,0.0058601242050528,0.0367284329384565,0.0423125028610229,-0.0268896892666816,0.0151281841099262,0.0748556841505831,0.0572381240112274,2.318207487021758,-15.710227966308594,-18.290740966796875,-34.083465576171875,-0.031707763671875,1013.6824035644532
0.7631044921875,-0.0007272182960063,-0.0215971339758485,0.0562771830171346,0.0572248697280883,-0.0387969501316547,0.0178395472466945,0.0753837332332755,0.0569070199786969,2.3183574020792306,-15.69797706604004,-18.47007751464844,-34.278045654296875,-0.031707763671875,1013.6824035644532
0.77317333984375,-0.0189878282602876,-0.0549598898734897,0.1126227550953626,0.0555875264108181,-0.0470590107142925,0.0140758454799652,0.0759964928051107,0.0564809885948554,2.318499034068477,-15.860666275024414,-18.45127868652344,-34.080352783203125,-0.031707763671875,1013.6824035644532
0.783242431640625,-0.072940477319993,-0.0543982374027371,0.2193319022327661,0.0353432409465312,-0.0409068427979946,0.0115048307925462,0.0764824241920382,0.0560624243631035,2.3185995824730914,-16.136302947998047,-18.4537353515625,-33.853912353515625,-0.031707763671875,1013.6824035644532
0.793310302734375,-0.0788634376281872,-0.0235499485440552,0.2948223197638988,-0.0014049196615815,-0.0368721187114715,0.0090021714568138,0.0766684168371754,0.0556736249589358,2.3186954507586446,-16.205482482910156,-18.42887115478516,-33.835906982421875,-0.031707763671875,1013.6824035644532
0.80337939453125,-0.0728945192864164,-0.0041699060957878,0.2894254291564226,-0.0332981385290622,-0.0243507362902164,0.0014561037532985,0.0764926138270707,0.0553833538340277,2.31876655273683,-16.08966064453125,-18.414566040039062,-33.753631591796875,-0.031707763671875,1013.6824035644532
0.813448486328125,-0.0763839323047548,-0.0106374216094613,0.1891752489000558,-0.0503052026033401,-0.0253204554319381,-0.004590542986989,0.076045442172324,0.0551564525696786,2.318781555632792,-15.988931655883787,-18.288658142089844,-33.844268798828125,-0.031707763671875,1013.6824035644532
0.823517333984375,-0.0721963444218039,-0.0083331632550805,0.0395966818511486,-0.0433458276093006,-0.0302302613854408,-0.0079298801720142,0.0755618584631343,0.054878800429468,2.318750172007508,-15.91799545288086,-18.40152740478516,-34.087615966796875,-0.031707763671875,1013.6824035644532
0.83358544921875,-0.0722690077992156,-0.0068424863059073,-0.092090254676342,-0.0310260113328695,-0.0314192958176136,-0.0086321290582418,0.0751787222402125,0.0545781528309481,2.318689963282309,-15.922748565673828,-18.396148681640625,-33.905731201171875,-0.031707763671875,1013.6824035644532
0.843654296875,-0.0925414690425619,-0.0080178136955946,-0.1427870072126388,-0.0185645502060651,-0.0274341404438018,-0.0088800694793462,0.0749361156165821,0.0542932998823603,2.318615478394106,-16.036657333374023,-18.52422332763672,-33.959686279296875,-0.031707763671875,1013.6824035644532
0.853723388671875,-0.1007835564807057,0.0116605541121214,-0.0940957492798566,-0.0115949399769306,-0.0179694313555955,-0.0113681387156248,0.0748061612349164,0.0540794655454157,2.318520439672302,-16.0648193359375,-18.392898559570312,-34.041656494140625,-0.031707763671875,1013.6824035644532
0.863792236328125,-0.1177399519786238,0.0270792917139828,-0.0639998862236738,-0.0024421866983175,-0.0319038890302181,-0.0118453772738575,0.0747608688221807,0.0538236221296436,2.318404102358778,-15.966480255126951,-18.592140197753903,-34.087432861328125,-0.031707763671875,1013.6824035644532
0.873860595703125,-0.0928694954205304,-0.015894830681011,-0.0338724589854478,-0.0040571950376033,-0.0352307185530662,-0.0064183664508163,0.0747426904298797,0.0534679714700604,2.318300597580515,-16.072900772094727,-18.45098114013672,-33.807220458984375,-0.031707763671875,1013.6824035644532
0.883929443359375,-0.0778302221229299,-0.0418703989367932,0.0368517670571804,-0.0167354382574558,-0.0266928896307945,-0.0071163810789585,0.0746418624266687,0.0531380541558829,2.3182400510692287,-15.98213005065918,-18.31968688964844,-33.773223876953125,-0.031707763671875,1013.6824035644532
0.893998291015625,-0.0926961116150021,-0.0329091669112443,0.0814525408059358,-0.0350697226822376,-0.0162724293768405,-0.0063414205797016,0.0743799957898818,0.0529124735883309,2.3181857377736232,-15.990856170654297,-18.34027099609375,-33.830108642578125,-0.031707763671875,1013.6824035644532
0.904067626953125,-0.1161271464871242,-0.0080831340167671,0.0809264711052179,-0.0503032729029655,-0.0032503698021173,-0.0085808727890253,0.0739501536753422,0.0527971697634952,2.318136317647591,-16.21763038635254,-18.485565185546875,-33.972991943359375,-0.031707763671875,1013.6824035644532
0.914135498046875,-0.1260300432769581,0.0243069774564355,0.0535182396978139,-0.0653115957975387,0.0045682485215365,-0.0051325126551091,0.0733604429322019,0.0527976203066949,2.3180940818785984,-16.014806747436523,-18.76134490966797,-34.185760498046875,-0.031707763671875,1013.6824035644532
0.92420458984375,-0.1114685070263221,0.0054901218488812,-0.046035774987936,-0.0467184744775295,0.0072074406780302,-0.0009316424839198,0.0727675902588135,0.0528365107776795,2.318094330217584,-15.650102615356444,-17.87364959716797,-33.697845458984375,-0.031707763671875,1013.6824035644532
0.9342734375,-0.089170385174267,-0.0104340810570865,-0.0988449896335601,-0.0186391361057758,0.0307552125304937,0.0021751425229012,0.0724399064620471,0.0529729129812622,2.3181300561236315,-15.723722457885742,-17.640289306640625,-33.619232177734375,-0.031707763671875,1013.6824035644532
0.94434228515625,-0.0692146982625126,-0.0146822400208562,-0.0064765025377273,-0.0129354419186711,0.0513241365551948,-0.0047746426425874,0.0722809619881026,0.053395757511392,2.318120155621257,-15.79941749572754,-18.07676696777344,-33.767059326171875,-0.031707763671875,1013.6824035644532
0.954410400390625,-0.110164986679703,0.0525453760776668,0.0846691647648811,-0.0101478435099124,0.031146740540862,-0.0065601337701082,0.0721779928073003,0.0537885344163525,2.3180568648415973,-16.00131607055664,-18.4345703125,-34.063201904296875,-0.031707763671875,1013.6824035644532
0.9644794921875,-0.0588660304665565,0.057385290389508,0.0644154812872409,-0.0109238903969526,0.0162873677909374,-0.0117479711771011,0.0720914615208798,0.0540054228322754,2.3179782357119434,-15.842073440551758,-17.761940002441406,-33.592742919921875,-0.031707763671875,1013.6824035644532
0.97454833984375,-0.038085108244419,0.0192716867029666,0.0484615408301353,-0.0186903998255729,-0.004460813011974,-0.0216106567531824,0.0719735805182678,0.0540528422070805,2.317829099689106,-16.0509090423584,-18.320068359375,-33.742523193359375,-0.06341552734375,1013.6862182617188
0.984617431640625,-0.0296171761611476,-0.0274096196468919,0.0388251129567623,-0.0364547483623027,-0.0099695613607764,-0.0266349762678146,0.0716987749095743,0.0539661350071613,2.3175943833568664,-15.95708465576172,-18.474639892578125,-33.774322509765625,-0.06341552734375,1013.6862182617188
0.994685302734375,0.0474052367102354,-0.064527782555297,0.0363344651848077,-0.0396484285593032,-0.0057271001860499,-0.0225907191634178,0.0712849235611906,0.0538461679837441,2.317357530932824,-15.784358978271484,-18.54600524902344,-34.158172607421875,-0.06341552734375,1013.6862182617188
1.00475439453125,0.1052952252188697,-0.0654280923958867,0.061658876055479,-0.0257885381579399,0.0327084399759769,-0.0060029537416994,0.0709481196284826,0.053938820205035,2.3172410843868696,-15.966060638427734,-18.36595916748047,-34.426422119140625,-0.06341552734375,1013.6862182617188
1.0148232421875,0.1148641408139839,-0.0359129518371075,0.1592208401411771,-0.0111474124714732,0.0776037648320198,0.0057074557989835,0.0707682888817606,0.0544598018159334,2.317251317201169,-15.849309921264648,-18.50141143798828,-34.292877197265625,-0.06341552734375,1013.6862182617188
1.024892578125,0.0994904479302465,-0.011164806484431,0.1925502782911062,0.002119124867022,0.1145362108945846,0.0113696027547121,0.0707283227843711,0.055420827753477,2.317344044749263,-16.121694564819336,-18.57090759277344,-34.246612548828125,-0.06341552734375,1013.6862182617188
1.034960205078125,0.118998062280938,-0.0328783333815634,0.1829535979062318,-0.0008827075362205,0.1078574657440185,0.0094463508576154,0.0707419725916862,0.0565337114355275,2.3174439339399364,-15.71482276916504,-18.359397888183597,-34.275360107421875,-0.06341552734375,1013.6862182617188
1.045029296875,0.1215215528765693,-0.0817167447000741,0.1542781230419874,-0.0191780924797058,0.0575080029666423,0.0045184367336332,0.0706444096471167,0.0573627809503905,2.317517910919724,-15.830856323242188,-18.299560546875,-33.994415283203125,-0.06341552734375,1013.6862182617188
1.0550986328125,0.1039625518430024,-0.1061128617446869,0.1302560269415378,-0.0416967645287513,-0.0062230909243226,-0.006222850177437,0.0703532366979748,0.0575966921100503,2.317526713687884,-15.769107818603516,-18.47187042236328,-34.134735107421875,-0.06341552734375,1013.6862182617188
1.065167236328125,0.060890887357667,-0.0942236134432256,0.1318336515218019,-0.0661400556564331,-0.0416716299951076,-0.022414868697524,0.0698095151474816,0.0573162563476422,2.317418097681107,-15.809551239013672,-18.346343994140625,-34.090362548828125,-0.06341552734375,1013.6862182617188
1.0752353515625,0.027690738143213,-0.0836327343892306,0.1252513505220413,-0.0794114246964454,-0.0505954846739769,-0.0264483503997325,0.0690872078028177,0.0568517787568994,2.317213405282443,-15.618778228759766,-18.39826202392578,-34.296173095703125,-0.06341552734375,1013.6862182617188
1.085304443359375,0.0380922686375677,-0.0626443799614906,0.0849409674435854,-0.0871558934450149,-0.0533830188214778,-0.027023060247302,0.0682499871827702,0.0563504605436044,2.316981736525292,-15.932405471801758,-18.40367126464844,-34.278167724609375,-0.06341552734375,1013.6862182617188
1.095373291015625,0.0514432600546628,-0.0553949933551251,-0.0094154785990715,-0.0857406854629516,-0.0398456752300262,-0.019579442217946,0.0673850463985758,0.0559148461464328,2.3167795743026294,-15.818269729614258,-18.28380584716797,-34.012664794921875,-0.06341552734375,1013.6862182617188
1.1054423828125,0.0651329453742131,-0.0667317954055965,-0.0810141493886709,-0.0752065554261207,-0.0181180089712142,-0.0034127221442759,0.0665781675166067,0.0556440016195169,2.316695494305766,-15.78152847290039,-18.15717315673828,-33.862091064453125,-0.06341552734375,1013.6862182617188
1.115510498046875,0.0496525041803717,-0.0626416034825146,-0.1771212384909391,-0.0522544048726558,0.0086074732244014,0.0048778415657579,0.0659562844952225,0.0556333264548274,2.316738776764688,-16.09871482849121,-18.207786560058597,-33.941009521484375,-0.06341552734375,1013.6862182617188
1.125579345703125,0.0132188894700258,0.0063799102954566,-0.2295236259013414,-0.0246536657214164,0.0216223411262035,0.0165342316031456,0.0656085185765974,0.0558231708957532,2.31687099870795,-16.240196228027344,-18.286056518554688,-33.880035400390625,-0.06341552734375,1013.6862182617188
1.1356484375,-0.0265100404586642,0.0671860419791191,-0.2673053672850132,-0.0084263943135738,0.0220648404210805,0.0194137450307607,0.0655069175081709,0.0560755176667132,2.317061323301364,-15.987751007080078,-18.165267944335938,-34.227935791015625,-0.06341552734375,1013.6862182617188
1.145718017578125,-0.0613368044942617,0.0659636605773121,-0.2713140184044837,0.002956754527986,0.0079056117683649,0.0163199491798877,0.06555020859512,0.0562401838689758,2.317242995340515,-16.12065315246582,-18.46356201171875,-34.061798095703125,-0.06341552734375,1013.6862182617188
1.155785888671875,-0.0879602056669071,0.0347918388526886,-0.2449146717786788,0.0159061402082443,-0.0110916849225759,0.0125131644308567,0.0656983027891131,0.0562241759529461,2.317379851505239,-16.319063186645508,-18.412368774414062,-34.477081298828125,-0.06341552734375,1013.6862182617188
1.16585498046875,-0.103888244497776,0.0136662679113447,-0.1835375352740287,0.0080729853361845,-0.0317697972059249,0.0030805147252976,0.06584849021187,0.0560017890282333,2.3174456974777837,-16.043655395507812,-18.317138671875,-34.279083251953125,-0.06341552734375,1013.6862182617188
1.175923828125,-0.0978072075510397,0.0181833800096064,-0.0851812059402465,-0.0088262008503079,-0.0455320551991462,-0.0008539566770195,0.0658666466907825,0.0556245050914012,2.317444221849404,-15.99200439453125,-18.134567260742188,-34.227020263671875,-0.06341552734375,1013.6862182617188
1.185992919921875,-0.059923576695472,0.009840206817165,-0.0357826765209436,-0.0138694299384951,-0.0455909110605716,-0.0060740187764167,0.0657633335552737,0.0551620692449514,2.3174299741016893,-15.986974716186523,-18.114402770996094,-34.155242919921875,-0.06341552734375,1013.6862182617188
1.196060791015625,-0.0826549753982573,-0.0209459035255014,0.0039876083314418,-0.0121006742119789,-0.0197902340441942,-0.0164704900234937,0.0656450134760881,0.0548080174273506,2.3173423473564374,-15.994146347045898,-18.22818756103516,-33.933563232421875,-0.06341552734375,1013.6862182617188
1.2061298828125,-0.112509577044472,0.0368969944383949,0.0762199008494615,-0.0160605274140834,0.0106398425996303,-0.0205560438334941,0.0654852628585259,0.0547999805042552,2.31716335172021,-15.915571212768556,-18.335487365722656,-34.072967529296875,-0.06341552734375,1013.6862182617188
1.21619873046875,-0.0845337748821824,0.0123171913899481,0.0412321740984916,-0.0271129980683326,0.0393311381340026,-0.0221764966845512,0.0652365950230393,0.055044774195599,2.3169669997435105,-16.17852020263672,-18.200965881347656,-34.161407470703125,-0.06341552734375,1013.6862182617188
1.22626806640625,-0.1152588026873767,0.0072943947918713,0.0146837743908166,-0.0348779782652854,0.0643225088715553,-0.0205258689820766,0.0648762337555187,0.0555845326415774,2.3167673881786066,-15.827655792236328,-17.97223663330078,-33.747039794921875,-0.06341552734375,1013.6862182617188
1.236335693359375,-0.118642490308918,0.0316764833111316,-0.0179553434073925,-0.0255074277520179,0.075741060078144,-0.0190004501491785,0.064538930938929,0.0562818494947664,2.3165730586401243,-15.674352645874023,-18.173423767089844,-33.782684326171875,-0.06341552734375,1013.6862182617188
1.24640478515625,-0.0875604657595977,0.0425208256695419,-0.0324713600158691,0.001268527470529,0.0671025663614273,-0.0179242677986621,0.0643932209811349,0.0569901693457108,2.316392084105387,-15.563957214355469,-18.179702758789062,-33.775177001953125,-0.06341552734375,1013.6862182617188
1.25647412109375,-0.0971744991380721,0.0576847847927361,-0.002485971596837,0.0246262587606906,0.0483729541301727,-0.0167043358087539,0.0645054314419976,0.0575610784949816,2.3162143062317924,-15.606756210327148,-18.200515747070312,-33.787445068359375,-0.06341552734375,1013.6862182617188
1.266542724609375,-0.0707626948894932,0.0531407846875488,0.0071469491451978,0.0329337231814861,0.0267653930932283,-0.014467280358076,0.0647903439717247,0.0579373179435532,2.316050758572112,-15.687578201293944,-18.35517120361328,-34.088653564453125,-0.06341552734375,1013.6862182617188
1.276611083984375,-0.0403766532476991,0.029981223700568,0.0342570743888616,0.0235902592539787,0.0046024727635085,-0.0192454606294631,0.0650843763023119,0.0580906111172947,2.31587449908734,-15.526220321655272,-18.36589813232422,-33.878082275390625,-0.06341552734375,1013.6862182617188
1.286679931640625,-0.0363977396793663,0.0216359316162765,0.0986076737463474,-0.0036770477890968,-0.0169105418026447,-0.0251475572586059,0.0651643461623903,0.0579899719003574,2.3156427159841444,-15.45391082763672,-18.23467254638672,-33.914215087890625,-0.06341552734375,1013.6862182617188
1.296748779296875,0.0151666990695521,0.0279465760678052,0.1659054324716329,-0.0265435129404068,-0.0247590169310569,-0.0258177313953638,0.0649682021259334,0.0577503577693425,2.3153964026042155,-15.64712142944336,-18.2503662109375,-33.943939208984375,-0.06341552734375,1013.6862182617188
1.30681787109375,0.0459249715572223,0.018229338043183,0.1703127275198697,-0.0395149700343608,-0.0187698323279619,-0.0254030767828226,0.0646021645835984,0.0575107932716868,2.3151694112098182,-15.50282859802246,-18.217269897460938,-33.788848876953125,-0.06341552734375,1013.6862182617188
1.316885986328125,0.0398457247087731,9.22813933342e-05,0.1184416705071926,-0.039637342095375,-0.0047008651308715,-0.0260017979890108,0.0641861622331205,0.0573503686940992,2.314935187651308,-15.701181411743164,-18.28604888916016,-33.952117919921875,-0.06341552734375,1013.6862182617188
1.326954833984375,0.0391084234101697,0.0119240273538976,0.0564244825333356,-0.0331892967224121,0.0164361111819744,-0.0255165696144104,0.0637896802029478,0.057378428204576,2.3146932692539304,-15.725008010864258,-18.211997985839844,-33.748931884765625,-0.06341552734375,1013.6862182617188
1.33702392578125,0.0156904672153294,0.0215118668451905,0.0111959322750568,-0.0327489823102951,0.0199960209429264,-0.0217031948268413,0.0634391500215723,0.057568546545851,2.314473882903521,-15.67945671081543,-18.26514434814453,-33.461822509765625,-0.06341552734375,1013.6862182617188
1.3470927734375,-0.0172857735827565,0.0266859084822237,-0.0703413642048835,-0.0116098755970597,0.0307181756943464,-0.0273954346776008,0.0631727645474309,0.0578336515861327,2.314237694720432,-15.587614059448242,-18.256027221679688,-33.946197509765625,-0.06341552734375,1013.6862182617188
1.357160888671875,-0.0314551321780309,0.0130891986757516,-0.0448854359090328,-0.0043109646067023,0.0396680794656276,-0.0350878089666366,0.0630678124438946,0.0581807838351715,2.313928620911602,-15.616514205932615,-18.390640258789062,-34.208587646484375,-0.06341552734375,1013.6862182617188
1.36722998046875,-0.0206555788094177,-0.0003377805870026,-0.0301379486322402,-0.0033676726743578,0.0460908263921737,-0.0370172671973705,0.06299549509882,0.0586373481931433,2.313567491527808,-15.40309715270996,-18.190444946289062,-34.324249267578125,-0.06341552734375,1013.6862182617188
1.377298828125,0.0013269742874428,0.0042868835389614,-0.0259966110438108,-0.0139064025133848,0.0396680682897567,-0.0421329177916049,0.0628870293522775,0.0590978666398401,2.3131790368398923,-15.710927963256836,-18.02452087402344,-33.830291748046875,-0.06341552734375,1013.6862182617188
1.387367919921875,0.0129423010183498,0.0312425488732755,-0.0592915624022483,-0.0315809994935989,0.0339342840015888,-0.0448453463613987,0.0626292473379999,0.0595008835702152,2.3127592088936364,-15.73489761352539,-18.358909606933597,-34.127410888671875,-0.06341552734375,1013.6862182617188
1.39743701171875,0.0322349209114909,0.0327102468056604,-0.1095218664705753,-0.0420790314674377,0.0258041210472583,-0.0478770248591899,0.0622288222571204,0.0598374269987032,2.3123187490087447,-15.8699951171875,-18.253707885742188,-34.343780517578125,-0.06341552734375,1013.6862182617188
1.4075048828125,0.0529934486387297,0.0063602192142978,-0.1603963136613369,-0.0415173731744289,0.0140374768525362,-0.0434266179800033,0.0617687643338428,0.0600543411154407,2.311893932724261,-15.50844955444336,-18.03253173828125,-34.637603759765625,-0.06341552734375,1013.6862182617188
1.41757373046875,0.0886715688066556,0.0195129115803167,-0.1801432166606187,-0.0326503999531269,0.0096587464213371,-0.0374939180910587,0.0613697097559889,0.0601994259949828,2.3115026645253267,-15.528387069702148,-18.168312072753903,-34.694244384765625,-0.06341552734375,1013.6862182617188
1.42764306640625,0.1006302290825173,0.0400760628659278,-0.1483411342084407,-0.0132412789389491,0.0122201750054955,-0.0318506807088851,0.0611315259544886,0.0603070149169314,2.311182452124973,-15.49601936340332,-18.287872314453125,-34.872589111328125,-0.06341552734375,1013.6862182617188
1.4377119140625,0.0835420238984748,0.0398538349499925,-0.1182873567283153,0.00099952891469,0.0115333162248134,-0.0204350352287292,0.0610629553657337,0.0604169835091259,2.310916923345528,-15.733400344848633,-18.5802001953125,-34.779693603515625,-0.06341552734375,1013.6862182617188
1.44777978515625,0.0616607757516205,0.0500625462859869,-0.094889530006051,0.0113238049671053,0.0124457161873579,-0.0183042399585247,0.0611122284398171,0.0605278740423873,2.3107210000111484,-15.620302200317385,-18.093017578125,-34.449493408203125,-0.06341552734375,1013.6862182617188
1.45784912109375,0.023354425971955,0.0694528543999418,-0.0756155052155256,0.023203682154417,0.0100867394357919,-0.017762329429388,0.0612739977004031,0.0606662265682255,2.310526319266044,-15.680353164672852,-18.23388671875,-34.746307373046875,-0.06341552734375,1013.6862182617188
1.467917724609375,0.0032317119302228,0.05868355003912,-0.0503378560960292,0.0276546236127614,-0.0105255935341119,-0.0157817360013723,0.0615190641780918,0.0606897506212946,2.310343532397058,-15.85085678100586,-18.198974609375,-34.390777587890625,-0.06341552734375,1013.6862182617188
1.477987060546875,-0.0272987796835601,0.0248428378988057,-0.0047363808721303,0.018440892919898,-0.0181173384189605,-0.0215321276336908,0.0617155029978924,0.0605530959138218,2.310155756195856,-15.752225875854492,-18.377967834472656,-34.832977294921875,-0.06341552734375,1013.6862182617188
1.488054931640625,-0.025491364935413,0.0189169915137812,0.0586018265724182,0.0013785529881715,-0.0198918040841817,-0.0230669062584638,0.0617980343911253,0.0603990407653684,2.309920956372309,-15.575325012207031,-18.373199462890625,-34.487884521484375,-0.06341552734375,1013.6862182617188
1.498123779296875,-0.0026411256259307,0.0250481512125581,0.0414233127564191,-0.0158946886658668,-0.0248514451086521,-0.0207608491182327,0.0617059014006312,0.0601888117933433,2.309712312704318,-15.768808364868164,-18.4337158203125,-34.454437255859375,-0.06341552734375,1013.6862182617188
1.50819287109375,0.0150575396066531,0.0194363026801496,0.0276110605031251,-0.0173048321157693,-0.0213752202689647,-0.0164627749472856,0.0614994693886838,0.0599693895171231,2.309534837063544,-15.783323287963867,-18.6688232421875,-34.306182861328125,-0.06341552734375,1013.6862182617188
1.518261962890625,-0.0097309012237936,0.0477622334543615,0.024202128842473,-0.0118943490087986,-0.0133414817973971,-0.0129352267831563,0.0613358473336995,0.0598256899855026,2.3094019397486494,-15.923608779907228,-18.54721069335937,-34.577789306640625,-0.06341552734375,1013.6862182617188
1.5283310546875,-0.0263113030161708,0.1150304007589817,0.0445867452234029,0.0016563478857278,0.0086559625342488,-0.0044160401448607,0.0612676735670921,0.0598377477463861,2.309311274501922,-15.915931701660156,-18.45405578613281,-35.211334228515625,-0.06341552734375,1013.6862182617188
1.53839892578125,-0.0126626438267529,0.143859349151887,0.0277145208775997,0.0199020951986312,0.0062994472682476,0.0013914103619754,0.0613694578294649,0.0599267723163204,2.309297293598989,-15.949102401733398,-18.4779052734375,-35.152252197265625,-0.06341552734375,1013.6862182617188
1.548468017578125,0.0124079384133219,0.1153179489960894,-0.0181920747727155,0.018069040030241,-0.0052152620628476,0.0004915283061563,0.0615569336383013,0.0599344772298061,2.3092970191148976,-15.68735694885254,-18.4052734375,-34.837432861328125,-0.06341552734375,1013.6862182617188
1.558536865234375,-0.0102195615235716,0.1046587539462372,0.0209837513178586,0.0033306078985333,-0.0109672844409942,-0.0075678727589547,0.0616909603897925,0.0598463829023162,2.309263969313539,-15.670280456542969,-18.429214477539062,-34.744720458984375,-0.06341552734375,1013.6862182617188
1.56860595703125,-0.0163727869236841,0.079884378173761,0.0731879858076572,-0.0101164914667606,-0.0181394442915916,-0.0131482612341642,0.0616364952237558,0.0596795682766208,2.309167121705356,-15.701082229614258,-17.974029541015625,-34.695770263671875,-0.06341552734375,1013.6862182617188
1.578674072265625,0.0114644835507497,0.0242143307369202,0.1389116270840168,-0.019541572779417,-0.0071616135537624,-0.0088216755539178,0.0614678356373696,0.0595406357251996,2.3090645927932334,-15.778467178344728,-18.441200256347656,-35.099639892578125,-0.06341552734375,1013.6862182617188
1.588742919921875,0.0210149136411026,0.0154009827494621,0.2214706678271293,-0.0256237015128135,0.0140395453199744,-0.0060354769229888,0.0612400847601,0.0595884431679355,2.3089892416226707,-15.803024291992188,-18.374610900878903,-34.705108642578125,-0.06341552734375,1013.6862182617188
1.598811767578125,0.0281581729918718,0.0339499812010675,0.2537941438049078,-0.0187623314559459,0.0335751622915267,-0.0067177787423133,0.0609948663737701,0.059836605894843,2.308940529868843,-15.792001724243164,-18.588111877441406,-34.767608642578125,-0.06341552734375,1013.6862182617188
1.608880859375,0.0471668613770976,0.0162319902135059,0.2131406463772058,-0.0191785842180252,0.0425204560160636,-0.0023818863555788,0.0607593520880563,0.0602487599557248,2.3089073370400683,-15.564367294311523,-18.307388305664062,-34.576690673828125,-0.06341552734375,1013.6862182617188
1.61894970703125,0.067652125120908,-0.0237732724385336,0.1400116972804069,-0.0198254734277725,0.039050493389368,-0.0037085816729813,0.0605247333694313,0.0606629452045601,2.3088872785610866,-15.49569320678711,-18.21441650390625,-34.476287841796875,-0.06341552734375,1013.6862182617188
1.62901806640625,0.0650314942937344,-0.0452451725995168,0.1004518403083086,-0.0221900939941406,0.0236238650977611,-0.0089225182309746,0.0602879046431387,0.0609915431043056,2.3088293637753994,-15.463878631591797,-18.416824340820312,-34.541290283203125,-0.06341552734375,1013.6862182617188
1.639086669921875,0.0554632728183642,-0.0341925943179056,0.0678945555746555,-0.0199877228587865,0.0067147738300263,-0.0149272214621305,0.0600412128262927,0.0611275944193571,2.308727771278168,-15.366983413696287,-18.253097534179688,-34.401519775390625,-0.06341552734375,1013.6862182617188
1.649156005859375,0.0329881504315882,-0.0283940641069784,0.0472217699021101,-0.0188406985253095,-0.0077014500275254,-0.0173277948051691,0.0598233893436336,0.0611298059332739,2.3085682205240508,-15.416658401489258,-18.3642578125,-34.257537841796875,-0.06341552734375,1013.6862182617188
1.65922509765625,0.0126045934965834,-0.0473325002675876,0.0677466715365648,-0.022786471992731,-0.0106422519311308,-0.0220065601170063,0.0596007944836434,0.0610557806560448,2.3083712782997527,-15.241327285766602,-18.203933715820312,-34.094818115234375,-0.06341552734375,1013.6862182617188
1.669292724609375,0.0433831050546839,-0.0360818786632269,0.0674906509488821,-0.0229875408113002,-0.010966358706355,-0.0212864410132169,0.059359066388624,0.060967811775848,2.308168206993552,-15.35492706298828,-18.26032257080078,-34.111907958984375,-0.06341552734375,1013.6862182617188
1.679362060546875,0.0652192354181781,-0.0192085583388805,0.0537999792486429,-0.0292255394160747,-0.0152555191889405,-0.0188745707273483,0.0590955603534658,0.0608454682428947,2.3079881810792515,-15.465362548828123,-18.27374267578125,-34.338958740234375,-0.06341552734375,1013.6862182617188
1.689430908203125,0.0776711225710809,-0.0061200903154909,0.0090150811046361,-0.0407543629407882,-0.0082410192117095,-0.0165376476943492,0.0587511464756422,0.0607490791815337,2.307830649991866,-15.440040588378906,-18.22826385498047,-34.262298583984375,-0.06341552734375,1013.6862182617188
1.6995,0.082328410325013,0.0245184282500296,-0.0450268902063369,-0.0451585203409194,-0.0041056359186768,-0.011371387168765,0.0583193685872966,0.060699705697573,2.307712937794457,-15.55438232421875,-18.13915252685547,-34.166473388671875,-0.06341552734375,1013.6862182617188
1.70956884765625,0.0837778419483453,0.0355417073719203,-0.1013724622845649,-0.0394393801689147,0.0063089216127991,-0.0015493822284042,0.0579015891688003,0.0607336580077314,2.307674338584673,-15.296102523803713,-18.05657958984375,-34.022186279296875,-0.06341552734375,1013.6862182617188
1.719636962890625,0.0566978195820003,0.0627182854479178,-0.1699351263791322,-0.0332087166607379,0.0171555504202842,0.0030130622908473,0.0575441771222471,0.0608697607818689,2.307699404430451,-15.077301025390623,-17.917648315429688,-33.851287841796875,-0.06341552734375,1013.6862182617188
1.729705810546875,0.0130579998198896,0.0677302683910354,-0.2521913847833871,-0.0186129957437515,0.0145200863480567,-0.0028645338024944,0.0572766216808537,0.0610470109627135,2.3077133008062685,-15.140901565551758,-18.054214477539062,-33.807952880859375,-0.06341552734375,1013.6862182617188
1.73977490234375,0.0007250994041562,0.0472851539945229,-0.3153478059202432,0.0051561575382947,-0.0052265520207583,-0.0066948672756552,0.0572211303636494,0.0611144749847836,2.3076693483746493,-15.362934112548828,-18.04864501953125,-34.057952880859375,-0.06341552734375,1013.6862182617188
1.749843994140625,0.0003770531514659,0.0381894819343462,-0.3049778030753135,0.0162029489874839,-0.0325583070516586,-0.0121578099206089,0.0573314035344325,0.0609360997471812,2.307564936764252,-15.37262725830078,-18.071014404296875,-34.166046142578125,-0.06341552734375,1013.6862182617188
1.759911865234375,0.0080582918364554,0.033421281151846,-0.2421358547151088,0.0205419156700372,-0.0521385893225669,-0.0212411601096391,0.05751687693929,0.0605182349649486,2.307376731839587,-15.58538818359375,-17.85535430908203,-34.210296630859375,-0.06341552734375,1013.6862182617188
1.76998095703125,-0.0027162001561373,0.022711890284717,-0.1811304741322994,0.014913591556251,-0.0693497955799102,-0.0235727578401565,0.0576763104396116,0.0599369942639007,2.3071449858852007,-15.252857208251951,-17.939239501953125,-33.668243408203125,-0.06341552734375,1013.6862182617188
1.7800498046875,0.0112056864840909,-0.0023250088814646,-0.0991191303998231,0.014620236121118,-0.0685747787356376,-0.0266042314469814,0.0578090248804387,0.0592784911139677,2.3068718884867336,-15.607179641723633,-17.943618774414062,-34.057403564453125,-0.06341552734375,1013.6862182617188
1.790118896484375,0.0309534297335892,-0.026544965641573,-0.0086053312599658,0.0114183174446225,-0.0554355457425117,-0.0219237245619297,0.0579029098886052,0.0586974435173755,2.306622766676751,-15.642450332641602,-17.88262939453125,-34.553009033203125,-0.06341552734375,1013.6862182617188
1.80018798828125,0.0457417604774236,-0.067044258888252,0.0652133536666631,0.0103537337854504,-0.0343924909830093,-0.0119670648127794,0.0579846964945173,0.0582716635708917,2.306448020379188,-15.33017349243164,-17.746749877929688,-34.091827392578125,-0.06341552734375,1013.6862182617188
1.810255859375,0.036580293172039,-0.0934978929845616,0.0991325744032859,0.0031512146815657,-0.0131971901282668,-0.0037227172870188,0.0580338390900384,0.0580456100153469,2.306365967932277,-15.501598358154297,-17.84272003173828,-34.213592529296875,-0.06341552734375,1013.6862182617188
1.82032470703125,-0.0025973595494404,-0.0982268942678347,0.1242956572324037,-0.0054513029754161,0.0075752832926809,-0.0011624279431998,0.0580093359483374,0.0580274157114585,2.306343861207153,-15.579315185546877,-17.620391845703125,-34.052886962890625,-0.06341552734375,1013.6862182617188
1.83039404296875,0.0026475553667172,-0.0744817154126241,0.1242640930503606,-0.0129963047802448,0.0206063967198133,0.0035005011595785,0.0579128096933861,0.058179412264465,2.30636461281795,-15.477188110351562,-17.953697204589844,-33.725738525390625,-0.06341552734375,1013.6862182617188
1.840462890625,0.0050765726119279,-0.0621375994831323,0.0958218424201011,-0.0164201222360134,0.0124656902626156,0.003509237896651,0.0577675020747099,0.0583437696855745,2.3064020746086755,-15.43470573425293,-17.92900848388672,-34.124847412109375,-0.06341552734375,1013.6862182617188
1.850531982421875,0.0142881992019712,-0.052904820507206,0.0551619152516126,-0.0076572587713599,-0.0012205615639686,0.0019616750068962,0.0576406603887666,0.0583960205188343,2.306445399349779,-15.287343978881836,-17.97222137451172,-34.095001220703125,-0.06341552734375,1013.6862182617188
1.86060009765625,0.0028767244800925,-0.0533914715129882,0.0115291097521781,0.0121485795825719,-0.0203548222780227,-0.007154069840908,0.0576520877349254,0.0582775641259415,2.306410878918746,-15.455591201782228,-18.045143127441406,-34.163787841796875,-0.06341552734375,1013.6862182617188
1.870668701171875,0.0054916927514597,-0.0591468932345509,-0.0188303726762533,0.0308330506086349,-0.034537486732006,-0.0103554558008909,0.0578742903854614,0.0580260779002342,2.306310662941099,-15.410318374633787,-17.933578491210938,-34.164215087890625,-0.06341552734375,1013.6862182617188
1.880738037109375,0.0518308711327612,-0.0649893721850588,-0.0104278705120086,0.0374622493982315,-0.0496532171964645,-0.0122900893911719,0.0582251582032316,0.0576341521731841,2.306185033477129,-15.721933364868164,-18.15928649902344,-34.006195068359375,-0.06341552734375,1013.6862182617188
1.890806640625,0.049627990793623,-0.1089401575924828,0.0364303267747163,0.0313265919685363,-0.0352609604597091,-0.0179794002324342,0.0585963543235485,0.0572177641206783,2.306012264449782,-15.788167953491213,-18.26911163330078,-34.439361572265625,-0.06341552734375,1013.6862182617188
1.9008759765625,0.0569655671400949,-0.108105679529719,0.1130529632061719,0.0162419248372316,-0.0237719099968671,-0.0176003370434045,0.0588650098685419,0.0569272233723428,2.305825160593361,-15.867887496948242,-18.020362854003903,-33.998931884765625,-0.06341552734375,1013.6862182617188
1.91094384765625,0.0813630724241957,-0.0822156341329217,0.1285059684038162,0.0016920119524002,-0.0099863223731517,-0.0124298091977834,0.0589570050671384,0.0567584550019303,2.305681270062101,-15.877470016479492,-18.24439239501953,-34.657623291015625,-0.06341552734375,1013.6862182617188
1.9210126953125,0.1070232545878738,-0.0867245994573459,0.1093833347827196,0.0001666909083724,-0.0014772270806133,-0.0054449043236672,0.0589549795905262,0.0567051374993292,2.305595881905788,-15.814325332641602,-18.249237060546875,-34.782623291015625,-0.06341552734375,1013.6862182617188
1.93108203125,0.0684316946586593,-0.0916333777543157,0.0719125590443611,0.0109178721904754,0.0112079409882426,-0.0014043564442545,0.0590038258124099,0.0567650121732715,2.3055615185318383,-15.841163635253906,-18.28192901611328,-34.321014404296875,-0.06341552734375,1013.6862182617188
1.94115087890625,0.0402692108178511,-0.0626215836077928,0.0643716421455144,0.0197116099298,0.0239240378141403,0.0008947225287556,0.0591701341522491,0.0569677336757928,2.305540560006946,-15.915281295776367,-18.318153381347656,-34.467010498046875,-0.06341552734375,1013.6862182617188
1.951218994140625,0.0196356611771509,-0.0411830377271398,0.0413455713450908,0.0296795554459095,0.0205777753144502,-8.13258811831e-05,0.0594341152990136,0.0571966068247446,2.305526661983146,-15.714126586914062,-18.298797607421875,-34.259246826171875,-0.06341552734375,1013.6862182617188
1.961287841796875,0.013702763996832,-0.0515592145845293,0.0151911393910646,0.0250118784606456,0.0089291566982865,-0.0001346352510154,0.0597346063147755,0.0573606779126174,2.305525307963838,-15.946760177612305,-18.36341857910156,-34.143829345703125,-0.06341552734375,1013.6862182617188
1.97135693359375,0.0168483685461804,-0.0725667851693928,0.0442044679075479,0.0164367668330669,-0.0029674505349248,-0.0074058640748262,0.0599732289140937,0.0574071020778758,2.3054754641569644,-15.628477096557615,-18.186767578125,-34.326690673828125,-0.06341552734375,1013.6862182617188
1.98142578125,0.0496316440554335,-0.0741633336458355,0.0342962373554706,0.0105417184531688,-0.0241160243749618,-0.0121823735535144,0.0601311444339547,0.057299170743346,2.3053656381273626,-15.708047866821287,-18.14942169189453,-34.423309326171875,-0.1004080772399902,1013.6907958984376
1.991494873046875,0.1060515234788879,-0.0550308727504685,0.0408580800890922,0.0064545646309852,-0.0429482981562614,-0.012065727263689,0.0602207003735273,0.0569772731657554,2.3052403144693194,-15.438735961914062,-18.0953369140625,-34.148529052734375,-0.1004080772399902,1013.6907958984376
2.00156298828125,0.1330818249519914,-0.0706731534425169,0.0633235943973064,0.0033334689214825,-0.0349729619920253,-0.0136350933462381,0.0602736818795874,0.0566155226863096,2.305105169532513,-15.657756805419922,-18.17267608642578,-34.197418212890625,-0.1004080772399902,1013.6907958984376
2.0116318359375,0.1066476992737501,-0.1052695062557235,0.0640250206649303,0.009946895763278,-0.0266370009630918,-0.0138422874733805,0.0603623266277078,0.0563349370950711,2.3049601111871985,-15.658231735229492,-18.118331909179688,-34.219146728515625,-0.1004080772399902,1013.6907958984376
2.021701171875,0.1026096759293228,-0.1109765587909147,0.0627326427668333,0.0144847389310598,-0.0273103266954422,-0.0135945342481136,0.060497783069433,0.0560901992007204,2.30482180384936,-15.737115859985352,-18.20687866210937,-34.242706298828125,-0.1004080772399902,1013.6907958984376
2.031769775390625,0.0914571078719571,-0.1061744922714307,0.1034896005690097,0.0090484283864498,-0.0275950171053409,-0.0116903744637966,0.0606367596741936,0.0558385124533875,2.3046805963570853,-15.92384147644043,-18.199020385742188,-34.474822998046875,-0.1004080772399902,1013.6907958984376
2.0418388671875,0.0794005036469548,-0.1338845561696216,0.1564490373402834,-0.0067513547837734,-0.0293024182319641,-0.0105009600520133,0.0606645589845715,0.0555564549784071,2.3045677255295938,-15.765520095825195,-18.374000549316406,-34.394989013671875,-0.1004080772399902,1013.6907958984376
2.051906982421875,0.0515088726367801,-0.162091098347865,0.1966179661214351,-0.0221012812107801,-0.0227997787296772,-0.0130429472774267,0.0605193542353494,0.0553170453061259,2.3044577906363224,-15.762443542480469,-18.449874877929688,-34.321258544921875,-0.1004080772399902,1013.6907958984376
2.06197607421875,0.040789398767054,-0.1297351083399728,0.1880781013131141,-0.0324367210268974,-0.028402455151081,-0.0112927937880158,0.0602324065194967,0.0550961781389049,2.304342483466957,-15.699674606323242,-18.359542846679688,-34.386749267578125,-0.1004080772399902,1013.6907958984376
2.072044921875,0.0388819942431524,-0.1100571789236739,0.1574561685562133,-0.0346711128950119,-0.0331942811608314,-0.0087550673633813,0.0598885244485319,0.0548155948079219,2.304255689745644,-15.822887420654297,-18.32603454589844,-34.201629638671875,-0.1004080772399902,1013.6907958984376
2.082114013671875,0.0528803436530753,-0.1336615610687062,0.1396884566754102,-0.0349796563386917,-0.0266577564179897,-0.0052903573960065,0.0595561508621873,0.0545458603634655,2.30421632833404,-15.68588638305664,-18.11148834228516,-34.463897705078125,-0.1004080772399902,1013.6907958984376
2.0921826171875,0.0688576649857685,-0.1434370320865884,0.0854857418447732,-0.0190885737538337,-0.0267946422100067,0.0004982892423868,0.0593218539132373,0.0543036345926629,2.304203876168045,-15.798320770263672,-18.027198791503903,-34.729095458984375,-0.1004080772399902,1013.6907958984376
2.1022509765625,0.0779044929355382,-0.121615039846301,0.0446826068133115,-0.009700920432806,-0.0300563089549541,0.0042265434749424,0.059212292247564,0.0540513388573873,2.304225221688226,-15.557235717773438,-17.915328979492188,-34.541229248046875,-0.1004080772399902,1013.6907958984376
2.11231982421875,0.0663600394837558,-0.1005925639532506,0.0286889188677072,-0.0093347355723381,-0.0250911116600036,0.0013873474672436,0.059158628658502,0.053793220530607,2.3042631871117023,-15.650701522827148,-18.018165588378903,-34.254119873046875,-0.1004080772399902,1013.6907958984376
