Timestamp,Acc x (m/s^2),Acc y (m/s^2),Acc z (m/s^2),Gyro x (rad/s),Gyro y (rad/s),Gyro z (rad/s),Beccheggio/Pitch (rad/s),Rollio/Roll (rad/s),Imbardata/Yaw (rad/s),Mag x (microTesla),Mag y (microTesla),Mag z (microTesla),Altitudine (m),Pressione (milliBar)
0.02852880859375,0.1279357490341179,0.0836750665604602,0.0861018279165029,-0.0012109326198697,-0.0068151103332638,-0.0019640319515019,0.0064878502119069,-0.0025783440364104,-0.930943232706232,14.202434539794922,16.40130615234375,-33.856109619140625,-0.008850570799118513,1013.6500605003799
0.038597900390625,0.0335083383807912,0.0965583400011062,0.0733808780312538,0.0018144184723496,-0.0073842275887727,-0.0006700023077428,0.0064893225716324,-0.0026540191528749,-0.9309571229438022,14.134441375732422,16.35271453857422,-33.994720458984375,-0.009009114384203043,1013.6500811003646
0.048666748046875,-0.0434327711489982,0.0522473018799675,-0.0363064081341028,0.0009806444868445,-0.0048901787959039,-0.0018498131539672,0.0065027147032362,-0.0027275229722499,-0.9309701812041496,14.075557708740234,16.049972534179688,-33.997589111328125,-0.009167654125154382,1013.6501016998496
0.05873486328125,-0.0817982307047583,-0.0104325695200124,-0.1455436124444007,0.0010379021987318,-0.0009827888570725,0.0020312112756073,0.0065198382695125,-0.0027521032406577,-0.9309742806718998,13.879507064819336,15.352066040039062,-34.109893798828125,-0.009326182333706157,1013.6501222978363
0.0688037109375,-0.0907370682354085,-0.0538367767282295,-0.1789122135609388,-0.001262729987502,0.0024867006577551,0.0018897615373134,0.0065188895889266,-0.002740863584734,-0.9309491143042196,13.815641403198242,15.308929443359377,-34.438995361328125,-0.009484722074657498,1013.6501428973214
0.078872802734375,-0.0730054460147162,-0.0343390809833537,-0.152124744400382,-0.0028771385550498,0.0061794403009116,0.0033712782897055,0.0064929408985192,-0.0027026710346324,-0.930909218446925,13.614633560180664,15.405601501464844,-34.288543701171875,-0.009643265659742026,1013.650163497306
0.088940673828125,-0.0365621684268815,0.0079212534193648,-0.0274742823809385,0.0010828645899891,0.0027271173894405,0.0041745458729565,0.0064840578352669,-0.002634669845579,-0.93087878085984,13.84062957763672,15.33636474609375,-34.572296142578125,-0.009801790024160612,1013.6501840947932
0.099010009765625,0.0190424513742211,0.0439596126012736,0.0560258386045694,-0.0023744516074657,0.0031979642808437,0.0068363756872713,0.0064663205564322,-0.0025979747359235,-0.9308286461508573,13.791500091552734,15.790779113769531,-34.050323486328125,-0.009960337453378331,1013.6502046952772
0.10907861328125,0.0756491334904916,0.0581354648694163,0.0682978756785392,-0.001016404479742,-0.0010367827489972,0.0054312404245138,0.0064470113224036,-0.0025719089540454,-0.9307709220757971,14.101863861083984,15.883544921875,-34.054351806640625,-0.010118873350196482,1013.6502252942629
0.119146728515625,0.1042223900892771,0.0431655122146708,0.0466021766990423,0.0004933411255478,0.000629024580121,0.0053891632705926,0.0064158616473694,-0.0025864003677366,-0.930711957641606,14.02763557434082,15.801628112792969,-34.058258056640625,-0.010277401558748258,1013.6502458922496
0.1292158203125,0.0689379454140551,0.0362333976968191,-0.0392909769028425,0.0026665208861231,0.0008469321765005,0.0050225602462887,0.0064261456131564,-0.0026047217053402,-0.9306621795877092,14.078500747680664,15.84832000732422,-34.107269287109375,-0.010435945143832786,1013.6502664922342
0.139284912109375,-0.0093386208204436,0.005490847934666,-0.096454295104742,0.0028888946399092,-0.0019464576616883,0.0009977249428629,0.0064498480470407,-0.0026030806752904,-0.9306336282505882,13.96559715270996,15.606842041015623,-34.251373291015625,-0.010594488728917315,1013.6502870922187
0.1493525390625,-0.0448488758914638,-0.0433162001312011,0.0663508332639932,-0.0008262461051344,0.0066309194080531,-0.0038115293718874,0.0064625385763603,-0.0025983757608546,-0.9306454196358714,14.033750534057615,15.63201141357422,-33.884796142578125,-0.010753009249202713,1013.6503076892064
0.159421875,0.0003841678788419,-0.121611916307453,-0.0092161566346883,0.0008171899244189,0.0009069871157407,-0.0040517463348805,0.0064742023584864,-0.0025721901169662,-0.930692403135163,13.828189849853516,15.588790893554688,-33.768280029296875,-0.01091155667842043,1013.6503282896905
0.169490966796875,0.0802961829781997,-0.1792435461408458,0.0017068039178848,0.000652520917356,-0.0006860508583486,-0.0063685197383165,0.0064873042294765,-0.002572754424601,-0.9307423879770268,13.917074203491213,15.721145629882812,-33.735321044921875,-0.011070100263504959,1013.6503488896751
0.179558837890625,0.117807610387355,-0.1679642098986543,0.1167775366872549,0.0019063372164964,-0.0029151167254894,-0.0074883787892758,0.0064930680623424,-0.0025831590510346,-0.9308168711643598,13.95009994506836,15.821395874023438,-34.059112548828125,-0.011228624627923546,1013.6503694871623
0.1896279296875,0.0717816535405349,-0.0895269983259029,0.0171177235394716,0.0003367373719811,-0.0037382235750555,-0.0089671378955245,0.0064958321248804,-0.002604783521736,-0.9309028357814928,13.891534805297852,15.74970245361328,-34.200042724609375,-0.011387168213008074,1013.6503900871469
0.199697021484375,0.0037783038291614,0.0102338275109417,0.0350736514687538,0.0008501950651407,-0.0053784647025167,-0.0079079987481236,0.0064909935472025,-0.0026436392491682,-0.9309996369692568,13.90390396118164,15.39678955078125,-34.276336669921875,-0.011545711798092603,1013.6504106871315
0.209764892578125,-0.0341263127322192,0.063696720292326,0.0225040927529335,-0.0001378431916236,-0.0006929785013198,-0.0070583103224635,0.0064800439014775,-0.002684694709726,-0.9310733737493204,14.097013473510742,15.501197814941406,-33.838226318359375,-0.01170423616251119,1013.6504312846187
0.219833740234375,-0.0516201509915292,0.0883319433224387,-0.1211491759002208,0.0014051925390958,-0.0007536984048783,-0.0026699535083025,0.0064896969827671,-0.0026860985487777,-0.9311230306006604,14.008460998535156,15.787940979003906,-34.010894775390625,-0.01186277590346253,1013.6504518841039
0.229903076171875,-0.0478790693336399,0.1007061621292494,-0.1039414359897375,-0.0005675824359059,0.0014589838683605,-0.0001550456508994,0.00650029504891,-0.002686113001651,-0.9311467992848405,13.93866729736328,15.58477020263672,-34.108856201171875,-0.012021323332680247,1013.6504724845879
0.239970947265625,-0.0428263936205301,0.1216139256014488,-0.0373527023166418,-0.000294342637062,0.0022890912368893,0.0032032001763582,0.006511322671961,-0.0026672847634552,-0.9311446072709496,13.778291702270508,15.645751953125,-34.287506103515625,-0.012179847697098834,1013.6504930820751
0.250039794921875,-0.0227570126346545,0.1112634403077419,-0.0442366166114807,9.4118528068e-05,0.0016410159878432,0.003370095975697,0.0065239823849419,-0.0026538551111344,-0.9311150673421116,13.786693572998049,15.504478454589844,-34.037994384765625,-0.012338387438050174,1013.6505136815601
0.26010888671875,0.0172665893916739,0.0818087520987726,0.0325268895953893,0.0017572622746229,0.0011965343728661,0.0064899893477559,0.0065416805675877,-0.0026305122217149,-0.9310613990254925,13.824495315551758,15.659767150878906,-34.083953857421875,-0.012496931023134702,1013.6505342815448
0.270177001953125,0.0541281517570838,0.023048565760022,0.0676928955227136,-0.0011889599263668,-0.000908562913537,0.0083111748099327,0.0065312539784509,-0.0026204240550534,-0.9309922898336492,14.121198654174805,15.408103942871094,-33.900299072265625,-0.012655459231686478,1013.6505548795315
0.280245849609375,0.058282586289104,-0.0207968458770541,-0.0089209730803966,-0.0019519571214914,-0.0028697147499769,0.0066994302906095,0.0065158323443047,-0.002632071611477,-0.9309131663986993,14.028083801269531,15.517868041992188,-34.389007568359375,-0.012813998972637818,1013.6505754790165
0.29031494140625,0.0254679292608983,-0.0286086932383477,0.0343248789280653,-0.0011470941826701,-0.0010427152737975,0.0073771784082055,0.0064974440291358,-0.0026581002325756,-0.9308510503387548,13.878374099731444,15.611701965332031,-34.187347412109375,-0.012972542557722348,1013.6505960790012
0.3003828125,-0.0063716447906102,-0.0087847886132542,0.0026028759747743,-0.0026158271357417,-0.0014448524452745,0.0060567827895283,0.0064742407452389,-0.0026767481385641,-0.9307762936442264,14.01325798034668,15.443862915039062,-33.978118896484375,-0.013131066922140933,1013.6506166764883
0.310451904296875,-0.0260812000377452,0.0030350888130022,-0.0527630374163389,0.0011760285124182,0.0004576900973916,0.0041082515381276,0.0064588294306672,-0.0026963520426863,-0.9307281412214108,14.03639793395996,15.410362243652344,-34.161407470703125,-0.013289610507225462,1013.6506372764729
0.32052099609375,-0.0137104175803251,-0.016829604480206,-0.0433358683794736,0.000957116484642,0.0031011439859867,0.0034437919966876,0.0064626136328554,-0.0026913413674353,-0.9306869657880212,13.798389434814451,15.674079895019531,-34.280853271484375,-0.013448154092309992,1013.6506578764576
0.3305888671875,0.0201120898997294,-0.0523319251232314,-0.0397445658892393,0.0033657886087894,0.0027026124298572,-0.0001485953107476,0.0064739761437075,-0.0026765319414125,-0.9306706349080828,14.012969970703123,15.729568481445312,-34.027008056640625,-0.013606678456728577,1013.6506784739447
0.340657958984375,0.0471820589462295,-0.0884591133660636,0.0099333649933338,0.0014672214165329,0.0008005825802683,-0.0030032377690076,0.0064979149571081,-0.002675060110009,-0.9306752798516662,14.315055847167969,15.734504699707031,-34.251495361328125,-0.013765222041813106,1013.6506990739293
0.350726806640625,0.0460219656582921,-0.1007336529243737,0.0112806879490613,0.0001656720414757,0.0036421790719032,-0.0034117344766855,0.0064974804593904,-0.0026635745918268,-0.9307039567276104,14.12612533569336,15.534431457519531,-33.971893310546875,-0.013923761782764447,1013.6507196734144
0.360795166015625,0.0142785682905232,-0.1058393968318589,-0.0422895741969346,-0.0003733513876795,0.0025319075211882,-0.0041808555833995,0.0065108966452646,-0.0026309940302781,-0.9307404825190474,14.089044570922852,15.72418975830078,-33.861358642578125,-0.01408229383544941,1013.6507402719005
0.37086376953125,-0.0243350801729131,-0.0773993107592221,-0.0823918674826622,0.0017630271613597,0.0042188274674117,-0.0091567002236843,0.0065118095752378,-0.002599747116783,-0.9307970203564092,13.810491561889648,15.855339050292969,-34.148345947265625,-0.01424082973226756,1013.6507608708862
0.380932861328125,-0.0541255762075074,-0.0387481341638369,-0.0868804110735654,-0.0005446020513772,0.0048047224991023,-0.0082363123074173,0.0065163656817472,-0.0025526832372523,-0.9308733986990212,13.958593368530272,15.8272705078125,-34.004669189453125,-0.014399373317352089,1013.6507814708708
0.3910009765625,-0.0344372738109552,0.0032015770868631,0.0100870942503213,0.0002999501302838,0.0048744953237473,-0.0063143405131995,0.0065063251486166,-0.0025003938040495,-0.9309418452115428,13.968891143798828,15.761520385742188,-33.720794677734375,-0.014557901525903865,1013.6508020688575
0.40106982421875,0.022607788306137,0.0374528062568279,0.0480956301271915,-0.0004976661875844,0.0016494067385792,-0.0059175295755267,0.0065047162042844,-0.0024732542115088,-0.930997085869262,13.97713851928711,15.770111083984377,-34.229827880859375,-0.014716441266855207,1013.6508226683426
0.411138916015625,0.0924848069518804,0.0543299077071482,0.1288993516355752,0.0006041452288627,-0.0029195158276706,-0.004319398663938,0.0065167167544547,-0.0024728728499666,-0.9310326928181448,13.978578567504885,15.698356628417969,-34.034149169921875,-0.014874984851939735,1013.6508432683272
0.42120703125,0.1192069831907283,0.0803760706808418,0.0985217490285634,0.0002091992646455,-0.0042055565863847,-0.0014029708690941,0.0065176583155207,-0.0025122304738267,-0.9310639971689756,13.89249038696289,15.447731018066406,-34.129730224609375,-0.01503351306049151,1013.6508638663138
0.431275634765625,0.0741508212241344,0.0933002880532294,0.0711351449310779,0.0054632872343063,-0.0063608488999307,-0.0025526254903525,0.0065385648272586,-0.002571713354511,-0.9310945413584768,13.893739700317385,15.322395324707031,-33.985198974609375,-0.015192048957309662,1013.6508844652994
0.441344970703125,0.0227624171788454,0.074483829737897,0.016963994282484,-0.0022100796923041,-0.0043078181333839,0.0016341302543878,0.006557685738803,-0.0026263555415659,-0.9310937380658694,14.029748916625977,15.620033264160156,-33.640289306640625,-0.015350596386527377,1013.6509050657835
0.451412841796875,-0.0231406896064407,0.0228176293812459,-0.0351116453915834,0.0016917400062084,-0.0003815814852714,0.0012049502693116,0.0065687414533956,-0.0026605082823722,-0.9310894009030386,13.98774528503418,15.94268035888672,-33.684295654296875,-0.015509120750945966,1013.6509256632708
0.461481689453125,-0.0595722014079568,0.001988981860131,-0.1196580605596303,-0.0009703552350401,0.0017249789088964,0.0025474498979747,0.006581040884507,-0.0026686732376693,-0.93106704392992,13.918460845947266,15.455833435058594,-33.751861572265625,-0.015667660491897308,1013.6509462627558
0.471551025390625,-0.0765974289249628,0.0082393474917858,-0.0990063176751136,-0.0014454694464802,0.0015294137410819,0.0059873196296393,0.0065622726663245,-0.0026568252636749,-0.9310286911477929,14.075035095214844,15.538734436035156,-33.861053466796875,-0.015826207921115023,1013.6509668632399
0.481618896484375,-0.0578446332632563,0.0344344904821133,-0.0384013345867395,-0.0020103259012103,0.0040668733417987,0.0049915635026991,0.0065478862521035,-0.0026312114746484,-0.9309817730399216,14.077537536621094,15.33123779296875,-34.080963134765625,-0.016028352761186325,1013.6509868314379
0.49168798828125,-0.0135639377647428,0.0444973544734762,-0.0105664021998643,-0.004675829783082,0.0017622462473809,0.006981452461332,0.0065211561815898,-0.0025994654044403,-0.930925197418916,14.09469985961914,15.485610961914062,-33.707122802734375,-0.01623974864150118,1013.6510066689507
0.5017568359375,0.0446965211742324,0.0255287697697756,0.0482429296433925,-0.0011455435305833,0.001917774323374,0.0073843891732394,0.0064942470558746,-0.0025894502474695,-0.9308513450731642,13.881494522094728,15.650520324707031,-33.536468505859375,-0.01645113939619762,1013.6510265059825
0.511824951171875,0.077395648364257,0.0127671271145343,0.065151978868246,0.0009344229474663,-0.0006895079277455,0.0055001871660351,0.0064899181315203,-0.0025974174562786,-0.9307883644997538,13.669692993164062,15.66851806640625,-33.578948974609375,-0.016662514774038815,1013.6510463415714
0.521893798828125,0.0669419675575569,0.0016449907280504,-0.0093669632822275,-0.0005947640165686,0.0003712293691933,0.0042261304333806,0.0064849267572105,-0.0025995535868348,-0.9307440626310852,13.726421356201172,15.452621459960938,-34.180389404296875,-0.016873905528735255,1013.6510661786032
0.531962890625,0.0127465044516138,-0.0098846670133993,-0.0506669419199228,0.003230907022953,-0.0002178028225898,0.0052105477079749,0.0064841551693541,-0.0025968365747192,-0.930704310809396,13.816085815429688,15.24372100830078,-33.791900634765625,-0.01708530140905011,1013.651086016116
0.54203076171875,-0.0118955182120436,-0.0579240688747493,0.0160690912693738,0.0019680364057421,7.22152180969e-05,-0.0001032575964927,0.0065140893210342,-0.0026170091489655,-0.9306939781859948,13.647048950195312,15.560554504394531,-33.725372314453125,-0.017296671661272887,1013.6511058512239
0.552100341796875,-0.0037669033690239,-0.11338986701034,0.0441992072105407,0.0032617375254631,-0.0011443132534623,-0.0050849351100623,0.0065344216546487,-0.0026219234003404,-0.9307203960978208,13.663551330566406,15.625358581542969,-33.588165283203125,-0.01750807779282457,1013.6511256896987
0.562169189453125,0.0418373780166031,-0.1499552914068102,-0.0117658411175012,-0.0009649666026234,7.22184777259e-05,-0.0074785845354199,0.0065441894960184,-0.0026183349438567,-0.9307898248997494,13.988916397094728,15.777420043945312,-33.412384033203125,-0.017719468547521013,1013.6511455267305
0.572237548828125,0.0666490581587422,-0.1330009874012787,0.0226502232253551,0.0001408010721206,0.001191216520965,-0.0076576927676796,0.0065488044478399,-0.0026307229378625,-0.9308635291785622,13.855709075927734,15.695999145507812,-33.478424072265625,-0.01793084905098062,1013.6511653628004
0.58230615234375,0.0628676216575782,-0.0871634657986462,0.0082850132644176,0.0008441414684057,-0.0006266571581363,-0.0076651498675346,0.0065537415579552,-0.0026265930436088,-0.930936352028164,13.774887084960938,15.713409423828123,-33.436553955078125,-0.018142234680058645,1013.6511851993512
0.59237548828125,0.0176541114215156,-0.0217272311954991,0.0012526304095983,-0.0003799712285399,-0.001868377905339,-0.0071946457028388,0.0065430306673751,-0.0026242520550774,-0.93100664247068,13.887657165527344,15.771896362304688,-33.865570068359375,-0.018353635685991916,1013.651205037345
0.602443359375,-0.0165477233654819,0.0507168911420274,0.0525777439773082,-0.0015506977215409,-0.0043184859678149,-0.0062537505291402,0.0065450213596974,-0.002646157901309,-0.9310576438197484,13.939870834350586,15.574089050292969,-33.951446533203125,-0.018565005938214692,1013.6512248724529
0.61251220703125,-0.0164967786295339,0.0886554122562985,0.0070879124343395,0.0010619089007377,-0.0014875745400786,-0.002846407238394,0.0065379412172255,-0.0026666116093041,-0.93110731109585,13.695619583129885,15.745399475097656,-33.951812744140625,-0.018776396692911132,1013.6512447094847
0.62258154296875,-0.0245426630755653,0.1118638082205317,-0.040049101793766,0.0015018638223409,0.0020448425784707,-0.0005196034908294,0.0065546866618741,-0.0026701348463081,-0.9311307832844452,13.758840560913086,15.64032745361328,-33.538116455078125,-0.018987797698844403,1013.6512645474785
0.6326494140625,-0.0143774849206209,0.1256928472118452,-0.0196983876824378,0.0006836177781224,0.0034913858398795,-0.0001007383689284,0.0065610460964529,-0.002653837534904,-0.9311296470228688,13.70938491821289,15.652938842773438,-33.711395263671875,-0.01919916795106718,1013.6512843825864
0.642718505859375,0.0038573010492371,0.1186137391384691,-0.0285275908261537,0.0021659331396222,-0.0030061942525207,0.0034974585287272,0.0065716006659482,-0.0026516961985627,-0.9311072019779684,13.99685287475586,15.665657043457031,-33.860748291015625,-0.019410563831382035,1013.6513042200992
0.652787353515625,0.0159910164979053,0.090977434596233,-0.0015957447588443,0.0020285677164793,-0.0008115782402455,0.0046347244642674,0.0066068758525773,-0.0026835479121198,-0.931078992286996,14.074422836303713,15.459129333496094,-33.891632080078125,-0.019621954586078474,1013.651324057131
0.66285546875,0.0138604547595954,0.0437231643637409,0.0299772051125764,-0.000406626611948,0.0025517279282212,0.0055292802862823,0.0066100592018552,-0.0026799142970673,-0.9310321620903148,13.960813522338867,15.680519104003906,-33.829254150390625,-0.01983332996391967,1013.6513438927199
0.672924560546875,0.0059195810410194,0.0051547569812508,-0.025239070674777,0.001212521456182,0.0002324758097529,0.0056269220076501,0.0066139439749289,-0.0026788864682921,-0.9309734912935916,13.96096420288086,15.975975036621094,-33.752838134765625,-0.020044725844234522,1013.6513637302327
0.682993408203125,-0.0117283860507886,-0.0272269519897876,-0.0051870472490787,-9.72216948866e-05,0.0007315524853765,0.005724127870053,0.0066078265649396,-0.0026798313064379,-0.9309139490734564,13.873199462890623,15.828529357910156,-34.036529541015625,-0.020256116598930965,1013.6513835672645
0.693061279296875,0.000349578339362,-0.0528350980055518,0.0072322893410921,-0.0013619409874081,-0.002284359652549,0.0069960416294634,0.0066057754455932,-0.0026907382564715,-0.9308554642268956,13.90150260925293,15.664894104003906,-33.813201904296875,-0.020467486851153738,1013.6514034023724
0.703130615234375,0.0142859227632055,-0.048408509168378,-0.0147626848459243,0.0007033413276076,0.0017700367607176,0.0033682831563055,0.0065841390022197,-0.002692782488781,-0.9308106243281856,13.633010864257812,15.74640655517578,-33.387908935546875,-0.020678887857087012,1013.6514232403662
0.71319921875,0.0219753401880734,-0.0358688980662496,-0.0162578918397426,-0.0002205371856689,0.0007272744551301,0.001448527444154,0.006565826206605,-0.0026834267006123,-0.9307914787608615,13.741643905639648,15.733551025390623,-33.658294677734375,-0.020890273486165036,1013.6514430769171
0.723267333984375,0.0392832959198858,-0.0282834159398917,0.022049919244647,-0.0003888495266437,0.0004902528598904,0.0008767466060817,0.0065611319895609,-0.0026783277227969,-0.9307859179474056,13.852706909179688,16.082664489746094,-33.817779541015625,-0.02110164886400623,1013.6514629125058
0.73333642578125,0.0330000897478428,-0.0310967608941486,0.0211520936220884,0.0017122440040111,0.0016050566919147,-0.0014300504699349,0.0065641667890597,-0.0026784881617302,-0.9307871725004022,13.65736198425293,15.673744201660156,-33.567779541015625,-0.021313044744321084,1013.6514827500187
0.7434052734375,0.0203076056219637,-0.0492884886069921,-0.0434913512021303,-0.0011911336332559,0.0001954454928636,-0.0041062608361244,0.0065554407495309,-0.0026812120001646,-0.9308133779817032,13.905572891235352,15.732101440429688,-33.918487548828125,-0.021524435499017523,1013.6515025870506
0.753473388671875,-0.0023126882560085,-0.0553600362061755,0.0094803605288267,0.0009291199967265,0.0021529956720769,-0.0044068484567105,0.0065619256655114,-0.0026786609874445,-0.9308503498026516,13.752193450927734,15.676353454589844,-33.673736572265625,-0.021735810876858715,1013.6515224226393
0.76354248046875,-0.0127322681469959,-0.0465735625259112,-0.0713239455014467,9.9278986454e-05,0.0036379736848175,-0.0049615846946835,0.0065728869405551,-0.0026537567604976,-0.9308996202887369,13.76828384399414,15.719512939453123,-34.171966552734375,-0.02194720675717357,1013.6515422601523
0.773611083984375,0.0132200813466915,-0.033578713902994,0.0009504325926303,0.0016160523518919,0.0013847448863089,-0.0067342105321586,0.0065857375348378,-0.0026298715371963,-0.9309542364248024,13.640867233276367,15.870582580566406,-33.975128173828125,-0.022158592386251594,1013.6515620967031
0.783679443359375,0.0584240953853353,-0.0276379165440099,0.1691419301748275,0.0010144440457224,-0.004844388924539,-0.0083004152402281,0.0065964371958029,-0.0026465033649869,-0.9310170619011796,13.99553680419922,15.659660339355469,-33.640106201171875,-0.022369972889711202,1013.6515819327728
0.79374853515625,0.0947327594086062,-0.0215099443161627,0.0833989986985921,0.0003229361027479,-0.005119883455336,-0.0074053788557648,0.0065957062863224,-0.0026868479669718,-0.931069129534016,13.67363739013672,15.467933654785156,-33.849090576171875,-0.022581368770026058,1013.6516017702858
0.8038173828125,0.0834949333537369,0.0065383294272935,0.0359621247410774,0.0019583832472562,-0.0063515952788293,-0.0063166785985231,0.0066024406593671,-0.0027310950486738,-0.931123185821793,13.458616256713867,15.675704956054688,-34.525604248046875,-0.022792759524722497,1013.6516216073176
0.813885498046875,0.0272986267032218,0.0536617535214638,0.0624468115627765,-0.0023992173373699,-0.0065874163992702,-0.0023263155017048,0.0066011739559054,-0.0027837492672058,-0.9311613491568366,13.581878662109377,15.565216064453123,-34.574859619140625,-0.023004134902563693,1013.6516414429065
0.823954345703125,-0.0390414271551417,0.0717715705379378,-0.0203051214039325,0.0034240512177348,-0.0036384982522577,-0.0005803471431136,0.0066168069493254,-0.0028243682501215,-0.9311814248889516,13.659412384033203,15.55316162109375,-34.130157470703125,-0.02321552565726013,1013.6516612799383
0.8340234375,-0.081268215481285,0.0839633911157026,-0.0741764123231172,-0.0002031493932008,-0.000887066591531,0.0001062359660863,0.0066393250396173,-0.0028366715000299,-0.9311724991811996,13.491649627685549,15.5135498046875,-34.237335205078125,-0.023426921537574984,1013.6516811174511
0.84409130859375,-0.0895613115874584,0.0679906728928908,-0.0973702409058809,0.0004525203257799,0.001413105521351,0.003539849538356,0.0066432512996923,-0.0028302448527598,-0.9311539278570774,13.641733169555664,15.430076599121094,-34.253509521484375,-0.023638291789797764,1013.6517009525589
0.854160400390625,-0.0620681144434958,0.0658924448048928,-0.1196650748223066,-0.0007883002981543,0.0042026946321129,0.0053785215131938,0.0066429139484911,-0.0027956352371062,-0.9311080414393912,13.793859481811523,15.482955932617188,-34.192962646484375,-0.02384968767011262,1013.6517207900717
0.864229248046875,-0.0338660520775476,0.0549451398289296,-0.0325742358684539,-0.0016753999516367,0.0025808298960328,0.0064810696057975,0.0066252322921642,-0.0027570149264406,-0.9310482789284612,13.945989608764648,15.529251098632812,-33.812713623046875,-0.024061078424809056,1013.6517406271035
0.87429736328125,0.015070152493054,0.0447608733810251,0.0738192694485187,-0.0023656357079744,0.0010650344192981,0.0086137373000383,0.006624324031919,-0.0027269763749451,-0.9309684540769492,13.752912521362305,15.49560546875,-33.804351806640625,-0.02427245380265025,1013.6517604626924
0.884366455078125,0.0638617655277717,0.0286949421831173,0.0724742845803499,-0.0007621478289365,0.0023137908428907,0.0092398459091782,0.0066034853985125,-0.0027127114897858,-0.9308956135161892,13.33028793334961,15.783561706542969,-33.866729736328125,-0.024483849682965103,1013.6517803002052
0.894435302734375,0.0882133219114504,0.002217799347057,0.077114219340682,0.0011474676430225,-0.003961999900639,0.0057981945574283,0.0065891149894311,-0.0027086959391648,-0.9308258994845108,13.53081512451172,15.811019897460938,-33.881500244140625,-0.024695240437661546,1013.651800137237
0.904503173828125,0.0731136419298127,-0.0210458978678332,0.0394049586713314,-0.0012701507657766,-0.0032400169875472,0.0035821786150336,0.006581990272578,-0.0027406135107172,-0.9307790929236966,13.74742317199707,15.725746154785156,-33.720794677734375,-0.02490661068988432,1013.6518199723449
0.914572509765625,0.0327188342542038,-0.0386586566489422,-0.0201519766688346,0.000526463612914,-0.0021110409870743,0.0032462319359183,0.0065865261784742,-0.0027718812412448,-0.9307421122404248,13.977025985717772,15.576690673828123,-33.873992919921875,-0.025118011695817594,1013.6518398103387
0.92464111328125,-0.0221393853430985,-0.0384998995903879,-0.0731219348341226,-0.0008354764431715,0.0014022011309862,-0.0010694207157939,0.0065569380199396,-0.0027778744899864,-0.9307326584699812,13.93488311767578,15.55560302734375,-33.959564208984375,-0.025329397324895617,1013.6518596468895
0.934709228515625,-0.0474048028853954,-0.0452723117681918,-0.043943186622858,0.0019322941079735,0.0012846100144088,-0.0041948864236474,0.0065682484251244,-0.002764995407047,-0.9307514705639146,13.779125213623049,15.579315185546877,-34.187225341796875,-0.02554077270273681,1013.6518794824784
0.9447783203125,-0.0282237718742573,-0.0643664362474344,-0.0081803838461637,0.0018854225054383,0.0039317919872701,-0.0015394485089927,0.0065895740851137,-0.0027372735328035,-0.9307802885794224,13.859838485717772,15.694869995117188,-33.845306396484375,-0.025752168583051665,1013.6518993199912
0.954847412109375,0.0394547252303455,-0.0994775153834372,0.0064846858441829,0.0016263741999864,0.0028329826891422,-0.0046930667012929,0.0065950553677036,-0.0027110679899862,-0.9308282953475356,13.992439270019531,15.428062438964844,-33.486114501953125,-0.02596356446336652,1013.651919157504
0.964915283203125,0.1120592029284685,-0.1248856590148061,0.0527215363621711,0.0022436948493123,-0.0014642938040196,-0.0056398203596472,0.0066133998494658,-0.0026988940128355,-0.9308920424942284,13.932043075561523,15.391845703125,-33.516082763671875,-0.0261749347155893,1013.6519389926119
0.974984375,0.124781321857497,-0.0921692016640677,0.1035965680748224,0.0034483820199966,-0.0051820613443851,-0.0103258565068244,0.0066383927982671,-0.0027144513347843,-0.9309735896992424,13.677410125732422,15.375518798828123,-33.626556396484375,-0.026386330595904152,1013.6519588301247
0.985053466796875,0.064534029632993,-0.0372703623620094,0.0678325962543487,6.2463805079e-06,-0.0048321215435862,-0.0100206574425101,0.0066365415483949,-0.0027354883350541,-0.9310745652140524,13.792268753051758,15.310523986816406,-34.376434326171875,-0.026597726476219007,1013.6519786676375
0.995121337890625,-0.0081806167416041,-0.0490785767499357,0.0420937593638896,0.0002097431570291,-0.0031355563551187,-0.0083219753578305,0.0066378828987813,-0.0027669479817472,-0.9311725742206682,13.827774047851562,15.57183837890625,-34.254852294921875,-0.026809096728441784,1013.6519985027454
1.0051904296875,-0.0583522083260584,0.0189105389401083,-0.0557698180168867,5.76768070459e-05,-0.0007980996742844,-0.0066519072279334,0.0066433526974238,-0.0027930820959639,-0.931249210721682,13.737943649291992,15.426239013671877,-34.174346923828125,-0.027020492608756642,1013.6520183402582
1.015259521484375,-0.0826731138431467,0.1221985022900626,-0.1097907465398311,0.0018669972196221,0.0001921979710459,-0.0062203267589211,0.0066624891724031,-0.002800223322781,-0.9313142169783916,13.627046585083008,15.582687377929688,-34.180633544921875,-0.027231888489071494,1013.652038177771
1.025327392578125,-0.0607011369392275,0.1505222228408791,-0.106648356860876,-0.0011927084997296,0.0038796104490756,0.0001241220161318,0.0066667929084471,-0.0027824401562728,-0.9313518126164948,13.579132080078123,15.46979522705078,-34.278289794921875,-0.027443258741294274,1013.6520580128789
1.035396240234375,-0.023680986478622,0.1393831718522123,-0.0007031798332929,-0.0019963877275586,0.0016422858461737,0.0005211676470935,0.0066600770088717,-0.0027427467497484,-0.9313521542924312,13.738470077514648,15.63335418701172,-34.008026123046875,-0.027654649495990714,1013.6520778499108
1.045465576171875,0.0286651201503002,0.1171157373993657,0.0786053346812725,0.0024316506460309,0.0003908667713403,0.0058970241807401,0.0066629904945144,-0.002709469447562,-0.9313225344920052,13.956401824951172,15.450569152832031,-34.061248779296875,-0.027866050501923985,1013.6520976879046
1.055533203125,0.0660923375914338,0.0873099433309398,0.0977583634406328,6.27459958195e-05,-0.0035984870046377,0.003533081151545,0.0066754030908693,-0.0027112862040713,-0.9312807552594458,13.948204040527344,15.49993896484375,-33.542144775390625,-0.028077415628528342,1013.6521175225315
1.065602294921875,0.072680027152365,0.0623796646106988,0.0537637388914823,0.0004726061597466,-0.0015081716701388,0.005848167464137,0.0066814395049194,-0.0027421752339761,-0.9312462731053872,13.646127700805664,15.598770141601562,-33.565093994140625,-0.0282888115088432,1013.6521373600443
1.07567138671875,0.0237399638239759,0.0021195448706625,-0.0069902972787618,-0.0022152010351419,-0.002224619500339,0.0066787241958081,0.0066859097545881,-0.002771820306992,-0.931184762842154,13.619449615478516,15.7208251953125,-33.840545654296875,-0.028500207389158053,1013.6521571975571
1.085739501953125,-0.0380258272216771,-0.0576794007981428,-0.0173152919381856,1.86581164598e-05,0.0012204456143081,0.0049237017519772,0.0066763712565282,-0.0027906016358396,-0.9311215225021836,13.576370239257812,15.763671875,-33.672943115234375,-0.028711582766999248,1013.6521770331459
1.095808349609375,-0.0677977441366761,-0.0486424731878796,-0.0426034624516963,0.0009737974032759,0.000595134217292,0.005246712360531,0.0066670949419114,-0.0027912098321777,-0.9310716779790013,13.841419219970703,15.718254089355469,-33.657501220703125,-0.028922973521695684,1013.6521968701778
1.10587744140625,-0.0456033201211132,-0.0394697127369232,-0.0743248808830976,-0.0012129247188568,0.0039230203256011,0.0027468027547001,0.0066411520493885,-0.0027808508549819,-0.93102091333116,13.660491943359377,15.74712371826172,-34.182098388671875,-0.029134369402010543,1013.6522167076906
1.1159453125,-0.000620700598054,-0.0368265778169967,-0.0437964716285467,-0.0004228772595524,0.0013053375296294,0.0016100797802209,0.0066207593531153,-0.0027443868566263,-0.9309967724378044,13.899505615234377,15.62834930419922,-33.904266357421875,-0.029345739654233323,1013.6522365427985
1.126014404296875,0.0592906947525683,-0.0554371519964188,0.0280313317418098,0.0002040304243564,0.0014861659146845,-0.0020847897976636,0.0065998395672836,-0.0027348742224827,-0.9309884692967976,13.802328109741213,15.613357543945312,-33.753326416015625,-0.029557135534548175,1013.6522563803113
1.13608349609375,0.0826540986154228,-0.0718399367661448,0.0980611457794904,-0.0005576871335506,-0.0018035043030977,-0.0025693965144455,0.0066056875964011,-0.0027369078606778,-0.9310031875034648,13.86300277709961,15.832481384277344,-34.009185791015625,-0.029768531414863034,1013.6522762178241
1.1461513671875,0.0821303578691091,-0.0721323210085742,0.0950678091824054,0.0020258454605937,-0.0012253322638571,-0.0025507544633001,0.0066063902041265,-0.002759795244209,-0.9310269661420656,13.91897964477539,15.843589782714844,-33.825286865234375,-0.02997990166708581,1013.652296052932
1.156220458984375,0.0438585085806669,-0.0480647509317379,0.0016927753925323,0.001539047807455,-0.0024681037757545,-0.0062173698097467,0.006619193574082,-0.0027786622514669,-0.9310683259433988,13.67874526977539,15.6357421875,-33.557525634765625,-0.030191297547400662,1013.6523158904448
1.166289306640625,-0.0130963316694367,-0.0201663294211728,-0.0605570522934198,0.0023228162899613,0.0022084065712988,-0.004761419724673,0.0066259063959964,-0.0027844833854553,-0.9311227265488602,13.653982162475586,15.580810546875,-33.803985595703125,-0.0304026883020971,1013.6523357274766
1.1763583984375,-0.0675354262389475,0.010239992390247,-0.1163724630177021,0.0012208558619022,0.002522733528167,-0.0039235553704202,0.0066442132721892,-0.0027569221977343,-0.9311657071655376,13.841316223144531,15.613174438476562,-33.884490966796875,-0.030614084182411953,1013.6523555649894
1.18642626953125,-0.063830137413647,0.0407403171946294,-0.0584627103626728,-0.0014175372198224,0.0062154722400009,-0.00307027855888,0.0066568467899739,-0.0027227686146161,-0.9311963403956868,13.634286880493164,15.76171875,-33.689849853515625,-0.030825454434634733,1013.6523754000973
1.196495361328125,-0.0100557469806983,0.0257096655949018,0.0584048426955938,-0.0001801811158657,0.0032580960541963,-0.0035729366354644,0.0066652846069432,-0.0026825476000199,-0.9312273165881028,13.486017227172852,15.689956665039062,-33.768157958984375,-0.031036850314949592,1013.6523952376101
1.206564208984375,0.0665306468103081,-0.0006684647129382,0.0772591807693243,0.0016813687980175,-0.0009984346106648,-0.0034357837866991,0.0066762699452552,-0.0026644277127929,-0.9312623825038852,13.813508987426758,15.601593017578123,-34.039093017578125,-0.03124824106964603,1013.6524150746419
1.21663232421875,0.1074790994634386,0.0005080910860328,0.0798024355113506,0.003084909170866,-0.0050130127929151,-0.0040222695097327,0.0066894333283331,-0.0026590996256248,-0.9312999603460472,13.91689109802246,15.605545043945312,-34.259918212890625,-0.031459616447487224,1013.6524349102308
1.226701416015625,0.0976847502151504,0.0169863887773826,0.1074818850755691,0.000534932129085,-0.0035759708844125,0.0027544097974896,0.0067218044467388,-0.0026979533733919,-0.9313170669937704,13.74659538269043,15.752952575683594,-33.961456298828125,-0.031671012327802076,1013.6524547477436
1.236770263671875,0.029150316701224,0.0471284975615097,0.0485229156285524,0.0008546793833374,-0.005191842559725,0.0031295614317059,0.0067284277150995,-0.0027436886523713,-0.9312929928988832,13.885881423950195,15.594589233398438,-33.790618896484375,-0.03188240308249851,1013.6524745847755
1.246838134765625,-0.0276634391443338,0.0559395531271817,-0.015673369950056,-0.0005685137584805,-0.0014437097124755,0.0016906559467315,0.0067418958756206,-0.0027791567350022,-0.9312755200454732,13.731830596923828,15.587257385253906,-34.007293701171875,-0.0320937733347213,1013.6524944198833
1.256907470703125,-0.065731943313824,0.0561896371644223,-0.0782224728435277,0.0031148064881563,-0.0018516522832214,0.0021609622053802,0.0067521384684262,-0.0027882405912515,-0.9312582477779588,13.653371810913086,15.596549987792969,-33.790313720703125,-0.032305174340654566,1013.6525142578771
1.2669765625,-0.0648410314892418,0.0478849099859595,-0.1151835454940795,0.0023209182545542,0.0037180827930569,0.00414315238595,0.0067597842042809,-0.002787536186423,-0.9312164327822838,13.744163513183594,15.751571655273438,-33.879669189453125,-0.03251657022096942,1013.6525340953899
1.277044189453125,-0.0370440633424441,0.0204186602144269,-0.062958852738142,-0.0021004071459174,0.0033301976509392,0.0069532343186438,0.0067513643405182,-0.002753384722476,-0.9311638601166532,13.692773818969728,15.624549865722656,-33.803192138671875,-0.03272793534757378,1013.6525539300168
1.287113525390625,-0.0055265037699369,0.0150139242272125,0.0402922628998756,0.0009286720305681,0.0026545538567006,0.0045049902983009,0.0067495512877627,-0.0027171585217878,-0.931119788792256,13.848794937133787,15.738075256347656,-34.115753173828125,-0.03293933635350706,1013.6525737680106
1.297182373046875,0.0445188082534587,-0.0211341561065986,0.0904214446812868,0.0013333223760128,-9.85576771199e-05,0.0035429666750133,0.0067560997259989,-0.0026934057701387,-0.9310839619120233,13.747528076171877,15.476318359375,-33.925506591796875,-0.03315072710820349,1013.6525936050425
1.30725048828125,0.0895473926599603,-0.0393643572328845,0.0441828405976295,3.76943498849e-05,-2.6652123779e-05,0.0026678522117435,0.0067587092760285,-0.0026921484829306,-0.9310526170817626,13.844524383544922,15.316299438476562,-34.265716552734375,-0.03336210248604468,1013.6526134406313
1.3173193359375,0.0721640358876669,-0.0225222768635954,-0.0062432783037424,-0.0030647534877061,0.0004922072403132,0.0018860129639506,0.0067366207385977,-0.0026895587925805,-0.9310290632413426,13.780895233154297,15.234527587890623,-33.668914794921875,-0.033573493240741124,1013.6526332776632
1.327388427734375,0.0108768792214104,-0.0007166055704466,-0.0643020840406417,0.0021411944180727,-0.0002540103159844,0.0005230070091784,0.006732397061964,-0.002680851913146,-0.9310140243558211,13.731315612792969,15.334190368652344,-33.456329345703125,-0.03378488912105598,1013.652653115176
1.337456298828125,-0.0405097370088798,0.0403893757319543,0.0310153159886598,0.0022027064114809,-4.04268503189e-05,-0.0012352422345429,0.0067583920607448,-0.0026746406197573,-0.9310120848700002,13.731241226196287,15.195877075195312,-33.851165771484375,-0.033996259373278756,1013.6526729502839
1.347525390625,-0.0424379422922153,0.0324567013028543,0.0618389087975025,0.0027246857061982,0.0017723864875733,-0.0018576229922473,0.0067887183053789,-0.0026611243583589,-0.9310235529507188,13.653030395507812,15.317832946777344,-33.871063232421875,-0.03420765525359361,1013.6526927877967
1.357594482421875,0.0191933379368623,-0.0270081124741816,0.0112613987267017,-0.0002062544226646,0.0013038734905421,-0.0018893450032919,0.0067979929494106,-0.0026438853787253,-0.931054221463578,13.733816146850586,15.37786865234375,-33.775726318359375,-0.034419051133908474,1013.6527126253095
1.367662353515625,0.0689597462539095,-0.0879173346395604,-0.0457487747400999,-0.0010584658011794,0.0013017430901527,-0.0040342551656067,0.0067820481520734,-0.0026222102137764,-0.9310896197051513,13.619661331176758,15.552078247070312,-33.607818603515625,-0.03463042138613125,1013.6527324604174
1.377731201171875,0.0644931268004467,-0.1065774653154425,0.0184445882290601,0.0056783184409141,0.0007976698689162,-0.0051551489159464,0.0068018535710883,-0.0026092471438959,-0.9311255341685524,13.667032241821287,15.391319274902344,-34.094085693359375,-0.03484181214082768,1013.6527522974492
1.387800537109375,0.0163126610841485,-0.0947495370134711,0.0563005638927221,-0.0009702639654278,-0.0032774994615465,-0.0043218457140028,0.0068330398175365,-0.0026095371615422,-0.9311745960242138,13.560514450073242,15.105018615722656,-34.147857666015625,-0.03505321314676095,1013.652772135443
1.397868408203125,-0.0209020598171977,-0.0495902114999247,0.0711146866649389,-0.0013222694396972,-0.0015429127961397,-0.000402707606554,0.006829855651238,-0.0026293897301219,-0.9312040563508612,13.774368286132812,15.381004333496094,-34.105072021484375,-0.03526458339898374,1013.6527919705509
1.407937255859375,-0.0290019577390979,0.0387171134044881,0.0329576822280883,-0.0013803262263536,-0.0031634462065994,-0.0010935314930975,0.006816751860758,-0.002642663327315,-0.931217434183446,13.889398574829102,15.1575927734375,-33.964202880859375,-0.03547597415368017,1013.6528118075827
1.41800634765625,-0.0099640660922741,0.0951438518269918,-0.0545809004932641,0.000580633059144,0.0005052546039223,-0.0007042079232633,0.00681811417075,-0.0026613812891058,-0.9312322940886822,13.920368194580078,15.370628356933594,-33.997589111328125,-0.035687370033995025,1013.6528316450955
1.4280751953125,-0.0041905241921311,0.1031259366220794,-0.084059508433938,-0.0004635928198695,-4.81503084301e-05,0.0008441540412604,0.0068233443805939,-0.0026550257395256,-0.9312243457394608,13.847923278808594,15.330825805664062,-33.958160400390625,-0.03589876078869146,1013.6528514821273
1.438143310546875,0.0009907646030187,0.0895592931603081,0.0190390469908714,0.0019772890955209,-0.0012489659711718,0.0039487197063863,0.0068437413459745,-0.002649312761929,-0.9312045426872616,13.833528518676758,15.245826721191406,-33.787811279296875,-0.036110136166532664,1013.6528713177162
1.44821240234375,-0.0007864353866665,0.0893647387025877,0.0753004479169845,0.0024012643843889,-3.53632494807e-05,0.0038874675519764,0.0068849371650831,-0.0026511948070526,-0.9311601833767073,13.641315460205078,15.249595642089844,-33.811737060546875,-0.036321532046847516,1013.652891155229
1.458281494140625,0.0238019048779737,0.0489098736861022,0.0432756626248359,0.0016205944120883,-0.0032559905666857,0.0037674172781407,0.0069100818340103,-0.0026713265731105,-0.9311295964384048,13.704721450805664,15.394271850585938,-33.844085693359375,-0.03653292792716237,1013.6529109927418
1.468349365234375,0.0407902572835795,-0.0135400796818314,-0.0064051908671855,-0.0019379211589694,-0.0022578379139304,0.0051930076442658,0.0069201323023647,-0.0026946726564994,-0.9310828169953924,13.60399055480957,15.090339660644531,-33.834808349609375,-0.036744298179385154,1013.6529308278497
1.47841845703125,0.0370512945175403,-0.0640473329614382,-0.0159819975078105,0.0013528745621442,-0.0009910385124385,0.0038210065104067,0.0069120377626974,-0.0027101334299665,-0.9310372574735408,13.719575881958008,15.1854248046875,-34.138214111328125,-0.036955694059700006,1013.6529506653625
1.4884873046875,0.0038986125904484,-0.0615771571553545,-0.0105956282943487,0.0016546109691262,-0.0013633486814796,-0.0005465778522193,0.0069197848147946,-0.0027169518271066,-0.9310139369610876,13.625825881958008,15.023445129394531,-34.360260009765625,-0.03707991620650062,1013.6529648518213
1.498555419921875,-0.0414725632922025,-0.0384303460520925,-0.0085007018417119,-0.0007963124662637,0.0014827037230134,0.0021661175414919,0.0069149898261262,-0.0027290518079942,-0.9310007694889564,13.585628509521484,15.054702758789062,-34.206146240234375,-0.03718586762337589,1013.6529778534614
1.508624267578125,-0.0489315557949477,-0.0025437113997526,-0.0167296010047197,-0.001164361834526,0.0012222463265061,0.0013879421167075,0.0068970399920939,-0.0027161266675294,-0.9309852496046414,13.814416885375977,15.288314819335938,-33.878692626953125,-0.03729182674786411,1013.6529908560473
1.518693359375,-0.0049846200121566,0.0099443613113835,-0.0637134704977274,-0.0020179152488708,0.0019474914297461,-0.0012302703689783,0.0068734716705521,-0.0026961227100023,-0.9309845651771363,13.566854476928713,15.318161010742188,-33.781524658203125,-0.037397788441556654,1013.6530038589485
1.52876123046875,0.0390460211318684,0.0021762160944985,-0.0156780461251735,-0.0013345479965209,0.0015719858929514,0.0007258215919137,0.0068595393285256,-0.0026693962080438,-0.9309918756464278,13.573080062866213,15.14031982421875,-33.851409912109375,-0.0375037372892276,1013.6530168602733
1.53883056640625,0.0526667009023949,-0.0153729256987571,0.0332534503042697,0.0015441663563251,-0.0040970188565552,-0.0017344956286251,0.0068553029346946,-0.0026697685545522,-0.9309941531197296,13.651395797729492,14.972976684570312,-33.776702880859375,-0.037609701552124467,1013.6530298634898
1.548899169921875,0.0447042249900754,-0.0125140382694546,0.1023860232412815,-0.0019277976825833,-0.0027076476253569,-0.0005603078752756,0.0068569108892372,-0.0026817974933962,-0.931001577934596,13.801019668579102,14.9989013671875,-33.726165771484375,-0.03771565810740837,1013.6530428657605
1.55896728515625,0.0437022540064528,-0.004414656370785,0.0920598595380783,0.0008326983079314,-0.0043826419860124,-0.0016296554822474,0.0068588441132985,-0.0027016959311775,-0.9310092429005064,13.880172729492188,15.03009033203125,-33.956207275390625,-0.03782160952428364,1013.6530558674006
1.569036376953125,0.0364050667525851,0.0033564525547437,-0.009843348622322,0.0007381560280919,-0.0050407093949615,-0.0026192860677838,0.0068578192343662,-0.0027205294126622,-0.931025867311472,13.719377517700195,15.135833740234377,-33.724151611328125,-0.037927571217976186,1013.6530688703018
1.579105224609375,-0.0011597713442402,0.0081244204418035,-0.0634141952902078,-0.0018634516745805,-9.58167947828e-05,-0.0010936800390481,0.0068557357152163,-0.0027351975995255,-0.9310413973349936,13.571615219116213,15.215476989746094,-34.001434326171875,-0.038033530342464414,1013.6530818728878
1.589174560546875,-0.041600957178534,0.0245876712610712,-0.0689507866293191,-0.0010469257831573,0.0003673071041703,0.0014078272506594,0.0068560535496453,-0.0027312173665375,-0.931045721730088,13.589107513427734,15.21630859375,-33.972198486328125,-0.03813949460536127,1013.6530948761042
1.599242431640625,-0.0612731966395629,0.0486056209093658,-0.0542851324170827,-5.95366582274e-05,0.0014697220176458,0.0015719668008387,0.0068485376739077,-0.0027088487322345,-0.9310319696409318,13.62812042236328,15.196617126464844,-33.888031005859375,-0.03824544345303222,1013.6531078774291
1.6093115234375,-0.0198905835030018,0.0609336396540049,-0.0010135609567165,0.0009521981701254,0.0007354887202382,0.0005130940116941,0.0068544245817949,-0.002686756921466,-0.9310360113240264,13.549592971801758,15.058067321777344,-33.803558349609375,-0.03835140514672476,1013.6531208803303
1.61938037109375,0.0528888694528257,0.0275813640511827,0.0763484956651926,0.001284203492105,0.0012793010100722,-0.0001570540480315,0.0068714077172203,-0.0026619065775538,-0.9310255438271426,13.71412467956543,15.000450134277344,-33.448333740234375,-0.03845736427121299,1013.6531338829162
1.629448486328125,0.1003978085661306,-0.0258007094457978,0.0824830528974533,0.0026679821312427,-0.0036643247585743,-0.0012769130989909,0.0068753397625172,-0.0026694344226858,-0.9310366010794155,13.349201202392578,15.050201416015623,-33.690155029296875,-0.03856331568808826,1013.6531468845563
1.639517333984375,0.1047853212016634,-0.0693076144100865,0.0898135419160127,0.0011174976825714,-0.0008038869127631,-0.0018004863522946,0.0068944365706786,-0.0026895901367248,-0.931051998098328,13.553041458129885,15.20819854736328,-33.790557861328125,-0.03866927481257648,1013.6531598871422
1.64958642578125,0.0608995318884262,-0.0814762687413953,0.0751473031818866,0.0019209738820791,-0.0045245890505611,-0.002152822446078,0.006904800256078,-0.0027158293400647,-0.9310645978692716,13.552011489868164,15.24773406982422,-34.015899658203125,-0.038775236506269024,1013.6531728900435
1.659654296875,-0.0027184583285939,-0.0556486073565902,0.0049666824966669,-0.0012916224077343,-0.0019509750418365,-0.0002420302480459,0.0068987181003363,-0.0027593626631017,-0.9310780249583192,13.602838516235352,15.062232971191406,-33.940521240234375,-0.03888118535393998,1013.6531858913684
1.6697236328125,-0.0439733808317221,-0.0150898207413265,-0.0590787964344024,0.0002977531403303,-0.0029003920499235,-0.0040468885563313,0.0068994313422722,-0.0027792161564442,-0.9310922164205216,13.608013153076172,14.946571350097656,-34.251434326171875,-0.03898714961683684,1013.6531988945849
1.679792236328125,-0.0714708477254258,0.0154906109614064,-0.1005278281539678,4.7137029469e-05,0.0051085939630866,-0.001217198325321,0.0068897155616756,-0.0027828724169813,-0.931121186916522,13.57907485961914,14.887565612792969,-33.971099853515625,-0.039093106172120744,1013.6532118968555
1.6898603515625,-0.0549409568441566,0.037950891972077,-0.0949900677710771,0.0018514292314648,0.0022962959483265,-0.0018963043112307,0.0068912081418062,-0.002744207819078,-0.931140531146637,13.864980697631836,15.20014190673828,-33.941986083984375,-0.039199057588996014,1013.6532248984956
1.699929443359375,-0.0224767983206314,0.0637746854659402,-0.0212187291175127,0.0006052087992429,0.0033220839686691,-0.0012241748627275,0.0068999915097737,-0.0027129550556994,-0.9311480706549036,13.873619079589844,15.454742431640623,-34.114471435546875,-0.03930501928268856,1013.6532379013968
1.709998291015625,0.0223329922360368,0.068390061173751,0.0486620318382978,0.0015919096767902,-0.0006923647597432,0.0025774873793125,0.0069128645187655,-0.0026893859778229,-0.9311468514207156,14.034032821655272,15.208213806152344,-33.921295166015625,-0.03941097840717678,1013.6532509039828
1.720066162109375,0.0561672929018735,0.0707870849786559,0.0829278740555048,0.0020667286589741,-0.0020515145733952,0.0006711892783641,0.0069284124657861,-0.0026910389502827,-0.9311272130288688,14.029212951660156,15.38910675048828,-34.031829833984375,-0.039516927254847733,1013.6532639053077
1.730135498046875,0.0653385418157558,0.049587631383771,0.0606307020515203,-0.001713627949357,-0.0030954733956605,0.0012490949593484,0.0069334181291542,-0.0027107192676972,-0.9311160687115664,14.052412033081056,15.424644470214844,-34.055938720703125,-0.03962289151774459,1013.653276908524
1.740204345703125,0.0417531018332112,0.0199896074476651,-0.005958616143465,0.0010595116764307,-0.0002275104634463,0.0036226585507392,0.0069364998358554,-0.0027318222480941,-0.9310897253882155,13.958948135375977,15.086448669433594,-34.075347900390625,-0.03972885064223282,1013.65328991111
1.7502734375,-0.0155589497901499,0.0208820034098578,-0.0584819995850324,-0.001050510443747,-0.0020547052845358,0.002278828062117,0.0069359459362541,-0.0027469940826451,-0.9310587403910676,13.85400390625,15.29572296142578,-34.058685302734375,-0.03983481233592536,1013.6533029140112
1.760341552734375,-0.0679795624104095,0.0507069314370164,-0.0605780950814485,0.0017857439815998,-0.0005102739669382,0.0027733738534152,0.0069560020345483,-0.0027574150853271,-0.9310250301584392,14.073827743530272,15.289024353027344,-33.900726318359375,-0.03994076375280063,1013.6533159156513
1.77041015625,-0.0587263434346532,0.050852349523385,0.0130424369245767,-0.0009043151512742,0.0008751023560762,-0.0005395985208451,0.0069708309997819,-0.0027549360951584,-0.9310192322756164,13.972618103027344,15.338394165039062,-34.170745849609375,-0.04004672030808454,1013.6533289179221
1.7804794921875,0.0046446954171289,0.0033282722064526,-0.0029687866777181,-0.0006900997832417,0.0033684880472719,0.0018307059071958,0.0069770187565187,-0.0027472566804543,-0.9310251181499316,13.872652053833008,15.387046813964844,-34.173187255859375,-0.040152684570981395,1013.6533419211385
1.79054736328125,0.085097509712167,-0.0787397564495913,0.0015203414350748,0.0036330092698335,0.0002054516226053,-0.0010638837702572,0.0069854848203168,-0.002726672936382,-0.9310323720548694,13.91078758239746,15.304115295410156,-34.385040283203125,-0.04025863341865235,1013.6533549224633
1.800616455078125,0.1086672498020809,-0.1232245300027076,0.0700537794351577,-0.0007543349638581,0.0016363030299544,-0.002961088437587,0.0069964192451969,-0.0027192291699713,-0.9310509954550642,13.85432243347168,15.27179718017578,-34.442718505859375,-0.04036459511234489,1013.6533679253646
1.810685302734375,0.083714138195524,-0.1266714007872622,0.1094078847020864,0.0014118803665041,-0.0029789549298584,-0.004130482673645,0.0069958884853884,-0.0027381968132803,-0.931083005848135,13.72124481201172,15.261215209960938,-34.398162841796875,-0.040470554236833114,1013.6533809279505
1.82075341796875,0.0342665020876214,-0.1341762691251933,0.0666109455049037,-0.0004494683817028,-0.0030977330170571,-0.0058479267172515,0.0069935440817206,-0.0027618600639682,-0.9311296792786312,13.824581146240234,15.494712829589844,-34.286834716796875,-0.040576505653708385,1013.6533939295906
1.830822265625,-0.0281719868880929,-0.0578353174456395,-0.0367886386930942,-0.0022921096533536,-0.0024050448555499,-0.0023176404647529,0.0069809130777852,-0.0028035979517412,-0.931176294799114,13.958040237426758,15.512596130371094,-33.975250244140625,-0.040682464778196606,1013.6534069321766
1.840891357421875,-0.0518324877011124,0.0692498198082437,-0.110708445906639,0.0016300985589623,0.0030636223964393,-0.0061023500747978,0.0069700195560634,-0.0027865278393082,-0.9312125035645996,14.008325576782228,15.340316772460938,-34.309112548828125,-0.040788426471889155,1013.6534199350777
1.850959228515625,-0.0438507043001241,0.1163570005870889,-0.1024789622217416,0.0030245296657085,0.0036138310097157,-0.0023611413780599,0.0069823564015359,-0.0027612092566008,-0.9312512399445146,13.931282043457031,15.273696899414062,-33.997406005859375,-0.040894375319560104,1013.6534329364026
1.8610283203125,-0.0331405667976127,0.1015836756161414,-0.0293067585051059,0.000564225949347,0.0014580623246729,-0.0024684439413249,0.0070017753990786,-0.002739447647563,-0.9312762934916292,13.85965347290039,15.340896606445312,-34.256805419921875,-0.04100033701325265,1013.6534459393038
1.87109716796875,0.0107624293787521,0.0555644864368252,0.0613742138952016,0.000762365758419,0.0028314548544585,-0.0031321039423346,0.0070088316978337,-0.0026997048855434,-0.931310632200724,13.912994384765623,15.319686889648438,-34.320831298828125,-0.04110629613774087,1013.6534589418898
1.88116650390625,0.0653429622625466,0.0078839125170838,0.0745411539822816,0.0007603634148836,-0.0008583511225879,-0.0018668903503566,0.0070295795874272,-0.0026959124494763,-0.9313309980931604,13.899946212768556,15.423812866210938,-34.343170166015625,-0.04121226040063773,1013.6534719451063
1.891234130859375,0.0867978656229563,-0.0263337112108012,0.0598766688138246,0.0006698155775666,-0.0038956862408667,9.34624113142e-05,0.0070193562647333,-0.0027169564972299,-0.9313201961087813,13.849315643310549,15.18292236328125,-34.536895751953125,-0.041318206679104366,1013.6534849461158
1.90130322265625,0.0549102055128663,-0.0239058675759471,0.0233645089745521,-0.0003813337534666,-0.0022919306065887,-0.0005518211983144,0.0070227869152093,-0.0027307005257586,-0.9313120525073318,13.804319381713867,15.413864135742188,-34.387786865234375,-0.04142416837279691,1013.653497949017
1.91137255859375,-0.0069339434320456,-0.0050798148817848,-0.0134463415503501,-0.0007035760208964,-0.0020072385668754,0.0019041458144783,0.0070199029122673,-0.0027414917790783,-0.9312885990372288,13.878360748291016,15.289085388183594,-34.309173583984375,-0.041530132635693766,1013.6535109522335
1.9214404296875,-0.0625762603284558,0.0539879441353725,-0.0361918418437242,-0.0014101443812251,-0.0017322679050266,0.0049783797003328,0.0070159159461618,-0.0027590833013933,-0.9312452797082436,13.81987762451172,15.416236877441406,-34.618133544921875,-0.04163608148336472,1013.6535239535583
1.931509521484375,-0.0683286955084884,0.0644258565507829,-0.0599824672758579,-0.0022197449579834,0.001047539524734,0.0022987071424722,0.006996912248507,-0.0027523313725016,-0.9312159452065476,13.846296310424805,15.231895446777344,-34.531890869140625,-0.041742043177057264,1013.6535369564596
1.941578369140625,-0.0340525602261303,0.056893090992351,-0.0691097765833139,0.0008392352610826,-0.000135232694447,0.0015444755554199,0.0069917235387755,-0.0027380029495617,-0.9311879758178692,13.744514465332031,15.236289978027344,-34.338531494140625,-0.041848002301545485,1013.6535499590456
1.951646484375,0.0151667949676746,0.0153000750916777,-0.0245183551847934,0.002384134568274,0.0030549676157534,0.0023439568467438,0.0070076187383077,-0.0027215794341174,-0.931163729658861,13.660715103149414,15.191673278808594,-34.253204345703125,-0.041953953718420756,1013.6535629606856
1.96171533203125,0.0544066992704058,-0.0310374227891908,0.0598760842919349,0.0006873272359371,-0.0013592932373285,0.0022107032127678,0.0070279929262738,-0.0027098747543515,-0.9311560401416488,13.83729362487793,15.31988525390625,-34.357574462890625,-0.04205991284290898,1013.6535759632716
1.971784423828125,0.0672365209241863,-0.0545243160343961,0.0779816498249769,-0.0001427801325917,-0.0009196051396429,0.0002058753743767,0.0070438847466467,-0.0027058967818165,-0.9311462600169736,13.920614242553713,15.340843200683594,-34.536712646484375,-0.042165874536601526,1013.6535889661727
1.981852294921875,0.0599324952208669,-0.0585610927032306,0.0375789122879505,-0.0016075102612376,-0.001996065955609,0.000511712860316,0.0070442355875533,-0.0027240333258184,-0.9311479533983706,14.087949752807615,15.434661865234377,-34.291229248046875,-0.042271823384272475,1013.6536019674976
1.99192138671875,0.0128955210008658,-0.0395564640051918,-0.0245212777942419,0.0019129235297441,5.2996911108e-06,-0.0001173261553049,0.0070443022196643,-0.0027341157175459,-0.93115729582074,13.89881706237793,15.575775146484377,-34.121734619140625,-0.04237778507796502,1013.6536149703988
2.001990234375,-0.0528603192117763,0.0128421742452774,-0.0869201585620641,-0.0024713091552257,0.0043981899507343,-0.002178132534027,0.0070469003647203,-0.0027274944967857,-0.931172291311175,14.14057159423828,15.7952880859375,-34.247467041015625,-0.04248374420245324,1013.6536279729847
2.012059326171875,-0.0836763634684029,0.0589228386877104,-0.1089145482271909,-0.0008513089269399,0.0071814595721662,-0.0033158347941935,0.0070308540207446,-0.0026826650446839,-0.9311942154656484,13.905389785766602,15.52288055419922,-34.109832763671875,-0.04258970589614579,1013.653640975886
2.022127197265625,-0.0448220563831971,0.0892166263356339,-0.0421750079065561,0.0037613296881318,0.0033151553943753,-0.0015087542124092,0.0070376849365723,-0.0026316385013706,-0.9312064850852964,13.680608749389648,15.402244567871094,-33.877655029296875,-0.04269565474381674,1013.6536539772109
2.032196533203125,0.0198576128151617,0.0593715551361674,0.0212689980000257,0.0024358741939067,-0.0004795831628143,-0.0013018266763538,0.0070766115556253,-0.0026048149752108,-0.9312104484775384,13.818962097167969,15.59564971923828,-33.827423095703125,-0.0428016190067136,1013.6536669804273
2.042265380859375,0.0938306686028838,-0.0168461994219804,0.1083580833882093,0.0033438308164477,-0.0008583525195717,-0.0021731264423578,0.0070865459195581,-0.0025948664001574,-0.9312236906453452,13.929468154907228,15.64423370361328,-33.861114501953125,-0.04290757813120182,1013.6536799830133
2.052333251953125,0.1246347438605036,-0.0602351314292522,0.1146411091804504,0.0023179808631539,-0.0026461326051503,-0.0015944214537739,0.0071024149048384,-0.0026079571839465,-0.9312323521795336,13.867216110229492,15.652305603027344,-33.655975341796875,-0.04301352697887277,1013.6536929843381
2.062402587890625,0.093294260171242,-0.0739357765342341,0.0748357530146837,0.0019534593448042,-0.0050467043183743,0.0005845492705702,0.0071091463782449,-0.0026622417513467,-0.931230419338855,13.925724029541016,15.621429443359377,-33.665191650390625,-0.043119491241769635,1013.6537059875545
2.07247119140625,0.0066404723442276,-0.0426602980723138,0.0136316349893808,0.0015475936233997,-0.0033635867293924,0.001380568370223,0.0071245302222341,-0.0027066306244892,-0.9312256458061864,13.890405654907228,15.41845703125,-33.564117431640625,-0.04322544779705354,1013.6537189898253
2.082539306640625,-0.063867651845864,0.0249355302840936,-0.059840428456664,-0.0011843647807836,0.0005599013529717,-0.0005321004427969,0.0071204132571418,-0.002718951586204,-0.9312160557140936,13.520944595336914,15.302452087402344,-33.632476806640625,-0.04333139921392881,1013.6537319914654
2.0926083984375,-0.0874365836516022,0.0535793633344816,-0.1105658225655555,-0.0004527950659394,0.0019844258204102,-0.0002306303940713,0.0070963242963952,-0.0027112186800983,-0.931203020449356,13.616537094116213,15.394523620605469,-34.023284912109375,-0.043437360907621354,1013.6537449943665
