Timestamp,Acc x (g),Acc y (g),Acc z (g),Gyro x (deg/s),Gyro y (deg/s),Gyro z (deg/s),Beccheggio/Pitch (deg/s),Rollio/Roll (deg/s),Imbardata/Yaw (deg/s),Mag x (microTesla),Mag y (microTesla),Mag z (microTesla),Pressione (milliBar),Altitudine (m)
0.0,0.073,-0.115,0.938,1.159,-0.183,-0.671,0.0,0.0,0.0,0.0,0.0,0.0,0.0,0.0
0.01,0.076,-0.122,0.956,1.22,-0.244,-0.671,0.0,0.0,0.0,0.0,0.0,0.0,0.0,0.0
0.02,0.076,-0.12179999999999999,0.957,1.098,0.488,-0.854,0.0,0.0,0.0,0.0,0.0,0.0,0.0,0.0
0.029,0.076,-0.1216,0.958,2.012,1.768,-1.098,0.0,0.0,0.0,0.0,0.0,0.0,0.0,0.0
0.039,0.076,-0.1214,0.959,3.049,1.829,-1.341,0.0,0.0,0.0,0.0,0.0,0.0,0.0,0.0
0.049,0.076,-0.1212,0.96,2.073,1.463,-1.524,0.0,0.0,0.0,0.0,0.0,0.0,0.0,0.0
0.06,0.076,-0.121,0.961,1.463,1.28,-1.646,0.0,0.0,0.0,0.0,0.0,0.0,0.0,0.0
0.07,0.077,-0.12,0.955,1.037,1.159,-1.22,0.0,0.0,0.0,0.0,0.0,0.0,0.0,0.0
0.08,0.0776,-0.11979999999999999,0.9556,1.159,1.28,-0.549,0.0,0.0,0.0,0.0,0.0,0.0,0.0,0.0
0.09,0.0782,-0.1196,0.9561999999999999,1.28,1.89,-0.244,0.0,0.0,0.0,0.0,0.0,0.0,0.0,0.0
0.099,0.0788,-0.11939999999999999,0.9568,1.098,1.402,-0.366,0.0,0.0,0.0,0.0,0.0,0.0,0.0,0.0
0.109,0.0794,-0.1192,0.9573999999999999,0.976,0.183,-0.61,0.0,0.0,0.0,0.0,0.0,0.0,0.0,0.0
0.12,0.08,-0.119,0.958,1.524,1.341,-0.549,0.0,0.0,0.0,0.0,0.0,0.0,0.0,0.0
0.13,0.088,-0.125,0.961,2.134,2.439,-0.183,0.0,0.0,0.0,0.0,0.0,0.0,0.0,0.0
0.14,0.08566666666666667,-0.123,0.9593333333333333,1.89,2.378,0.183,0.0,0.0,0.0,0.0,0.0,0.0,0.0,0.0
0.15,0.08333333333333333,-0.121,0.9576666666666667,1.159,1.951,0.122,0.0,0.0,0.0,0.0,0.0,0.0,0.0,0.0
0.161,0.081,-0.119,0.956,0.854,1.646,0.122,0.0,0.0,0.0,0.0,0.0,0.0,0.0,0.0
0.169,0.079,-0.11699999999999999,0.9546666666666667,0.671,1.22,0.0,0.0,0.0,0.0,0.0,0.0,0.0,0.0,0.0
0.18,0.077,-0.115,0.9533333333333333,-0.488,0.549,-0.244,0.0,0.0,0.0,0.0,0.0,0.0,0.0,0.0
0.19,0.075,-0.113,0.952,-1.098,0.732,-0.305,0.0,0.0,0.0,0.0,0.0,0.0,0.0,0.0
0.2,0.075,-0.11566666666666667,0.9496666666666667,-0.976,0.854,-0.366,0.0,0.0,0.0,0.0,0.0,0.0,0.0,0.0
0.21,0.075,-0.11833333333333333,0.9473333333333332,-0.793,0.549,-0.305,0.0,0.0,0.0,0.0,0.0,0.0,0.0,0.0
0.221,0.075,-0.121,0.945,-0.854,0.427,-0.183,0.0,0.0,0.0,0.0,0.0,0.0,0.0,0.0
0.229,0.07766666666666666,-0.12266666666666666,0.946,-0.305,1.037,0.244,0.0,0.0,0.0,0.0,0.0,0.0,0.0,0.0
0.24,0.08033333333333334,-0.12433333333333334,0.947,0.366,1.037,0.549,0.0,0.0,0.0,0.0,0.0,0.0,0.0,0.0
0.25,0.083,-0.126,0.948,0.671,0.61,0.427,0.0,0.0,0.0,0.0,0.0,0.0,0.0,0.0
0.26,0.08333333333333334,-0.122,0.9513333333333333,0.915,0.122,0.061,0.0,0.0,0.0,0.0,0.0,0.0,0.0,0.0
0.27,0.08366666666666667,-0.11800000000000001,0.9546666666666667,0.61,0.671,0.061,0.0,0.0,0.0,0.0,0.0,0.0,0.0,0.0
0.281,0.084,-0.114,0.958,0.854,1.89,0.366,0.0,0.0,0.0,0.0,0.0,0.0,0.0,0.0
0.291,0.081,-0.122,0.969,0.671,2.439,0.732,0.0,0.0,0.0,0.0,0.0,0.0,0.0,0.0
0.3,0.08025,-0.1205,0.96375,-0.244,1.524,0.671,0.0,0.0,0.0,0.0,0.0,0.0,0.0,0.0
0.31,0.0795,-0.119,0.9584999999999999,-0.915,0.976,0.366,0.0,0.0,0.0,0.0,0.0,0.0,0.0,0.0
0.32,0.07875,-0.11750000000000001,0.9532499999999999,-0.915,0.61,0.244,0.0,0.0,0.0,0.0,0.0,0.0,0.0,0.0
0.331,0.078,-0.116,0.948,-0.61,0.488,0.305,0.0,0.0,0.0,0.0,0.0,0.0,0.0,0.0
0.341,0.083,-0.117,0.949,-0.122,0.793,0.549,0.0,0.0,0.0,0.0,0.0,0.0,0.0,0.0
0.351,0.083,-0.117,0.9508,-0.061,1.098,0.976,0.0,0.0,0.0,0.0,0.0,0.0,0.0,0.0
0.361,0.083,-0.117,0.9526,-0.427,0.854,1.037,0.0,0.0,0.0,0.0,0.0,0.0,0.0,0.0
0.37,0.083,-0.117,0.9543999999999999,-1.098,0.61,0.976,0.0,0.0,0.0,0.0,0.0,0.0,0.0,0.0
0.38,0.083,-0.117,0.9561999999999999,-1.159,0.61,1.037,0.0,0.0,0.0,0.0,0.0,0.0,0.0,0.0
0.391,0.083,-0.117,0.958,-0.488,-0.671,0.427,0.0,0.0,0.0,0.0,0.0,0.0,0.0,0.0
0.401,0.079,-0.114,0.951,-0.305,-1.28,-0.427,0.0,0.0,0.0,0.0,0.0,0.0,0.0,0.0
0.411,0.0798,-0.1136,0.9521999999999999,0.732,0.305,-0.366,0.0,0.0,0.0,0.0,0.0,0.0,0.0,0.0
0.421,0.0806,-0.11320000000000001,0.9533999999999999,1.341,1.22,-0.183,0.0,0.0,0.0,0.0,0.0,0.0,0.0,0.0
0.43,0.0814,-0.1128,0.9546,-0.183,0.427,-0.305,0.0,0.0,0.0,0.0,0.0,0.0,0.0,0.0
0.44,0.08220000000000001,-0.1124,0.9558,-1.646,-0.305,-0.305,0.0,0.0,0.0,0.0,0.0,0.0,0.0,0.0
0.451,0.083,-0.112,0.957,-2.561,-0.854,-0.427,0.0,0.0,0.0,0.0,0.0,0.0,0.0,0.0
0.461,0.086,-0.112,0.957,-2.622,-1.037,-0.61,0.0,0.0,0.0,0.0,0.0,0.0,0.0,0.0
0.471,0.08566666666666667,-0.11366666666666667,0.9583333333333333,-2.073,-0.549,-0.61,0.0,0.0,0.0,0.0,0.0,0.0,0.0,0.0
0.481,0.08533333333333333,-0.11533333333333334,0.9596666666666667,-0.549,0.488,-0.61,0.0,0.0,0.0,0.0,0.0,0.0,0.0,0.0
0.492,0.085,-0.117,0.961,1.098,1.159,-0.61,0.0,0.0,0.0,0.0,0.0,0.0,0.0,0.0
0.5,0.08466666666666667,-0.11633333333333334,0.96,2.195,-0.061,-0.732,0.0,0.0,0.0,0.0,0.0,0.0,0.0,0.0
0.511,0.08433333333333334,-0.11566666666666667,0.959,2.134,0.305,-0.488,0.0,0.0,0.0,0.0,0.0,0.0,0.0,0.0
0.521,0.084,-0.115,0.958,2.134,-0.061,-0.488,0.0,0.0,0.0,0.0,0.0,0.0,0.0,0.0
0.531,0.08233333333333334,-0.114,0.9583333333333333,1.89,-0.305,-0.427,0.0,0.0,0.0,0.0,0.0,0.0,0.0,0.0
0.541,0.08066666666666666,-0.113,0.9586666666666667,2.073,-0.732,-0.366,0.0,0.0,0.0,0.0,0.0,0.0,0.0,0.0
0.552,0.079,-0.112,0.959,2.561,0.0,-0.122,0.0,0.0,0.0,0.0,0.0,0.0,0.0,0.0
0.562,0.082,-0.114,0.962,3.78,-0.183,-0.305,0.0,0.0,0.0,0.0,0.0,0.0,0.0,0.0
0.571,0.08375,-0.11375,0.9615,4.329,-0.061,-0.366,0.0,0.0,0.0,0.0,0.0,0.0,0.0,0.0
0.581,0.08549999999999999,-0.1135,0.961,4.451,0.854,-0.671,0.0,0.0,0.0,0.0,0.0,0.0,0.0,0.0
0.591,0.08725,-0.11325,0.9604999999999999,3.963,1.037,-0.549,0.0,0.0,0.0,0.0,0.0,0.0,0.0,0.0
0.602,0.089,-0.113,0.96,3.72,0.549,-0.305,0.0,0.0,0.0,0.0,0.0,0.0,0.0,0.0
0.612,0.079,-0.115,0.957,3.354,0.061,-0.549,0.0,0.0,0.0,0.0,0.0,0.0,0.0,0.0
0.622,0.0816,-0.11520000000000001,0.9588,1.341,-1.22,-1.28,0.0,0.0,0.0,0.0,0.0,0.0,0.0,0.0
0.632,0.0842,-0.1154,0.9606,-0.549,-2.5,-2.012,0.0,0.0,0.0,0.0,0.0,0.0,0.0,0.0
0.641,0.0868,-0.11560000000000001,0.9623999999999999,-0.549,-1.707,-1.829,0.0,0.0,0.0,0.0,0.0,0.0,0.0,0.0
0.651,0.0894,-0.1158,0.9642,0.671,0.183,-1.341,0.0,0.0,0.0,0.0,0.0,0.0,0.0,0.0
0.662,0.092,-0.116,0.966,1.402,1.22,-1.037,0.0,0.0,0.0,0.0,0.0,0.0,0.0,0.0
0.672,0.089,-0.114,0.967,1.585,1.585,-1.098,0.0,0.0,0.0,0.0,0.0,0.0,0.0,0.0
0.682,0.088,-0.112,0.9652,1.585,1.402,-1.159,0.0,0.0,0.0,0.0,0.0,0.0,0.0,0.0
0.692,0.087,-0.11,0.9633999999999999,1.341,1.585,-0.976,0.0,0.0,0.0,0.0,0.0,0.0,0.0,0.0
0.701,0.08600000000000001,-0.108,0.9616,1.098,1.707,-0.854,0.0,0.0,0.0,0.0,0.0,0.0,0.0,0.0
0.711,0.085,-0.106,0.9598,0.244,1.098,-0.732,0.0,0.0,0.0,0.0,0.0,0.0,0.0,0.0
0.722,0.084,-0.104,0.958,-0.671,-0.549,-0.732,0.0,0.0,0.0,0.0,0.0,0.0,0.0,0.0
0.732,0.081,-0.104,0.95,-0.915,-0.976,-0.732,0.0,0.0,0.0,0.0,0.0,0.0,0.0,0.0
0.742,0.08366666666666667,-0.10666666666666666,0.9546666666666667,-0.732,-0.122,-0.488,0.0,0.0,0.0,0.0,0.0,0.0,0.0,0.0
0.752,0.08633333333333333,-0.10933333333333334,0.9593333333333333,-0.671,0.61,-0.183,0.0,0.0,0.0,0.0,0.0,0.0,0.0,0.0
0.763,0.089,-0.112,0.964,-0.549,0.915,-0.244,0.0,0.0,0.0,0.0,0.0,0.0,0.0,0.0
0.771,0.08966666666666666,-0.11266666666666666,0.9653333333333333,-0.61,1.22,-0.305,0.0,0.0,0.0,0.0,0.0,0.0,0.0,0.0
0.782,0.09033333333333333,-0.11333333333333334,0.9666666666666667,-0.061,2.012,-0.061,0.0,0.0,0.0,0.0,0.0,0.0,0.0,0.0
0.792,0.091,-0.114,0.968,0.305,2.378,0.366,0.0,0.0,0.0,0.0,0.0,0.0,0.0,0.0
0.802,0.088,-0.11333333333333334,0.964,-0.122,2.012,0.488,0.0,0.0,0.0,0.0,0.0,0.0,0.0,0.0
0.812,0.085,-0.11266666666666666,0.96,-0.671,1.89,0.488,0.0,0.0,0.0,0.0,0.0,0.0,0.0,0.0
0.823,0.082,-0.112,0.956,-1.098,1.707,0.366,0.0,0.0,0.0,0.0,0.0,0.0,0.0,0.0
0.833,0.078,-0.113,0.955,-1.402,1.037,-0.061,0.0,0.0,0.0,0.0,0.0,0.0,0.0,0.0
0.842,0.079,-0.116,0.95375,-1.524,0.793,-0.183,0.0,0.0,0.0,0.0,0.0,0.0,0.0,0.0
0.852,0.08,-0.119,0.9524999999999999,-0.976,0.793,-0.061,0.0,0.0,0.0,0.0,0.0,0.0,0.0,0.0
0.862,0.081,-0.122,0.9512499999999999,-0.427,0.61,0.061,0.0,0.0,0.0,0.0,0.0,0.0,0.0,0.0
0.873,0.082,-0.125,0.95,-0.061,0.61,0.061,0.0,0.0,0.0,0.0,0.0,0.0,0.0,0.0
0.883,0.085,-0.121,0.956,-0.122,1.098,0.0,0.0,0.0,0.0,0.0,0.0,0.0,0.0,0.0
0.893,0.0848,-0.1188,0.9578,-0.122,1.89,0.122,0.0,0.0,0.0,0.0,0.0,0.0,0.0,0.0
0.903,0.08460000000000001,-0.1166,0.9596,0.244,2.561,0.244,0.0,0.0,0.0,0.0,0.0,0.0,0.0,0.0
0.912,0.0844,-0.1144,0.9613999999999999,0.549,3.171,0.244,0.0,0.0,0.0,0.0,0.0,0.0,0.0,0.0
0.922,0.08420000000000001,-0.1122,0.9632,1.159,3.659,0.183,0.0,0.0,0.0,0.0,0.0,0.0,0.0,0.0
0.933,0.084,-0.11,0.965,2.073,3.598,-0.122,0.0,0.0,0.0,0.0,0.0,0.0,0.0,0.0
0.943,0.085,-0.108,0.958,3.171,3.354,-0.305,0.0,0.0,0.0,0.0,0.0,0.0,0.0,0.0
0.953,0.0852,-0.107,0.958,3.11,3.232,-0.244,0.0,0.0,0.0,0.0,0.0,0.0,0.0,0.0
0.963,0.0854,-0.106,0.958,2.378,2.561,-0.061,0.0,0.0,0.0,0.0,0.0,0.0,0.0,0.0
0.972,0.0856,-0.105,0.958,1.098,0.976,0.122,0.0,0.0,0.0,0.0,0.0,0.0,0.0,0.0
0.982,0.0858,-0.104,0.958,-0.915,-0.366,0.305,0.0,0.0,0.0,0.0,0.0,0.0,0.0,0.0
0.993,0.086,-0.103,0.958,-1.89,-0.793,0.61,0.0,0.0,0.0,0.0,0.0,0.0,0.0,0.0
1.003,0.084,-0.103,0.961,-2.073,-0.122,0.976,0.0,0.0,0.0,0.0,0.0,0.0,0.0,0.0
1.013,0.08366666666666667,-0.104,0.9613333333333333,-2.561,0.549,1.159,0.0,0.0,0.0,0.0,0.0,0.0,0.0,0.0
1.023,0.08333333333333334,-0.105,0.9616666666666667,-2.5,0.793,0.915,0.0,0.0,0.0,0.0,0.0,0.0,0.0,0.0
1.034,0.083,-0.106,0.962,-1.951,0.305,0.305,0.0,0.0,0.0,0.0,0.0,0.0,0.0,0.0
1.042,0.08266666666666667,-0.10966666666666666,0.9586666666666667,-1.402,0.122,-0.122,0.0,0.0,0.0,0.0,0.0,0.0,0.0,0.0
1.053,0.08233333333333334,-0.11333333333333334,0.9553333333333333,-0.244,0.183,-0.244,0.0,0.0,0.0,0.0,0.0,0.0,0.0,0.0
1.063,0.082,-0.117,0.952,0.61,0.0,-0.61,0.0,0.0,0.0,0.0,0.0,0.0,0.0,0.0
1.073,0.083,-0.11533333333333334,0.954,0.732,0.0,-0.732,0.0,0.0,0.0,0.0,0.0,0.0,0.0,0.0
1.083,0.084,-0.11366666666666667,0.956,0.244,0.244,-0.427,0.0,0.0,0.0,0.0,0.0,0.0,0.0,0.0
1.094,0.085,-0.112,0.958,-0.244,0.366,-0.061,0.0,0.0,0.0,0.0,0.0,0.0,0.0,0.0
1.104,0.086,-0.119,0.964,-0.915,0.305,0.244,0.0,0.0,0.0,0.0,0.0,0.0,0.0,0.0
1.113,0.0865,-0.1175,0.9642499999999999,-1.463,0.183,0.305,0.0,0.0,0.0,0.0,0.0,0.0,0.0,0.0
1.123,0.087,-0.11599999999999999,0.9644999999999999,-1.829,0.122,0.488,0.0,0.0,0.0,0.0,0.0,0.0,0.0,0.0
1.133,0.0875,-0.1145,0.96475,-2.012,0.732,0.732,0.0,0.0,0.0,0.0,0.0,0.0,0.0,0.0
1.144,0.088,-0.113,0.965,-1.829,1.28,0.793,0.0,0.0,0.0,0.0,0.0,0.0,0.0,0.0
1.154,0.086,-0.112,0.964,-1.646,1.341,0.549,0.0,0.0,0.0,0.0,0.0,0.0,0.0,0.0
1.164,0.08639999999999999,-0.1132,0.965,-1.646,0.366,0.183,0.0,0.0,0.0,0.0,0.0,0.0,0.0,0.0
1.174,0.08679999999999999,-0.1144,0.966,-1.829,-0.488,-0.061,0.0,0.0,0.0,0.0,0.0,0.0,0.0,0.0
1.183,0.0872,-0.1156,0.967,-1.402,-0.305,0.183,0.0,0.0,0.0,0.0,0.0,0.0,0.0,0.0
1.193,0.0876,-0.1168,0.968,-1.098,0.488,0.61,0.0,0.0,0.0,0.0,0.0,0.0,0.0,0.0
1.204,0.088,-0.118,0.969,-1.037,1.28,0.671,0.0,0.0,0.0,0.0,0.0,0.0,0.0,0.0
1.214,0.086,-0.117,0.971,-1.159,1.402,0.427,0.0,0.0,0.0,0.0,0.0,0.0,0.0,0.0
1.224,0.0848,-0.1174,0.9682,-1.159,1.098,0.122,0.0,0.0,0.0,0.0,0.0,0.0,0.0,0.0
1.234,0.0836,-0.1178,0.9653999999999999,-0.488,1.707,0.122,0.0,0.0,0.0,0.0,0.0,0.0,0.0,0.0
1.243,0.0824,-0.1182,0.9626,0.549,2.378,0.183,0.0,0.0,0.0,0.0,0.0,0.0,0.0,0.0
1.253,0.0812,-0.1186,0.9598,0.427,2.195,0.183,0.0,0.0,0.0,0.0,0.0,0.0,0.0,0.0
1.264,0.08,-0.119,0.957,-0.244,1.341,0.244,0.0,0.0,0.0,0.0,0.0,0.0,0.0,0.0
1.274,0.084,-0.115,0.955,-0.793,1.098,0.427,0.0,0.0,0.0,0.0,0.0,0.0,0.0,0.0
1.284,0.08366666666666667,-0.11366666666666667,0.9586666666666667,-0.732,1.22,0.549,0.0,0.0,0.0,0.0,0.0,0.0,0.0,0.0
1.294,0.08333333333333334,-0.11233333333333334,0.9623333333333333,-0.366,1.89,0.305,0.0,0.0,0.0,0.0,0.0,0.0,0.0,0.0
1.305,0.083,-0.111,0.966,0.549,3.171,0.183,0.0,0.0,0.0,0.0,0.0,0.0,0.0,0.0
1.313,0.08333333333333334,-0.113,0.963,0.854,3.72,0.366,0.0,0.0,0.0,0.0,0.0,0.0,0.0,0.0
1.324,0.08366666666666667,-0.115,0.96,0.793,3.476,0.732,0.0,0.0,0.0,0.0,0.0,0.0,0.0,0.0
1.334,0.084,-0.117,0.957,0.549,3.049,1.037,0.0,0.0,0.0,0.0,0.0,0.0,0.0,0.0
1.344,0.08266666666666667,-0.11566666666666667,0.959,-0.793,2.317,1.22,0.0,0.0,0.0,0.0,0.0,0.0,0.0,0.0
1.354,0.08133333333333334,-0.11433333333333334,0.961,-1.829,1.707,1.22,0.0,0.0,0.0,0.0,0.0,0.0,0.0,0.0
1.365,0.08,-0.113,0.963,-2.866,1.646,1.524,0.0,0.0,0.0,0.0,0.0,0.0,0.0,0.0
1.375,0.083,-0.112,0.964,-3.232,1.768,1.646,0.0,0.0,0.0,0.0,0.0,0.0,0.0,0.0
1.384,0.083,-0.1135,0.96475,-3.415,2.012,1.341,0.0,0.0,0.0,0.0,0.0,0.0,0.0,0.0
1.394,0.083,-0.11499999999999999,0.9655,-2.866,2.256,1.22,0.0,0.0,0.0,0.0,0.0,0.0,0.0,0.0
1.404,0.083,-0.11649999999999999,0.9662499999999999,-2.439,2.378,1.22,0.0,0.0,0.0,0.0,0.0,0.0,0.0,0.0
1.415,0.083,-0.118,0.967,-2.683,1.89,1.098,0.0,0.0,0.0,0.0,0.0,0.0,0.0,0.0
1.425,0.082,-0.116,0.96,-3.171,1.22,1.098,0.0,0.0,0.0,0.0,0.0,0.0,0.0,0.0
1.435,0.08220000000000001,-0.117,0.9588,-3.598,1.037,1.22,0.0,0.0,0.0,0.0,0.0,0.0,0.0,0.0
1.444,0.0824,-0.11800000000000001,0.9576,-3.841,1.341,1.341,0.0,0.0,0.0,0.0,0.0,0.0,0.0,0.0
1.454,0.0826,-0.119,0.9563999999999999,-3.659,1.646,1.22,0.0,0.0,0.0,0.0,0.0,0.0,0.0,0.0
1.464,0.0828,-0.12,0.9551999999999999,-3.598,1.524,0.854,0.0,0.0,0.0,0.0,0.0,0.0,0.0,0.0
1.475,0.083,-0.121,0.954,-4.024,1.402,0.671,0.0,0.0,0.0,0.0,0.0,0.0,0.0,0.0
1.485,0.08,-0.124,0.958,-4.634,0.61,0.366,0.0,0.0,0.0,0.0,0.0,0.0,0.0,0.0
1.495,0.08033333333333334,-0.12533333333333332,0.96,-5.305,-0.061,0.122,0.0,0.0,0.0,0.0,0.0,0.0,0.0,0.0
1.505,0.08066666666666666,-0.12666666666666668,0.962,-4.451,0.671,0.122,0.0,0.0,0.0,0.0,0.0,0.0,0.0,0.0
1.516,0.081,-0.128,0.964,-2.622,2.134,0.0,0.0,0.0,0.0,0.0,0.0,0.0,0.0,0.0
1.524,0.07966666666666666,-0.127,0.9623333333333333,-1.463,3.171,-0.366,0.0,0.0,0.0,0.0,0.0,0.0,0.0,0.0
1.535,0.07833333333333334,-0.126,0.9606666666666667,-0.732,3.72,-0.305,0.0,0.0,0.0,0.0,0.0,0.0,0.0,0.0
1.545,0.077,-0.125,0.959,-0.061,4.268,0.183,0.0,0.0,0.0,0.0,0.0,0.0,0.0,0.0
1.555,0.079,-0.12633333333333333,0.9556666666666667,0.488,4.695,1.098,0.0,0.0,0.0,0.0,0.0,0.0,0.0,0.0
1.565,0.081,-0.12766666666666668,0.9523333333333333,-0.244,3.354,1.646,0.0,0.0,0.0,0.0,0.0,0.0,0.0,0.0
1.576,0.083,-0.129,0.949,-1.098,3.841,2.317,0.0,0.0,0.0,0.0,0.0,0.0,0.0,0.0
1.584,0.08166666666666667,-0.13133333333333333,0.9556666666666667,-1.402,4.695,3.049,0.0,0.0,0.0,0.0,0.0,0.0,0.0,0.0
1.595,0.08033333333333334,-0.13366666666666668,0.9623333333333333,-0.854,5.183,3.232,0.0,0.0,0.0,0.0,0.0,0.0,0.0,0.0
1.605,0.079,-0.136,0.969,0.427,5.793,3.232,0.0,0.0,0.0,0.0,0.0,0.0,0.0,0.0
1.615,0.07733333333333334,-0.13266666666666668,0.9636666666666667,1.829,6.402,3.11,0.0,0.0,0.0,0.0,0.0,0.0,0.0,0.0
1.625,0.07566666666666666,-0.12933333333333333,0.9583333333333333,2.927,6.341,2.622,0.0,0.0,0.0,0.0,0.0,0.0,0.0,0.0
1.636,0.074,-0.126,0.953,3.354,5.854,2.134,0.0,0.0,0.0,0.0,0.0,0.0,0.0,0.0
1.646,0.069,-0.123,0.949,3.049,5.0,1.707,0.0,0.0,0.0,0.0,0.0,0.0,0.0,0.0
1.655,0.07025,-0.12225,0.94875,2.561,4.329,1.89,0.0,0.0,0.0,0.0,0.0,0.0,0.0,0.0
1.665,0.07150000000000001,-0.1215,0.9484999999999999,2.622,4.085,2.256,0.0,0.0,0.0,0.0,0.0,0.0,0.0,0.0
1.675,0.07275,-0.12075,0.9482499999999999,2.5,4.329,2.622,0.0,0.0,0.0,0.0,0.0,0.0,0.0,0.0
1.686,0.074,-0.12,0.948,2.195,4.878,2.988,0.0,0.0,0.0,0.0,0.0,0.0,0.0,0.0
1.696,0.072,-0.117,0.958,1.524,4.756,2.744,0.0,0.0,0.0,0.0,0.0,0.0,0.0,0.0
1.706,0.0722,-0.1188,0.9603999999999999,0.61,4.634,2.378,0.0,0.0,0.0,0.0,0.0,0.0,0.0,0.0
1.715,0.07239999999999999,-0.1206,0.9628,-0.061,4.329,2.012,0.0,0.0,0.0,0.0,0.0,0.0,0.0,0.0
1.725,0.0726,-0.12240000000000001,0.9652,-0.427,3.72,1.89,0.0,0.0,0.0,0.0,0.0,0.0,0.0,0.0
1.735,0.07279999999999999,-0.1242,0.9676,-0.244,3.78,1.768,0.0,0.0,0.0,0.0,0.0,0.0,0.0,0.0
1.746,0.073,-0.126,0.97,-0.427,3.537,1.341,0.0,0.0,0.0,0.0,0.0,0.0,0.0,0.0
1.756,0.068,-0.12,0.965,-0.915,3.049,1.22,0.0,0.0,0.0,0.0,0.0,0.0,0.0,0.0
1.766,0.06620000000000001,-0.1204,0.9632,-1.22,2.439,1.463,0.0,0.0,0.0,0.0,0.0,0.0,0.0,0.0
1.776,0.0644,-0.12079999999999999,0.9613999999999999,-1.646,2.073,1.768,0.0,0.0,0.0,0.0,0.0,0.0,0.0,0.0
1.785,0.0626,-0.1212,0.9596,-2.378,2.317,2.012,0.0,0.0,0.0,0.0,0.0,0.0,0.0,0.0
1.795,0.0608,-0.1216,0.9578,-2.988,2.378,2.439,0.0,0.0,0.0,0.0,0.0,0.0,0.0,0.0
1.806,0.059,-0.122,0.956,-2.866,2.317,2.744,0.0,0.0,0.0,0.0,0.0,0.0,0.0,0.0
1.816,0.056,-0.124,0.952,-1.098,2.744,2.622,0.0,0.0,0.0,0.0,0.0,0.0,0.0,0.0
1.826,0.057666666666666665,-0.125,0.953,0.366,3.11,1.951,0.0,0.0,0.0,0.0,0.0,0.0,0.0,0.0
1.836,0.059333333333333335,-0.126,0.954,0.915,2.988,1.463,0.0,0.0,0.0,0.0,0.0,0.0,0.0,0.0
1.847,0.061,-0.127,0.955,1.463,1.951,1.037,0.0,0.0,0.0,0.0,0.0,0.0,0.0,0.0
1.855,0.06033333333333333,-0.12633333333333333,0.957,0.549,2.317,0.732,0.0,0.0,0.0,0.0,0.0,0.0,0.0,0.0
1.866,0.059666666666666666,-0.12566666666666668,0.959,-0.671,1.585,0.61,0.0,0.0,0.0,0.0,0.0,0.0,0.0,0.0
1.876,0.059,-0.125,0.961,-1.768,1.037,0.671,0.0,0.0,0.0,0.0,0.0,0.0,0.0,0.0
1.886,0.06166666666666667,-0.125,0.9623333333333333,-1.951,1.22,0.976,0.0,0.0,0.0,0.0,0.0,0.0,0.0,0.0
1.896,0.06433333333333334,-0.125,0.9636666666666667,-1.402,1.951,1.402,0.0,0.0,0.0,0.0,0.0,0.0,0.0,0.0
1.907,0.067,-0.125,0.965,-0.854,2.5,1.402,0.0,0.0,0.0,0.0,0.0,0.0,0.0,0.0
1.917,0.067,-0.126,0.968,-1.037,2.866,1.524,0.0,0.0,0.0,0.0,0.0,0.0,0.0,0.0
1.926,0.06675,-0.1255,0.9635,-1.037,2.927,1.768,0.0,0.0,0.0,0.0,0.0,0.0,0.0,0.0
1.936,0.0665,-0.125,0.959,-0.915,2.622,1.89,0.0,0.0,0.0,0.0,0.0,0.0,0.0,0.0
1.946,0.06625,-0.1245,0.9544999999999999,-1.524,1.89,1.768,0.0,0.0,0.0,0.0,0.0,0.0,0.0,0.0
1.957,0.066,-0.124,0.95,-1.585,1.768,1.768,0.0,0.0,0.0,0.0,0.0,0.0,0.0,0.0
1.967,0.06,-0.125,0.952,-1.037,2.012,1.829,0.0,0.0,0.0,0.0,0.0,0.0,0.0,0.0
1.977,0.0594,-0.1236,0.9518,-0.122,2.683,1.829,0.0,0.0,0.0,0.0,0.0,0.0,0.0,0.0
1.986,0.0588,-0.1222,0.9516,0.549,2.744,1.829,0.0,0.0,0.0,0.0,0.0,0.0,0.0,0.0
1.996,0.0582,-0.12079999999999999,0.9513999999999999,0.366,2.5,1.768,0.0,0.0,0.0,0.0,0.0,0.0,0.0,0.0
2.006,0.0576,-0.11939999999999999,0.9511999999999999,-0.305,1.524,1.463,0.0,0.0,0.0,0.0,0.0,0.0,0.0,0.0
2.017,0.057,-0.118,0.951,-0.549,1.463,1.585,0.0,0.0,0.0,0.0,0.0,0.0,0.0,0.0
2.027,0.062,-0.122,0.953,0.183,2.256,2.073,0.0,0.0,0.0,0.0,0.0,0.0,0.0,0.0
2.037,0.0616,-0.122,0.9533999999999999,0.976,3.171,2.378,0.0,0.0,0.0,0.0,0.0,0.0,0.0,0.0
2.047,0.0612,-0.122,0.9538,0.854,2.988,2.195,0.0,0.0,0.0,0.0,0.0,0.0,0.0,0.0
2.056,0.0608,-0.122,0.9541999999999999,0.183,2.012,1.646,0.0,0.0,0.0,0.0,0.0,0.0,0.0,0.0
2.066,0.060399999999999995,-0.122,0.9546,-0.244,2.134,1.341,0.0,0.0,0.0,0.0,0.0,0.0,0.0,0.0
2.077,0.06,-0.122,0.955,-0.61,2.561,1.28,0.0,0.0,0.0,0.0,0.0,0.0,0.0,0.0
2.087,0.057,-0.125,0.958,-1.524,1.829,1.098,0.0,0.0,0.0,0.0,0.0,0.0,0.0,0.0
2.097,0.05733333333333333,-0.12566666666666668,0.9513333333333333,-2.5,0.671,1.037,0.0,0.0,0.0,0.0,0.0,0.0,0.0,0.0
2.107,0.05766666666666667,-0.12633333333333333,0.9446666666666667,-2.866,-0.427,1.159,0.0,0.0,0.0,0.0,0.0,0.0,0.0,0.0
2.118,0.058,-0.127,0.938,-2.866,-1.22,1.22,0.0,0.0,0.0,0.0,0.0,0.0,0.0,0.0
2.126,0.059000000000000004,-0.127,0.9443333333333332,-2.195,-1.159,1.28,0.0,0.0,0.0,0.0,0.0,0.0,0.0,0.0
2.137,0.06,-0.127,0.9506666666666667,-1.159,-0.366,1.463,0.0,0.0,0.0,0.0,0.0,0.0,0.0,0.0
2.147,0.061,-0.127,0.957,-0.61,0.427,1.524,0.0,0.0,0.0,0.0,0.0,0.0,0.0,0.0
2.157,0.06066666666666667,-0.12666666666666668,0.96,-0.244,1.585,1.22,0.0,0.0,0.0,0.0,0.0,0.0,0.0,0.0
2.167,0.06033333333333333,-0.12633333333333333,0.963,0.183,2.073,0.732,0.0,0.0,0.0,0.0,0.0,0.0,0.0,0.0
2.178,0.06,-0.126,0.966,0.061,1.768,0.427,0.0,0.0,0.0,0.0,0.0,0.0,0.0,0.0
2.188,0.057,-0.123,0.958,-0.549,1.159,0.549,0.0,0.0,0.0,0.0,0.0,0.0,0.0,0.0
2.197,0.05675,-0.1225,0.95575,-0.427,1.159,0.732,0.0,0.0,0.0,0.0,0.0,0.0,0.0,0.0
2.207,0.0565,-0.122,0.9535,-0.427,0.61,0.915,0.0,0.0,0.0,0.0,0.0,0.0,0.0,0.0
2.217,0.05625,-0.1215,0.9512499999999999,-0.793,0.305,1.098,0.0,0.0,0.0,0.0,0.0,0.0,0.0,0.0
2.228,0.056,-0.121,0.949,-0.976,-0.244,1.28,0.0,0.0,0.0,0.0,0.0,0.0,0.0,0.0
2.238,0.062,-0.121,0.944,-1.037,-0.671,1.646,0.0,0.0,0.0,0.0,0.0,0.0,0.0,0.0
2.248,0.0624,-0.1216,0.9463999999999999,-0.244,0.061,1.585,0.0,0.0,0.0,0.0,0.0,0.0,0.0,0.0
2.257,0.0628,-0.1222,0.9488,-0.427,0.061,1.402,0.0,0.0,0.0,0.0,0.0,0.0,0.0,0.0
2.267,0.0632,-0.12279999999999999,0.9511999999999999,-1.22,-0.305,1.585,0.0,0.0,0.0,0.0,0.0,0.0,0.0,0.0
2.277,0.0636,-0.1234,0.9536,-0.549,0.366,1.829,0.0,0.0,0.0,0.0,0.0,0.0,0.0,0.0
2.288,0.064,-0.124,0.956,0.0,0.0,1.768,0.0,0.0,0.0,0.0,0.0,0.0,0.0,0.0
2.298,0.066,-0.127,0.948,-0.854,-0.976,1.829,0.0,0.0,0.0,0.0,0.0,0.0,0.0,0.0
2.308,0.0654,-0.1272,0.95,-0.061,-0.427,1.829,0.0,0.0,0.0,0.0,0.0,0.0,0.0,0.0
2.318,0.0648,-0.1274,0.952,0.854,-0.183,1.707,0.0,0.0,0.0,0.0,0.0,0.0,0.0,0.0
2.327,0.06420000000000001,-0.1276,0.954,-0.488,-0.793,1.524,0.0,0.0,0.0,0.0,0.0,0.0,0.0,0.0
2.337,0.0636,-0.1278,0.956,-0.061,-0.915,1.707,0.0,0.0,0.0,0.0,0.0,0.0,0.0,0.0
2.348,0.063,-0.128,0.958,0.244,-0.976,1.646,0.0,0.0,0.0,0.0,0.0,0.0,0.0,0.0
2.358,0.062,-0.134,0.957,-0.854,-1.89,1.28,0.0,0.0,0.0,0.0,0.0,0.0,0.0,0.0
2.368,0.058333333333333334,-0.13233333333333333,0.9636666666666667,-0.976,-1.463,0.976,0.0,0.0,0.0,0.0,0.0,0.0,0.0,0.0
2.378,0.05466666666666666,-0.13066666666666668,0.9703333333333333,-0.549,-0.61,0.976,0.0,0.0,0.0,0.0,0.0,0.0,0.0,0.0
2.389,0.051,-0.129,0.977,0.732,0.854,1.22,0.0,0.0,0.0,0.0,0.0,0.0,0.0,0.0
2.397,0.051,-0.12633333333333333,0.9733333333333333,2.317,1.89,1.22,0.0,0.0,0.0,0.0,0.0,0.0,0.0,0.0
2.408,0.051,-0.12366666666666666,0.9696666666666667,3.232,2.927,0.976,0.0,0.0,0.0,0.0,0.0,0.0,0.0,0.0
2.418,0.051,-0.121,0.966,3.841,3.902,0.976,0.0,0.0,0.0,0.0,0.0,0.0,0.0,0.0
2.428,0.050666666666666665,-0.121,0.9646666666666667,4.024,4.268,1.22,0.0,0.0,0.0,0.0,0.0,0.0,0.0,0.0
2.438,0.050333333333333334,-0.121,0.9633333333333333,3.232,4.329,1.22,0.0,0.0,0.0,0.0,0.0,0.0,0.0,0.0
2.449,0.05,-0.121,0.962,2.073,3.902,0.854,0.0,0.0,0.0,0.0,0.0,0.0,0.0,0.0
2.459,0.051,-0.12,0.958,1.098,3.232,0.61,0.0,0.0,0.0,0.0,0.0,0.0,0.0,0.0
2.468,0.05175,-0.121,0.9582499999999999,0.488,2.439,0.183,0.0,0.0,0.0,0.0,0.0,0.0,0.0,0.0
2.478,0.0525,-0.122,0.9584999999999999,-0.183,2.073,-0.305,0.0,0.0,0.0,0.0,0.0,0.0,0.0,0.0
2.488,0.05325,-0.123,0.95875,-0.976,1.951,-0.549,0.0,0.0,0.0,0.0,0.0,0.0,0.0,0.0
2.499,0.054,-0.124,0.959,-1.646,1.098,-0.549,0.0,0.0,0.0,0.0,0.0,0.0,0.0,0.0
2.509,0.059,-0.126,0.961,-1.22,0.976,-0.61,0.0,0.0,0.0,0.0,0.0,0.0,0.0,0.0
2.519,0.0588,-0.126,0.9613999999999999,-0.061,2.134,-0.854,0.0,0.0,0.0,0.0,0.0,0.0,0.0,0.0
2.528,0.0586,-0.126,0.9618,0.854,3.598,-0.549,0.0,0.0,0.0,0.0,0.0,0.0,0.0,0.0
2.538,0.0584,-0.126,0.9621999999999999,1.402,4.695,-0.366,0.0,0.0,0.0,0.0,0.0,0.0,0.0,0.0
2.548,0.0582,-0.126,0.9626,0.915,4.939,-0.427,0.0,0.0,0.0,0.0,0.0,0.0,0.0,0.0
2.559,0.058,-0.126,0.963,0.122,3.902,-0.61,0.0,0.0,0.0,0.0,0.0,0.0,0.0,0.0
2.569,0.055,-0.123,0.953,-0.854,2.5,-0.854,0.0,0.0,0.0,0.0,0.0,0.0,0.0,0.0
2.579,0.055600000000000004,-0.1226,0.954,-1.829,1.28,-0.793,0.0,0.0,0.0,0.0,0.0,0.0,0.0,0.0
2.589,0.0562,-0.1222,0.955,-1.951,1.22,-0.488,0.0,0.0,0.0,0.0,0.0,0.0,0.0,0.0
2.598,0.0568,-0.12179999999999999,0.956,-1.341,2.073,0.244,0.0,0.0,0.0,0.0,0.0,0.0,0.0,0.0
2.608,0.0574,-0.1214,0.957,-1.098,2.561,0.732,0.0,0.0,0.0,0.0,0.0,0.0,0.0,0.0
2.619,0.058,-0.121,0.958,-0.854,2.561,0.854,0.0,0.0,0.0,0.0,0.0,0.0,0.0,0.0
2.629,0.053,-0.121,0.956,-0.793,2.744,0.854,0.0,0.0,0.0,0.0,0.0,0.0,0.0,0.0
2.639,0.05466666666666667,-0.122,0.9556666666666667,-0.305,2.683,0.488,0.0,0.0,0.0,0.0,0.0,0.0,0.0,0.0
2.649,0.05633333333333333,-0.123,0.9553333333333333,-0.305,2.195,0.061,0.0,0.0,0.0,0.0,0.0,0.0,0.0,0.0
2.66,0.058,-0.124,0.955,-0.854,1.829,-0.183,0.0,0.0,0.0,0.0,0.0,0.0,0.0,0.0
2.668,0.05466666666666667,-0.123,0.9543333333333333,-1.402,1.829,-0.061,0.0,0.0,0.0,0.0,0.0,0.0,0.0,0.0
2.679,0.051333333333333335,-0.122,0.9536666666666667,-1.89,1.646,-0.061,0.0,0.0,0.0,0.0,0.0,0.0,0.0,0.0
2.689,0.048,-0.121,0.953,-2.073,1.402,-0.061,0.0,0.0,0.0,0.0,0.0,0.0,0.0,0.0
2.699,0.047,-0.12133333333333333,0.9493333333333333,-1.585,1.463,0.061,0.0,0.0,0.0,0.0,0.0,0.0,0.0,0.0
2.709,0.046,-0.12166666666666666,0.9456666666666667,-0.976,1.22,0.061,0.0,0.0,0.0,0.0,0.0,0.0,0.0,0.0
2.72,0.045,-0.122,0.942,-0.488,1.402,-0.061,0.0,0.0,0.0,0.0,0.0,0.0,0.0,0.0
2.73,0.049,-0.125,0.943,-0.61,1.89,0.122,0.0,0.0,0.0,0.0,0.0,0.0,0.0,0.0
2.739,0.0505,-0.1265,0.9464999999999999,-0.854,1.768,0.427,0.0,0.0,0.0,0.0,0.0,0.0,0.0,0.0
2.749,0.052000000000000005,-0.128,0.95,-1.28,1.524,0.61,0.0,0.0,0.0,0.0,0.0,0.0,0.0,0.0
2.759,0.0535,-0.1295,0.9535,-1.768,1.524,0.854,0.0,0.0,0.0,0.0,0.0,0.0,0.0,0.0
2.77,0.055,-0.131,0.957,-1.829,1.89,1.463,0.0,0.0,0.0,0.0,0.0,0.0,0.0,0.0
2.78,0.053,-0.134,0.96,-0.488,2.927,1.707,0.0,0.0,0.0,0.0,0.0,0.0,0.0,0.0
2.79,0.053399999999999996,-0.1338,0.957,0.61,2.683,1.037,0.0,0.0,0.0,0.0,0.0,0.0,0.0,0.0
2.8,0.0538,-0.1336,0.954,1.707,2.5,0.488,0.0,0.0,0.0,0.0,0.0,0.0,0.0,0.0
2.809,0.0542,-0.13340000000000002,0.951,3.232,3.354,0.61,0.0,0.0,0.0,0.0,0.0,0.0,0.0,0.0
2.819,0.0546,-0.1332,0.948,4.146,4.085,1.037,0.0,0.0,0.0,0.0,0.0,0.0,0.0,0.0
2.83,0.055,-0.133,0.945,2.805,2.866,1.341,0.0,0.0,0.0,0.0,0.0,0.0,0.0,0.0
2.84,0.05,-0.13,0.941,0.183,0.793,1.341,0.0,0.0,0.0,0.0,0.0,0.0,0.0,0.0
2.85,0.048400000000000006,-0.128,0.9448,-2.317,-1.037,1.28,0.0,0.0,0.0,0.0,0.0,0.0,0.0,0.0
2.86,0.0468,-0.126,0.9486,-3.841,-1.951,0.976,0.0,0.0,0.0,0.0,0.0,0.0,0.0,0.0
2.869,0.045200000000000004,-0.124,0.9523999999999999,-2.744,-1.463,0.488,0.0,0.0,0.0,0.0,0.0,0.0,0.0,0.0
2.879,0.0436,-0.122,0.9561999999999999,0.549,0.366,0.0,0.0,0.0,0.0,0.0,0.0,0.0,0.0,0.0
2.89,0.042,-0.12,0.96,5.305,2.256,-0.305,0.0,0.0,0.0,0.0,0.0,0.0,0.0,0.0
2.9,0.042,-0.125,0.955,8.537,2.439,-1.22,0.0,0.0,0.0,0.0,0.0,0.0,0.0,0.0
2.91,0.04133333333333333,-0.12233333333333334,0.9576666666666667,8.232,2.012,-2.256,0.0,0.0,0.0,0.0,0.0,0.0,0.0,0.0
2.92,0.04066666666666667,-0.11966666666666667,0.9603333333333333,7.622,2.5,-1.951,0.0,0.0,0.0,0.0,0.0,0.0,0.0,0.0
2.931,0.04,-0.117,0.963,5.854,2.256,-0.854,0.0,0.0,0.0,0.0,0.0,0.0,0.0,0.0
2.939,0.046,-0.115,0.9656666666666667,3.171,0.671,-0.549,0.0,0.0,0.0,0.0,0.0,0.0,0.0,0.0
2.95,0.052000000000000005,-0.113,0.9683333333333333,-0.122,0.976,-0.793,0.0,0.0,0.0,0.0,0.0,0.0,0.0,0.0
2.96,0.058,-0.111,0.971,-0.61,-0.366,-0.793,0.0,0.0,0.0,0.0,0.0,0.0,0.0,0.0
2.97,0.057,-0.11333333333333333,0.97,-0.549,-0.549,-1.22,0.0,0.0,0.0,0.0,0.0,0.0,0.0,0.0
2.98,0.056,-0.11566666666666667,0.969,-0.183,-0.305,-1.463,0.0,0.0,0.0,0.0,0.0,0.0,0.0,0.0
2.991,0.055,-0.118,0.968,0.0,0.549,-1.524,0.0,0.0,0.0,0.0,0.0,0.0,0.0,0.0
3.001,0.057,-0.117,0.971,-0.427,1.524,-1.463,0.0,0.0,0.0,0.0,0.0,0.0,0.0,0.0
3.01,0.05425,-0.117,0.96975,-1.341,1.829,-1.159,0.0,0.0,0.0,0.0,0.0,0.0,0.0,0.0
3.02,0.051500000000000004,-0.117,0.9684999999999999,-3.171,1.463,-0.732,0.0,0.0,0.0,0.0,0.0,0.0,0.0,0.0
3.03,0.04875,-0.117,0.9672499999999999,-4.634,1.037,-0.488,0.0,0.0,0.0,0.0,0.0,0.0,0.0,0.0
3.041,0.046,-0.117,0.966,-5.488,0.244,-0.366,0.0,0.0,0.0,0.0,0.0,0.0,0.0,0.0
3.051,0.047,-0.118,0.962,-5.244,0.366,-0.305,0.0,0.0,0.0,0.0,0.0,0.0,0.0,0.0
3.061,0.045,-0.11739999999999999,0.9611999999999999,-4.085,1.707,-0.183,0.0,0.0,0.0,0.0,0.0,0.0,0.0,0.0
3.071,0.043,-0.1168,0.9603999999999999,-2.378,2.195,-0.366,0.0,0.0,0.0,0.0,0.0,0.0,0.0,0.0
3.08,0.040999999999999995,-0.1162,0.9596,-1.463,2.256,-1.22,0.0,0.0,0.0,0.0,0.0,0.0,0.0,0.0
3.09,0.039,-0.11560000000000001,0.9588,-1.22,2.256,-2.134,0.0,0.0,0.0,0.0,0.0,0.0,0.0,0.0
3.101,0.037,-0.115,0.958,-2.256,0.61,-2.683,0.0,0.0,0.0,0.0,0.0,0.0,0.0,0.0
3.111,0.036,-0.119,0.951,-1.524,1.402,-2.805,0.0,0.0,0.0,0.0,0.0,0.0,0.0,0.0
3.121,0.0384,-0.1202,0.9541999999999999,-2.317,0.305,-2.5,0.0,0.0,0.0,0.0,0.0,0.0,0.0,0.0
3.131,0.040799999999999996,-0.1214,0.9573999999999999,-3.232,0.671,-1.951,0.0,0.0,0.0,0.0,0.0,0.0,0.0,0.0
3.14,0.0432,-0.1226,0.9606,-3.659,1.402,-1.707,0.0,0.0,0.0,0.0,0.0,0.0,0.0,0.0
3.15,0.0456,-0.1238,0.9638,-3.78,1.89,-1.89,0.0,0.0,0.0,0.0,0.0,0.0,0.0,0.0
3.161,0.048,-0.125,0.967,-3.049,2.439,-2.134,0.0,0.0,0.0,0.0,0.0,0.0,0.0,0.0
3.171,0.048,-0.129,0.964,-2.012,1.402,-2.561,0.0,0.0,0.0,0.0,0.0,0.0,0.0,0.0
3.181,0.04633333333333333,-0.13,0.9583333333333333,-0.671,1.098,-2.744,0.0,0.0,0.0,0.0,0.0,0.0,0.0,0.0
3.191,0.04466666666666667,-0.131,0.9526666666666667,0.183,1.707,-2.439,0.0,0.0,0.0,0.0,0.0,0.0,0.0,0.0
3.202,0.043,-0.132,0.947,0.244,2.317,-2.195,0.0,0.0,0.0,0.0,0.0,0.0,0.0,0.0
3.21,0.04533333333333333,-0.13,0.9463333333333332,-0.61,1.463,-2.073,0.0,0.0,0.0,0.0,0.0,0.0,0.0,0.0
3.221,0.04766666666666667,-0.128,0.9456666666666667,-1.89,1.402,-2.012,0.0,0.0,0.0,0.0,0.0,0.0,0.0,0.0
3.231,0.05,-0.126,0.945,-2.195,2.134,-1.951,0.0,0.0,0.0,0.0,0.0,0.0,0.0,0.0
3.241,0.050333333333333334,-0.12866666666666668,0.9483333333333333,-2.439,1.341,-2.073,0.0,0.0,0.0,0.0,0.0,0.0,0.0,0.0
3.251,0.050666666666666665,-0.13133333333333333,0.9516666666666667,-2.134,1.951,-2.195,0.0,0.0,0.0,0.0,0.0,0.0,0.0,0.0
3.262,0.051,-0.134,0.955,-1.707,2.927,-2.317,0.0,0.0,0.0,0.0,0.0,0.0,0.0,0.0
3.272,0.05,-0.136,0.954,-1.951,2.5,-2.439,0.0,0.0,0.0,0.0,0.0,0.0,0.0,0.0
3.281,0.048,-0.1355,0.9484999999999999,-2.195,2.744,-2.195,0.0,0.0,0.0,0.0,0.0,0.0,0.0,0.0
3.291,0.046,-0.135,0.943,-2.5,2.744,-1.951,0.0,0.0,0.0,0.0,0.0,0.0,0.0,0.0
3.301,0.0475,-0.135,0.943,-4.024,1.768,-2.256,0.0,0.0,0.0,0.0,0.0,0.0,0.0,0.0
3.312,0.049,-0.135,0.943,-4.634,1.341,-2.317,0.0,0.0,0.0,0.0,0.0,0.0,0.0,0.0
3.322,0.035,-0.137,0.949,-4.695,1.402,-1.768,0.0,0.0,0.0,0.0,0.0,0.0,0.0,0.0
3.332,0.0368,-0.139,0.95,-4.512,1.463,-1.22,0.0,0.0,0.0,0.0,0.0,0.0,0.0,0.0
3.342,0.0386,-0.14100000000000001,0.951,-3.902,1.28,-1.098,0.0,0.0,0.0,0.0,0.0,0.0,0.0,0.0
3.351,0.0404,-0.143,0.952,-2.988,0.488,-0.976,0.0,0.0,0.0,0.0,0.0,0.0,0.0,0.0
3.361,0.0422,-0.145,0.953,-2.256,0.061,-0.915,0.0,0.0,0.0,0.0,0.0,0.0,0.0,0.0
3.372,0.044,-0.147,0.954,-1.768,-0.061,-0.915,0.0,0.0,0.0,0.0,0.0,0.0,0.0,0.0
3.382,0.044,-0.143,0.958,-1.829,0.122,-0.732,0.0,0.0,0.0,0.0,0.0,0.0,0.0,0.0
3.392,0.041999999999999996,-0.1416,0.9541999999999999,-2.134,0.366,-0.305,0.0,0.0,0.0,0.0,0.0,0.0,0.0,0.0
3.402,0.04,-0.1402,0.9503999999999999,-2.134,0.305,0.061,0.0,0.0,0.0,0.0,0.0,0.0,0.0,0.0
3.411,0.038,-0.1388,0.9466,-3.049,0.122,-0.488,0.0,0.0,0.0,0.0,0.0,0.0,0.0,0.0
3.421,0.036000000000000004,-0.1374,0.9428,-2.134,-2.012,-0.671,0.0,0.0,0.0,0.0,0.0,0.0,0.0,0.0
3.432,0.034,-0.136,0.939,0.183,0.915,-0.366,0.0,0.0,0.0,0.0,0.0,0.0,0.0,0.0
3.442,0.053,-0.149,0.957,0.732,1.037,-0.122,0.0,0.0,0.0,0.0,0.0,0.0,0.0,0.0
3.452,0.04933333333333333,-0.147,0.9573333333333333,0.183,1.159,-0.061,0.0,0.0,0.0,0.0,0.0,0.0,0.0,0.0
3.462,0.04566666666666667,-0.145,0.9576666666666667,0.0,1.463,0.122,0.0,0.0,0.0,0.0,0.0,0.0,0.0,0.0
3.473,0.042,-0.143,0.958,-0.488,1.037,0.305,0.0,0.0,0.0,0.0,0.0,0.0,0.0,0.0
3.481,0.04166666666666667,-0.142,0.959,-1.463,0.671,0.305,0.0,0.0,0.0,0.0,0.0,0.0,0.0,0.0
3.492,0.04133333333333333,-0.14100000000000001,0.96,-2.378,0.0,0.244,0.0,0.0,0.0,0.0,0.0,0.0,0.0,0.0
3.502,0.041,-0.14,0.961,-2.683,-0.854,0.244,0.0,0.0,0.0,0.0,0.0,0.0,0.0,0.0
3.512,0.042333333333333334,-0.14166666666666666,0.961,-1.951,-0.488,0.244,0.0,0.0,0.0,0.0,0.0,0.0,0.0,0.0
3.522,0.043666666666666666,-0.14333333333333334,0.961,-0.427,0.61,0.488,0.0,0.0,0.0,0.0,0.0,0.0,0.0,0.0
3.533,0.045,-0.145,0.961,0.427,1.22,0.671,0.0,0.0,0.0,0.0,0.0,0.0,0.0,0.0
3.543,0.047,-0.148,0.958,0.61,1.28,0.732,0.0,0.0,0.0,0.0,0.0,0.0,0.0,0.0
3.552,0.0465,-0.146,0.955,0.122,0.671,0.549,0.0,0.0,0.0,0.0,0.0,0.0,0.0,0.0
3.562,0.046,-0.144,0.952,-0.427,0.122,0.366,0.0,0.0,0.0,0.0,0.0,0.0,0.0,0.0
3.572,0.0455,-0.1435,0.9515,-0.366,0.0,0.549,0.0,0.0,0.0,0.0,0.0,0.0,0.0,0.0
3.583,0.045,-0.143,0.951,0.061,0.061,0.61,0.0,0.0,0.0,0.0,0.0,0.0,0.0,0.0
3.593,0.047,-0.143,0.957,0.549,0.061,0.427,0.0,0.0,0.0,0.0,0.0,0.0,0.0,0.0
3.603,0.0474,-0.14279999999999998,0.9541999999999999,0.793,0.0,0.122,0.0,0.0,0.0,0.0,0.0,0.0,0.0,0.0
3.612,0.0478,-0.14259999999999998,0.9513999999999999,1.28,-0.427,0.183,0.0,0.0,0.0,0.0,0.0,0.0,0.0,0.0
3.622,0.0482,-0.1424,0.9486,2.073,-0.122,0.61,0.0,0.0,0.0,0.0,0.0,0.0,0.0,0.0
3.632,0.048600000000000004,-0.1422,0.9458,1.585,-0.488,0.61,0.0,0.0,0.0,0.0,0.0,0.0,0.0,0.0
3.643,0.049,-0.142,0.943,0.305,-1.707,0.976,0.0,0.0,0.0,0.0,0.0,0.0,0.0,0.0
3.653,0.043,-0.14,0.945,-1.098,-2.195,1.037,0.0,0.0,0.0,0.0,0.0,0.0,0.0,0.0
3.663,0.044399999999999995,-0.1386,0.9471999999999999,-2.134,-1.585,0.976,0.0,0.0,0.0,0.0,0.0,0.0,0.0,0.0
3.673,0.0458,-0.13720000000000002,0.9493999999999999,-1.951,-0.244,1.524,0.0,0.0,0.0,0.0,0.0,0.0,0.0,0.0
3.682,0.0472,-0.1358,0.9516,-1.89,-0.732,1.402,0.0,0.0,0.0,0.0,0.0,0.0,0.0,0.0
3.692,0.048600000000000004,-0.13440000000000002,0.9538,-3.354,-0.671,1.159,0.0,0.0,0.0,0.0,0.0,0.0,0.0,0.0
3.703,0.05,-0.133,0.956,-3.963,-1.463,2.622,0.0,0.0,0.0,0.0,0.0,0.0,0.0,0.0
3.713,0.05,-0.154,0.976,-3.841,-2.256,4.085,0.0,0.0,0.0,0.0,0.0,0.0,0.0,0.0
3.723,0.055,-0.15033333333333332,0.9593333333333334,12.866,7.927,4.817,0.0,0.0,0.0,0.0,0.0,0.0,0.0,0.0
3.733,0.060000000000000005,-0.14666666666666667,0.9426666666666667,14.695,10.183,4.146,0.0,0.0,0.0,0.0,0.0,0.0,0.0,0.0
3.744,0.065,-0.143,0.926,3.902,4.024,2.805,0.0,0.0,0.0,0.0,0.0,0.0,0.0,0.0
3.752,0.060000000000000005,-0.14533333333333331,0.9423333333333334,-3.415,3.232,2.378,0.0,0.0,0.0,0.0,0.0,0.0,0.0,0.0
3.763,0.055,-0.14766666666666667,0.9586666666666667,-5.854,2.622,3.293,0.0,0.0,0.0,0.0,0.0,0.0,0.0,0.0
3.773,0.05,-0.15,0.975,-8.171,0.305,4.024,0.0,0.0,0.0,0.0,0.0,0.0,0.0,0.0
3.783,0.04766666666666667,-0.14666666666666667,0.9666666666666667,-8.171,-0.488,3.902,0.0,0.0,0.0,0.0,0.0,0.0,0.0,0.0
3.793,0.04533333333333333,-0.14333333333333334,0.9583333333333333,-5.61,0.793,3.415,0.0,0.0,0.0,0.0,0.0,0.0,0.0,0.0
3.804,0.043,-0.14,0.95,-3.476,1.159,2.866,0.0,0.0,0.0,0.0,0.0,0.0,0.0,0.0
3.814,0.044,-0.145,0.946,-2.805,1.28,2.256,0.0,0.0,0.0,0.0,0.0,0.0,0.0,0.0
3.823,0.042499999999999996,-0.1395,0.9504999999999999,-2.866,1.159,1.829,0.0,0.0,0.0,0.0,0.0,0.0,0.0,0.0
3.833,0.041,-0.134,0.955,-3.476,1.098,1.524,0.0,0.0,0.0,0.0,0.0,0.0,0.0,0.0
3.843,0.041999999999999996,-0.139,0.963,-5.0,0.854,2.134,0.0,0.0,0.0,0.0,0.0,0.0,0.0,0.0
3.854,0.043,-0.144,0.971,-7.134,-0.305,2.195,0.0,0.0,0.0,0.0,0.0,0.0,0.0,0.0
3.864,0.047,-0.14,0.975,-9.085,-1.89,0.915,0.0,0.0,0.0,0.0,0.0,0.0,0.0,0.0
3.874,0.0466,-0.1404,0.971,-7.134,-0.732,1.707,0.0,0.0,0.0,0.0,0.0,0.0,0.0,0.0
3.884,0.0462,-0.1408,0.967,-4.939,1.524,2.317,0.0,0.0,0.0,0.0,0.0,0.0,0.0,0.0
3.893,0.0458,-0.1412,0.963,-5.122,1.829,2.256,0.0,0.0,0.0,0.0,0.0,0.0,0.0,0.0
3.903,0.045399999999999996,-0.1416,0.959,-6.098,0.061,1.768,0.0,0.0,0.0,0.0,0.0,0.0,0.0,0.0
3.914,0.045,-0.142,0.955,-4.085,0.183,1.89,0.0,0.0,0.0,0.0,0.0,0.0,0.0,0.0
3.924,0.047,-0.154,0.936,-1.951,1.89,2.378,0.0,0.0,0.0,0.0,0.0,0.0,0.0,0.0
3.934,0.0462,-0.1528,0.9378000000000001,-0.061,1.22,2.073,0.0,0.0,0.0,0.0,0.0,0.0,0.0,0.0
3.944,0.045399999999999996,-0.15159999999999998,0.9396,0.0,0.305,1.585,0.0,0.0,0.0,0.0,0.0,0.0,0.0,0.0
3.953,0.0446,-0.1504,0.9414,-0.976,-0.915,0.915,0.0,0.0,0.0,0.0,0.0,0.0,0.0,0.0
3.963,0.0438,-0.1492,0.9431999999999999,-2.927,-1.89,0.366,0.0,0.0,0.0,0.0,0.0,0.0,0.0,0.0
3.974,0.043,-0.148,0.945,-4.512,-2.439,0.549,0.0,0.0,0.0,0.0,0.0,0.0,0.0,0.0
3.984,0.047,-0.155,0.958,-5.61,-2.988,0.915,0.0,0.0,0.0,0.0,0.0,0.0,0.0,0.0
3.994,0.04766666666666667,-0.154,0.961,-3.537,-1.22,1.22,0.0,0.0,0.0,0.0,0.0,0.0,0.0,0.0
4.004,0.04833333333333333,-0.153,0.964,-1.463,0.61,1.037,0.0,0.0,0.0,0.0,0.0,0.0,0.0,0.0
4.015,0.049,-0.152,0.967,-1.22,0.915,0.793,0.0,0.0,0.0,0.0,0.0,0.0,0.0,0.0
4.023,0.04533333333333334,-0.15233333333333332,0.96,0.305,1.829,0.854,0.0,0.0,0.0,0.0,0.0,0.0,0.0,0.0
4.034,0.041666666666666664,-0.15266666666666667,0.953,4.695,3.598,1.28,0.0,0.0,0.0,0.0,0.0,0.0,0.0,0.0
4.044,0.038,-0.153,0.946,8.598,6.28,0.549,0.0,0.0,0.0,0.0,0.0,0.0,0.0,0.0
4.054,0.03266666666666666,-0.144,0.9526666666666667,3.415,2.134,-0.976,0.0,0.0,0.0,0.0,0.0,0.0,0.0,0.0
4.064,0.027333333333333334,-0.135,0.9593333333333333,-4.634,-2.927,-1.646,0.0,0.0,0.0,0.0,0.0,0.0,0.0,0.0
4.075,0.022,-0.126,0.966,-8.659,-4.512,-1.585,0.0,0.0,0.0,0.0,0.0,0.0,0.0,0.0
4.085,0.043,-0.148,0.977,-7.866,-3.232,-0.549,0.0,0.0,0.0,0.0,0.0,0.0,0.0,0.0
4.094,0.0555,-0.1545,0.972,-3.232,1.524,0.183,0.0,0.0,0.0,0.0,0.0,0.0,0.0,0.0
4.104,0.068,-0.161,0.967,1.037,5.305,-0.061,0.0,0.0,0.0,0.0,0.0,0.0,0.0,0.0
4.114,0.0615,-0.1605,0.959,4.573,5.0,-0.244,0.0,0.0,0.0,0.0,0.0,0.0,0.0,0.0
4.125,0.055,-0.16,0.951,6.463,4.817,-0.122,0.0,0.0,0.0,0.0,0.0,0.0,0.0,0.0
4.135,0.055,-0.167,0.942,4.39,2.866,-0.427,0.0,0.0,0.0,0.0,0.0,0.0,0.0,0.0
4.145,0.053,-0.1642,0.9443999999999999,0.671,0.122,-0.793,0.0,0.0,0.0,0.0,0.0,0.0,0.0,0.0
4.155,0.051,-0.16140000000000002,0.9468,-2.866,-1.585,-0.732,0.0,0.0,0.0,0.0,0.0,0.0,0.0,0.0
4.164,0.049,-0.1586,0.9491999999999999,-3.963,-1.829,-0.305,0.0,0.0,0.0,0.0,0.0,0.0,0.0,0.0
4.174,0.047,-0.1558,0.9516,-3.78,-1.524,-0.244,0.0,0.0,0.0,0.0,0.0,0.0,0.0,0.0
4.185,0.045,-0.153,0.954,-3.659,-1.463,-0.549,0.0,0.0,0.0,0.0,0.0,0.0,0.0,0.0
4.195,0.047,-0.147,0.957,-2.439,-0.488,-0.488,0.0,0.0,0.0,0.0,0.0,0.0,0.0,0.0
4.205,0.0464,-0.149,0.9556,-0.244,0.366,-0.305,0.0,0.0,0.0,0.0,0.0,0.0,0.0,0.0
4.215,0.0458,-0.151,0.9541999999999999,1.22,1.159,-0.183,0.0,0.0,0.0,0.0,0.0,0.0,0.0,0.0
4.224,0.0452,-0.153,0.9528,2.195,2.134,0.061,0.0,0.0,0.0,0.0,0.0,0.0,0.0,0.0
4.234,0.0446,-0.155,0.9513999999999999,2.988,2.317,0.183,0.0,0.0,0.0,0.0,0.0,0.0,0.0,0.0
4.245,0.044,-0.157,0.95,3.11,2.378,0.122,0.0,0.0,0.0,0.0,0.0,0.0,0.0,0.0
4.255,0.047,-0.156,0.945,2.683,2.317,-0.061,0.0,0.0,0.0,0.0,0.0,0.0,0.0,0.0
4.265,0.048,-0.15466666666666667,0.9453333333333332,1.646,1.341,-0.183,0.0,0.0,0.0,0.0,0.0,0.0,0.0,0.0
4.275,0.049,-0.15333333333333332,0.9456666666666667,-0.305,-0.305,-0.549,0.0,0.0,0.0,0.0,0.0,0.0,0.0,0.0
4.286,0.05,-0.152,0.946,-1.707,-0.854,-0.549,0.0,0.0,0.0,0.0,0.0,0.0,0.0,0.0
4.294,0.05,-0.15333333333333332,0.9473333333333332,-1.768,-0.488,-0.183,0.0,0.0,0.0,0.0,0.0,0.0,0.0,0.0
4.305,0.05,-0.15466666666666667,0.9486666666666667,-2.073,-1.22,-0.488,0.0,0.0,0.0,0.0,0.0,0.0,0.0,0.0
4.315,0.05,-0.156,0.95,-1.585,-1.951,-0.915,0.0,0.0,0.0,0.0,0.0,0.0,0.0,0.0
4.325,0.051333333333333335,-0.15666666666666668,0.9556666666666667,-0.427,-0.976,-0.976,0.0,0.0,0.0,0.0,0.0,0.0,0.0,0.0
4.335,0.05266666666666667,-0.15733333333333333,0.9613333333333333,0.427,0.061,-0.61,0.0,0.0,0.0,0.0,0.0,0.0,0.0,0.0
4.346,0.054,-0.158,0.967,0.793,0.732,-0.244,0.0,0.0,0.0,0.0,0.0,0.0,0.0,0.0
4.356,0.052,-0.159,0.97,0.793,1.037,-0.061,0.0,0.0,0.0,0.0,0.0,0.0,0.0,0.0
4.365,0.0515,-0.157,0.964,-0.366,0.732,-0.183,0.0,0.0,0.0,0.0,0.0,0.0,0.0,0.0
4.375,0.051,-0.155,0.958,-1.768,-0.183,-0.122,0.0,0.0,0.0,0.0,0.0,0.0,0.0,0.0
4.385,0.050333333333333334,-0.15633333333333332,0.9583333333333333,-2.622,-0.915,0.061,0.0,0.0,0.0,0.0,0.0,0.0,0.0,0.0
4.395,0.049666666666666665,-0.15766666666666668,0.9586666666666667,-2.195,-0.488,0.427,0.0,0.0,0.0,0.0,0.0,0.0,0.0,0.0
4.406,0.049,-0.159,0.959,-1.463,0.244,0.793,0.0,0.0,0.0,0.0,0.0,0.0,0.0,0.0
4.416,0.049,-0.156,0.956,-0.732,0.183,0.793,0.0,0.0,0.0,0.0,0.0,0.0,0.0,0.0
4.426,0.05075,-0.15675,0.9564999999999999,0.0,0.976,0.549,0.0,0.0,0.0,0.0,0.0,0.0,0.0,0.0
4.435,0.052500000000000005,-0.1575,0.957,0.671,2.012,0.549,0.0,0.0,0.0,0.0,0.0,0.0,0.0,0.0
4.445,0.05425,-0.15825,0.9575,0.122,1.585,0.549,0.0,0.0,0.0,0.0,0.0,0.0,0.0,0.0
4.456,0.056,-0.159,0.958,-0.732,0.915,0.671,0.0,0.0,0.0,0.0,0.0,0.0,0.0,0.0
4.466,0.057,-0.159,0.962,-0.61,1.768,0.854,0.0,0.0,0.0,0.0,0.0,0.0,0.0,0.0
4.476,0.055400000000000005,-0.1584,0.9593999999999999,-0.305,2.195,0.793,0.0,0.0,0.0,0.0,0.0,0.0,0.0,0.0
4.486,0.0538,-0.1578,0.9568,-1.341,1.159,0.61,0.0,0.0,0.0,0.0,0.0,0.0,0.0,0.0
4.495,0.0522,-0.1572,0.9541999999999999,-2.439,0.183,0.427,0.0,0.0,0.0,0.0,0.0,0.0,0.0,0.0
4.505,0.0506,-0.1566,0.9516,-2.561,0.305,0.549,0.0,0.0,0.0,0.0,0.0,0.0,0.0,0.0
4.516,0.049,-0.156,0.949,-2.378,0.244,0.488,0.0,0.0,0.0,0.0,0.0,0.0,0.0,0.0
4.526,0.049,-0.156,0.95,-1.768,-0.061,0.305,0.0,0.0,0.0,0.0,0.0,0.0,0.0,0.0
4.536,0.051333333333333335,-0.15733333333333333,0.95,-0.854,0.305,0.183,0.0,0.0,0.0,0.0,0.0,0.0,0.0,0.0
4.546,0.05366666666666667,-0.15866666666666668,0.95,-0.427,0.61,0.244,0.0,0.0,0.0,0.0,0.0,0.0,0.0,0.0
4.557,0.056,-0.16,0.95,-0.671,0.244,0.671,0.0,0.0,0.0,0.0,0.0,0.0,0.0,0.0
4.565,0.05533333333333333,-0.15833333333333333,0.9523333333333333,-1.402,0.0,0.976,0.0,0.0,0.0,0.0,0.0,0.0,0.0,0.0
4.576,0.05466666666666667,-0.15666666666666668,0.9546666666666667,-1.829,-0.244,0.854,0.0,0.0,0.0,0.0,0.0,0.0,0.0,0.0
4.586,0.054,-0.155,0.957,-1.524,-0.244,0.488,0.0,0.0,0.0,0.0,0.0,0.0,0.0,0.0
4.596,0.05433333333333333,-0.158,0.955,-0.488,0.61,0.549,0.0,0.0,0.0,0.0,0.0,0.0,0.0,0.0
4.606,0.05466666666666667,-0.161,0.953,1.28,1.646,0.61,0.0,0.0,0.0,0.0,0.0,0.0,0.0,0.0
4.617,0.055,-0.164,0.951,2.378,2.195,0.488,0.0,0.0,0.0,0.0,0.0,0.0,0.0,0.0
4.627,0.055,-0.16,0.953,1.829,2.134,0.671,0.0,0.0,0.0,0.0,0.0,0.0,0.0,0.0
4.636,0.0535,-0.159,0.956,0.732,1.524,0.915,0.0,0.0,0.0,0.0,0.0,0.0,0.0,0.0
4.646,0.052,-0.158,0.959,0.366,1.098,1.22,0.0,0.0,0.0,0.0,0.0,0.0,0.0,0.0
4.656,0.051333333333333335,-0.157,0.9573333333333333,0.061,0.793,1.341,0.0,0.0,0.0,0.0,0.0,0.0,0.0,0.0
4.666,0.050666666666666665,-0.156,0.9556666666666667,-0.976,0.61,1.402,0.0,0.0,0.0,0.0,0.0,0.0,0.0,0.0
4.677,0.05,-0.155,0.954,-1.585,0.366,1.89,0.0,0.0,0.0,0.0,0.0,0.0,0.0,0.0
4.687,0.047,-0.157,0.956,-1.159,0.671,2.561,0.0,0.0,0.0,0.0,0.0,0.0,0.0,0.0
4.696,0.049,-0.15775,0.9555,-0.244,0.732,2.378,0.0,0.0,0.0,0.0,0.0,0.0,0.0,0.0
4.706,0.051000000000000004,-0.1585,0.955,-0.427,0.122,1.646,0.0,0.0,0.0,0.0,0.0,0.0,0.0,0.0
4.716,0.053,-0.15925,0.9544999999999999,-0.671,0.122,1.098,0.0,0.0,0.0,0.0,0.0,0.0,0.0,0.0
4.727,0.055,-0.16,0.954,-0.671,0.793,1.28,0.0,0.0,0.0,0.0,0.0,0.0,0.0,0.0
4.737,0.053,-0.167,0.964,-0.549,1.402,1.585,0.0,0.0,0.0,0.0,0.0,0.0,0.0,0.0
4.747,0.0524,-0.1666,0.9603999999999999,-0.671,1.768,1.768,0.0,0.0,0.0,0.0,0.0,0.0,0.0,0.0
4.757,0.0518,-0.16620000000000001,0.9568,-0.488,1.768,1.951,0.0,0.0,0.0,0.0,0.0,0.0,0.0,0.0
4.766,0.0512,-0.1658,0.9531999999999999,-0.061,1.585,2.073,0.0,0.0,0.0,0.0,0.0,0.0,0.0,0.0
4.776,0.0506,-0.16540000000000002,0.9496,0.244,0.793,1.951,0.0,0.0,0.0,0.0,0.0,0.0,0.0,0.0
4.787,0.05,-0.165,0.946,0.061,0.488,1.707,0.0,0.0,0.0,0.0,0.0,0.0,0.0,0.0
4.797,0.051,-0.162,0.95,-0.244,0.549,1.707,0.0,0.0,0.0,0.0,0.0,0.0,0.0,0.0
4.807,0.050666666666666665,-0.16166666666666668,0.953,-0.671,0.427,2.012,0.0,0.0,0.0,0.0,0.0,0.0,0.0,0.0
4.817,0.050333333333333334,-0.16133333333333333,0.956,-0.61,0.549,2.256,0.0,0.0,0.0,0.0,0.0,0.0,0.0,0.0
4.828,0.05,-0.161,0.959,-0.671,1.037,2.134,0.0,0.0,0.0,0.0,0.0,0.0,0.0,0.0
4.836,0.050333333333333334,-0.16033333333333333,0.9596666666666667,-1.037,1.159,2.195,0.0,0.0,0.0,0.0,0.0,0.0,0.0,0.0
4.847,0.050666666666666665,-0.15966666666666668,0.9603333333333333,-1.707,0.488,2.5,0.0,0.0,0.0,0.0,0.0,0.0,0.0,0.0
4.857,0.051,-0.159,0.961,-1.768,0.61,2.866,0.0,0.0,0.0,0.0,0.0,0.0,0.0,0.0
4.867,0.052,-0.16033333333333333,0.959,-1.22,1.524,2.927,0.0,0.0,0.0,0.0,0.0,0.0,0.0,0.0
4.877,0.053,-0.16166666666666668,0.957,-0.732,1.646,2.622,0.0,0.0,0.0,0.0,0.0,0.0,0.0,0.0
4.888,0.054,-0.163,0.955,-0.183,1.159,2.134,0.0,0.0,0.0,0.0,0.0,0.0,0.0,0.0
4.898,0.052,-0.158,0.942,0.183,0.61,1.463,0.0,0.0,0.0,0.0,0.0,0.0,0.0,0.0
4.907,0.049,-0.1545,0.9424999999999999,-0.061,0.244,1.159,0.0,0.0,0.0,0.0,0.0,0.0,0.0,0.0
4.917,0.046,-0.151,0.943,-1.341,-0.671,1.159,0.0,0.0,0.0,0.0,0.0,0.0,0.0,0.0
4.927,0.048,-0.15266666666666667,0.949,-2.256,-1.28,1.402,0.0,0.0,0.0,0.0,0.0,0.0,0.0,0.0
4.937,0.049999999999999996,-0.15433333333333332,0.955,-1.524,-0.183,1.646,0.0,0.0,0.0,0.0,0.0,0.0,0.0,0.0
4.948,0.052,-0.156,0.961,-0.305,1.463,1.585,0.0,0.0,0.0,0.0,0.0,0.0,0.0,0.0
4.958,0.055,-0.155,0.967,0.366,2.317,1.463,0.0,0.0,0.0,0.0,0.0,0.0,0.0,0.0
4.967,0.05475,-0.15575,0.9624999999999999,0.671,2.378,1.22,0.0,0.0,0.0,0.0,0.0,0.0,0.0,0.0
4.977,0.0545,-0.1565,0.958,0.427,1.829,0.915,0.0,0.0,0.0,0.0,0.0,0.0,0.0,0.0
4.987,0.05425,-0.15725,0.9535,0.427,1.768,0.915,0.0,0.0,0.0,0.0,0.0,0.0,0.0,0.0
4.998,0.054,-0.158,0.949,0.976,2.012,1.341,0.0,0.0,0.0,0.0,0.0,0.0,0.0,0.0
5.008,0.05,-0.159,0.949,1.159,1.89,1.524,0.0,0.0,0.0,0.0,0.0,0.0,0.0,0.0
5.018,0.0512,-0.1592,0.9521999999999999,0.61,1.341,1.22,0.0,0.0,0.0,0.0,0.0,0.0,0.0,0.0
5.028,0.0524,-0.15940000000000001,0.9553999999999999,-0.061,0.61,0.915,0.0,0.0,0.0,0.0,0.0,0.0,0.0,0.0
5.037,0.0536,-0.1596,0.9586,-0.61,0.366,0.854,0.0,0.0,0.0,0.0,0.0,0.0,0.0,0.0
5.047,0.0548,-0.1598,0.9618,-0.854,0.366,0.854,0.0,0.0,0.0,0.0,0.0,0.0,0.0,0.0
5.058,0.056,-0.16,0.965,-0.732,0.488,0.671,0.0,0.0,0.0,0.0,0.0,0.0,0.0,0.0
5.068,0.057,-0.156,0.964,-0.305,0.976,0.427,0.0,0.0,0.0,0.0,0.0,0.0,0.0,0.0
5.078,0.05566666666666667,-0.156,0.961,0.305,1.22,0.427,0.0,0.0,0.0,0.0,0.0,0.0,0.0,0.0
5.088,0.05433333333333333,-0.156,0.958,0.183,1.098,0.427,0.0,0.0,0.0,0.0,0.0,0.0,0.0,0.0
5.099,0.053,-0.156,0.955,-0.366,0.671,0.244,0.0,0.0,0.0,0.0,0.0,0.0,0.0,0.0
5.107,0.05266666666666667,-0.15733333333333333,0.9573333333333333,-1.341,0.793,0.183,0.0,0.0,0.0,0.0,0.0,0.0,0.0,0.0
5.118,0.05233333333333333,-0.15866666666666668,0.9596666666666667,-1.28,1.524,0.427,0.0,0.0,0.0,0.0,0.0,0.0,0.0,0.0
5.128,0.052,-0.16,0.962,-0.549,1.768,0.61,0.0,0.0,0.0,0.0,0.0,0.0,0.0,0.0
5.138,0.051,-0.16066666666666668,0.955,-0.183,1.402,0.488,0.0,0.0,0.0,0.0,0.0,0.0,0.0,0.0
5.148,0.05,-0.16133333333333333,0.948,-0.549,0.366,0.244,0.0,0.0,0.0,0.0,0.0,0.0,0.0,0.0
5.159,0.049,-0.162,0.941,-0.793,0.122,0.061,0.0,0.0,0.0,0.0,0.0,0.0,0.0,0.0
5.169,0.049,-0.161,0.944,-0.427,0.244,0.061,0.0,0.0,0.0,0.0,0.0,0.0,0.0,0.0
5.178,0.0504,-0.16140000000000002,0.9471999999999999,-0.183,0.122,0.061,0.0,0.0,0.0,0.0,0.0,0.0,0.0,0.0
5.188,0.0518,-0.1618,0.9503999999999999,-0.061,-0.061,0.0,0.0,0.0,0.0,0.0,0.0,0.0,0.0,0.0
5.198,0.0532,-0.1622,0.9536,0.366,0.549,0.061,0.0,0.0,0.0,0.0,0.0,0.0,0.0,0.0
5.208,0.0546,-0.1626,0.9568,1.098,1.585,0.0,0.0,0.0,0.0,0.0,0.0,0.0,0.0,0.0
5.219,0.056,-0.163,0.96,0.915,1.768,0.0,0.0,0.0,0.0,0.0,0.0,0.0,0.0,0.0
5.229,0.052,-0.16,0.959,-0.122,1.22,0.061,0.0,0.0,0.0,0.0,0.0,0.0,0.0,0.0
5.238,0.05125,-0.16025,0.956,-0.732,0.915,0.244,0.0,0.0,0.0,0.0,0.0,0.0,0.0,0.0
5.248,0.0505,-0.1605,0.953,-0.305,0.854,0.305,0.0,0.0,0.0,0.0,0.0,0.0,0.0,0.0
5.258,0.04975,-0.16075,0.95,0.488,1.22,0.366,0.0,0.0,0.0,0.0,0.0,0.0,0.0,0.0
5.269,0.049,-0.161,0.947,0.427,0.549,0.244,0.0,0.0,0.0,0.0,0.0,0.0,0.0,0.0
5.279,0.05,-0.161,0.949,-0.61,-0.427,0.366,0.0,0.0,0.0,0.0,0.0,0.0,0.0,0.0
5.289,0.049800000000000004,-0.161,0.9491999999999999,-1.159,-0.183,0.671,0.0,0.0,0.0,0.0,0.0,0.0,0.0,0.0
5.299,0.049600000000000005,-0.161,0.9493999999999999,-0.732,0.305,0.915,0.0,0.0,0.0,0.0,0.0,0.0,0.0,0.0
5.308,0.0494,-0.161,0.9496,0.0,0.854,0.976,0.0,0.0,0.0,0.0,0.0,0.0,0.0,0.0
5.318,0.0492,-0.161,0.9498,0.793,1.22,0.732,0.0,0.0,0.0,0.0,0.0,0.0,0.0,0.0
5.329,0.049,-0.161,0.95,0.915,1.159,0.305,0.0,0.0,0.0,0.0,0.0,0.0,0.0,0.0
5.339,0.049,-0.158,0.947,0.976,0.732,-0.061,0.0,0.0,0.0,0.0,0.0,0.0,0.0,0.0
5.349,0.050333333333333334,-0.15966666666666668,0.9496666666666667,0.854,0.427,-0.183,0.0,0.0,0.0,0.0,0.0,0.0,0.0,0.0
5.359,0.051666666666666666,-0.16133333333333333,0.9523333333333333,1.037,0.549,-0.122,0.0,0.0,0.0,0.0,0.0,0.0,0.0,0.0
5.37,0.053,-0.163,0.955,1.707,0.854,0.244,0.0,0.0,0.0,0.0,0.0,0.0,0.0,0.0
5.378,0.05266666666666667,-0.16266666666666668,0.9536666666666667,1.585,0.549,0.488,0.0,0.0,0.0,0.0,0.0,0.0,0.0,0.0
5.389,0.05233333333333333,-0.16233333333333333,0.9523333333333333,0.976,0.488,0.793,0.0,0.0,0.0,0.0,0.0,0.0,0.0,0.0
5.399,0.052,-0.162,0.951,0.0,0.793,1.098,0.0,0.0,0.0,0.0,0.0,0.0,0.0,0.0
5.409,0.048999999999999995,-0.162,0.952,-0.915,0.915,1.22,0.0,0.0,0.0,0.0,0.0,0.0,0.0,0.0
5.419,0.046,-0.162,0.953,-0.854,0.61,1.341,0.0,0.0,0.0,0.0,0.0,0.0,0.0,0.0
5.43,0.043,-0.162,0.954,-0.488,0.671,0.854,0.0,0.0,0.0,0.0,0.0,0.0,0.0,0.0
5.44,0.042,-0.161,0.954,-1.402,-0.366,0.122,0.0,0.0,0.0,0.0,0.0,0.0,0.0,0.0
5.449,0.0426,-0.1612,0.9553999999999999,-0.671,-0.366,0.122,0.0,0.0,0.0,0.0,0.0,0.0,0.0,0.0
5.459,0.0432,-0.16140000000000002,0.9568,1.28,1.89,0.366,0.0,0.0,0.0,0.0,0.0,0.0,0.0,0.0
5.469,0.0438,-0.1616,0.9581999999999999,1.22,2.256,0.366,0.0,0.0,0.0,0.0,0.0,0.0,0.0,0.0
5.479,0.0444,-0.1618,0.9596,-0.244,1.463,0.183,0.0,0.0,0.0,0.0,0.0,0.0,0.0,0.0
5.49,0.045,-0.162,0.961,-1.159,1.098,0.244,0.0,0.0,0.0,0.0,0.0,0.0,0.0,0.0
5.5,0.05,-0.164,0.963,-1.22,0.915,0.488,0.0,0.0,0.0,0.0,0.0,0.0,0.0,0.0
5.509,0.048,-0.16275,0.9584999999999999,-0.976,1.28,0.671,0.0,0.0,0.0,0.0,0.0,0.0,0.0,0.0
5.519,0.046,-0.1615,0.954,-0.976,0.976,0.549,0.0,0.0,0.0,0.0,0.0,0.0,0.0,0.0
5.529,0.044000000000000004,-0.16025,0.9495,-1.341,0.0,0.305,0.0,0.0,0.0,0.0,0.0,0.0,0.0,0.0
5.54,0.042,-0.159,0.945,-1.28,-0.122,0.366,0.0,0.0,0.0,0.0,0.0,0.0,0.0,0.0
5.55,0.048,-0.161,0.946,-0.915,0.305,0.549,0.0,0.0,0.0,0.0,0.0,0.0,0.0,0.0
5.56,0.0484,-0.162,0.947,-0.488,0.549,0.854,0.0,0.0,0.0,0.0,0.0,0.0,0.0,0.0
5.57,0.0488,-0.163,0.948,-0.244,0.915,1.037,0.0,0.0,0.0,0.0,0.0,0.0,0.0,0.0
5.579,0.0492,-0.164,0.949,-0.061,1.098,1.341,0.0,0.0,0.0,0.0,0.0,0.0,0.0,0.0
5.589,0.049600000000000005,-0.165,0.95,0.0,1.037,1.646,0.0,0.0,0.0,0.0,0.0,0.0,0.0,0.0
5.6,0.05,-0.166,0.951,-0.244,0.793,1.707,0.0,0.0,0.0,0.0,0.0,0.0,0.0,0.0
5.61,0.047,-0.164,0.95,-0.671,0.183,1.098,0.0,0.0,0.0,0.0,0.0,0.0,0.0,0.0
5.62,0.04633333333333333,-0.161,0.9483333333333333,-0.427,-0.366,0.854,0.0,0.0,0.0,0.0,0.0,0.0,0.0,0.0
5.63,0.04566666666666667,-0.158,0.9466666666666667,0.183,-0.549,0.366,0.0,0.0,0.0,0.0,0.0,0.0,0.0,0.0
5.641,0.045,-0.155,0.945,0.549,-0.488,0.061,0.0,0.0,0.0,0.0,0.0,0.0,0.0,0.0
5.649,0.048,-0.157,0.9506666666666667,1.037,0.244,0.122,0.0,0.0,0.0,0.0,0.0,0.0,0.0,0.0
5.66,0.051,-0.159,0.9563333333333333,1.402,0.732,0.488,0.0,0.0,0.0,0.0,0.0,0.0,0.0,0.0
5.67,0.054,-0.161,0.962,1.585,1.524,0.854,0.0,0.0,0.0,0.0,0.0,0.0,0.0,0.0
5.68,0.050666666666666665,-0.159,0.9606666666666667,1.524,2.073,0.793,0.0,0.0,0.0,0.0,0.0,0.0,0.0,0.0
5.69,0.04733333333333333,-0.157,0.9593333333333333,0.671,1.707,0.488,0.0,0.0,0.0,0.0,0.0,0.0,0.0,0.0
5.701,0.044,-0.155,0.958,-0.488,0.854,0.061,0.0,0.0,0.0,0.0,0.0,0.0,0.0,0.0
5.711,0.041,-0.154,0.957,-1.341,0.366,-0.366,0.0,0.0,0.0,0.0,0.0,0.0,0.0,0.0
5.72,0.042,-0.1562,0.9573999999999999,-2.195,-0.244,-0.671,0.0,0.0,0.0,0.0,0.0,0.0,0.0,0.0
5.73,0.043000000000000003,-0.1584,0.9578,-2.744,-0.671,-0.732,0.0,0.0,0.0,0.0,0.0,0.0,0.0,0.0
5.74,0.044,-0.1606,0.9581999999999999,-2.195,-0.183,-0.427,0.0,0.0,0.0,0.0,0.0,0.0,0.0,0.0
5.75,0.045,-0.1628,0.9586,-1.22,0.305,-0.122,0.0,0.0,0.0,0.0,0.0,0.0,0.0,0.0
5.761,0.046,-0.165,0.959,-0.488,0.61,0.0,0.0,0.0,0.0,0.0,0.0,0.0,0.0,0.0
5.771,0.047,-0.166,0.954,0.183,0.854,0.0,0.0,0.0,0.0,0.0,0.0,0.0,0.0,0.0
5.78,0.0465,-0.16575,0.95375,0.427,1.28,-0.122,0.0,0.0,0.0,0.0,0.0,0.0,0.0,0.0
5.79,0.046,-0.1655,0.9535,0.488,1.402,-0.244,0.0,0.0,0.0,0.0,0.0,0.0,0.0,0.0
5.8,0.0455,-0.16525,0.9532499999999999,0.61,1.768,-0.366,0.0,0.0,0.0,0.0,0.0,0.0,0.0,0.0
5.811,0.045,-0.165,0.953,0.61,1.341,-0.61,0.0,0.0,0.0,0.0,0.0,0.0,0.0,0.0
5.821,0.044,-0.16,0.948,0.488,1.098,-0.854,0.0,0.0,0.0,0.0,0.0,0.0,0.0,0.0
5.831,0.0436,-0.1602,0.948,0.061,1.159,-0.915,0.0,0.0,0.0,0.0,0.0,0.0,0.0,0.0
5.841,0.0432,-0.16040000000000001,0.948,-0.671,0.915,-0.854,0.0,0.0,0.0,0.0,0.0,0.0,0.0,0.0
5.85,0.0428,-0.1606,0.948,-1.22,0.427,-0.732,0.0,0.0,0.0,0.0,0.0,0.0,0.0,0.0
5.86,0.0424,-0.1608,0.948,-1.28,0.244,-0.549,0.0,0.0,0.0,0.0,0.0,0.0,0.0,0.0
5.871,0.042,-0.161,0.948,-0.793,0.488,-0.549,0.0,0.0,0.0,0.0,0.0,0.0,0.0,0.0
5.881,0.046,-0.161,0.951,0.061,0.732,-0.671,0.0,0.0,0.0,0.0,0.0,0.0,0.0,0.0
5.891,0.04466666666666667,-0.16133333333333333,0.9516666666666667,0.793,1.098,-0.915,0.0,0.0,0.0,0.0,0.0,0.0,0.0,0.0
5.901,0.043333333333333335,-0.16166666666666668,0.9523333333333333,1.037,1.098,-1.159,0.0,0.0,0.0,0.0,0.0,0.0,0.0,0.0
5.912,0.042,-0.162,0.953,0.854,0.915,-1.22,0.0,0.0,0.0,0.0,0.0,0.0,0.0,0.0
5.92,0.04166666666666667,-0.16233333333333333,0.9516666666666667,-0.366,0.183,-1.402,0.0,0.0,0.0,0.0,0.0,0.0,0.0,0.0
5.931,0.04133333333333333,-0.16266666666666668,0.9503333333333333,-1.28,-0.488,-1.402,0.0,0.0,0.0,0.0,0.0,0.0,0.0,0.0
5.941,0.041,-0.163,0.949,-1.89,-1.098,-1.341,0.0,0.0,0.0,0.0,0.0,0.0,0.0,0.0
5.951,0.043000000000000003,-0.16366666666666668,0.949,-1.89,-1.28,-1.341,0.0,0.0,0.0,0.0,0.0,0.0,0.0,0.0
5.961,0.045,-0.16433333333333333,0.949,-0.671,-0.61,-1.28,0.0,0.0,0.0,0.0,0.0,0.0,0.0,0.0
5.972,0.047,-0.165,0.949,-0.305,-0.427,-1.524,0.0,0.0,0.0,0.0,0.0,0.0,0.0,0.0
5.982,0.043,-0.167,0.952,-1.037,-0.976,-2.256,0.0,0.0,0.0,0.0,0.0,0.0,0.0,0.0
5.991,0.0416,-0.16620000000000001,0.9518,-1.768,-1.829,-2.5,0.0,0.0,0.0,0.0,0.0,0.0,0.0,0.0
6.001,0.0402,-0.16540000000000002,0.9516,-1.646,-1.585,-2.073,0.0,0.0,0.0,0.0,0.0,0.0,0.0,0.0
6.011,0.0388,-0.1646,0.9513999999999999,-1.829,-1.463,-1.951,0.0,0.0,0.0,0.0,0.0,0.0,0.0,0.0
6.021,0.037399999999999996,-0.1638,0.9511999999999999,-2.195,-0.549,-2.317,0.0,0.0,0.0,0.0,0.0,0.0,0.0,0.0
6.032,0.036,-0.163,0.951,-3.841,1.402,-2.927,0.0,0.0,0.0,0.0,0.0,0.0,0.0,0.0
6.042,0.046,-0.152,0.965,-3.537,-2.988,-3.171,0.0,0.0,0.0,0.0,0.0,0.0,0.0,0.0
6.052,0.046,-0.1575,0.96575,-3.476,-3.72,-2.5,0.0,0.0,0.0,0.0,0.0,0.0,0.0,0.0
6.061,0.046,-0.16299999999999998,0.9664999999999999,-2.073,-2.134,-2.683,0.0,0.0,0.0,0.0,0.0,0.0,0.0,0.0
6.071,0.046,-0.16849999999999998,0.9672499999999999,-1.098,-1.098,-2.439,0.0,0.0,0.0,0.0,0.0,0.0,0.0,0.0
6.082,0.046,-0.174,0.968,-0.976,-0.61,-2.805,0.0,0.0,0.0,0.0,0.0,0.0,0.0,0.0
6.092,0.049,-0.168,0.967,-0.915,-0.366,-3.11,0.0,0.0,0.0,0.0,0.0,0.0,0.0,0.0
6.102,0.0496,-0.168,0.966,-1.28,-0.488,-3.293,0.0,0.0,0.0,0.0,0.0,0.0,0.0,0.0
6.112,0.0502,-0.168,0.965,-1.768,-1.28,-3.659,0.0,0.0,0.0,0.0,0.0,0.0,0.0,0.0
6.121,0.0508,-0.168,0.964,-3.354,-2.195,-3.963,0.0,0.0,0.0,0.0,0.0,0.0,0.0,0.0
6.131,0.0514,-0.168,0.963,-5.183,-2.927,-4.146,0.0,0.0,0.0,0.0,0.0,0.0,0.0,0.0
6.142,0.052,-0.168,0.962,-5.061,-2.195,-3.598,0.0,0.0,0.0,0.0,0.0,0.0,0.0,0.0
6.152,0.057,-0.175,0.959,-3.415,-0.854,-2.927,0.0,0.0,0.0,0.0,0.0,0.0,0.0,0.0
6.162,0.057,-0.1753333333333333,0.958,-1.89,0.183,-2.866,0.0,0.0,0.0,0.0,0.0,0.0,0.0,0.0
6.172,0.057,-0.17566666666666667,0.957,-0.671,2.622,-3.11,0.0,0.0,0.0,0.0,0.0,0.0,0.0,0.0
6.183,0.057,-0.176,0.956,-0.671,2.439,-3.171,0.0,0.0,0.0,0.0,0.0,0.0,0.0,0.0
6.191,0.058666666666666666,-0.17766666666666667,0.949,-0.671,-0.244,-3.11,0.0,0.0,0.0,0.0,0.0,0.0,0.0,0.0
6.202,0.060333333333333336,-0.17933333333333332,0.9420000000000001,0.183,0.183,-3.354,0.0,0.0,0.0,0.0,0.0,0.0,0.0,0.0
6.212,0.062,-0.181,0.935,-0.122,-0.366,-3.72,0.0,0.0,0.0,0.0,0.0,0.0,0.0,0.0
6.222,0.059666666666666666,-0.17966666666666667,0.9390000000000001,-1.22,-1.707,-3.902,0.0,0.0,0.0,0.0,0.0,0.0,0.0,0.0
6.232,0.05733333333333333,-0.17833333333333332,0.943,-1.28,-2.195,-4.146,0.0,0.0,0.0,0.0,0.0,0.0,0.0,0.0
6.243,0.055,-0.177,0.947,-0.732,-1.646,-4.146,0.0,0.0,0.0,0.0,0.0,0.0,0.0,0.0
6.253,0.059,-0.176,0.956,0.0,-0.549,-3.902,0.0,0.0,0.0,0.0,0.0,0.0,0.0,0.0
6.262,0.0596,-0.1772,0.9556,0.671,0.122,-4.146,0.0,0.0,0.0,0.0,0.0,0.0,0.0,0.0
6.272,0.0602,-0.1784,0.9551999999999999,1.341,0.61,-4.268,0.0,0.0,0.0,0.0,0.0,0.0,0.0,0.0
6.282,0.0608,-0.17959999999999998,0.9548,2.134,1.037,-3.902,0.0,0.0,0.0,0.0,0.0,0.0,0.0,0.0
6.292,0.061399999999999996,-0.1808,0.9543999999999999,2.805,1.22,-3.537,0.0,0.0,0.0,0.0,0.0,0.0,0.0,0.0
6.303,0.062,-0.182,0.954,3.415,2.195,-3.293,0.0,0.0,0.0,0.0,0.0,0.0,0.0,0.0
6.313,0.063,-0.181,0.952,3.72,2.561,-3.232,0.0,0.0,0.0,0.0,0.0,0.0,0.0,0.0
6.323,0.06175,-0.18025,0.9535,2.561,1.951,-3.354,0.0,0.0,0.0,0.0,0.0,0.0,0.0,0.0
6.332,0.0605,-0.1795,0.955,1.768,1.585,-3.659,0.0,0.0,0.0,0.0,0.0,0.0,0.0,0.0
6.342,0.059250000000000004,-0.17875,0.9564999999999999,1.951,1.707,-3.841,0.0,0.0,0.0,0.0,0.0,0.0,0.0,0.0
6.353,0.058,-0.178,0.958,2.622,2.195,-4.085,0.0,0.0,0.0,0.0,0.0,0.0,0.0,0.0
6.363,0.058,-0.182,0.957,2.988,2.195,-4.451,0.0,0.0,0.0,0.0,0.0,0.0,0.0,0.0
6.373,0.058,-0.1818,0.954,2.683,1.768,-4.939,0.0,0.0,0.0,0.0,0.0,0.0,0.0,0.0
6.383,0.058,-0.18159999999999998,0.951,2.195,1.28,-5.183,0.0,0.0,0.0,0.0,0.0,0.0,0.0,0.0
6.392,0.058,-0.1814,0.948,2.195,0.854,-5.305,0.0,0.0,0.0,0.0,0.0,0.0,0.0,0.0
6.402,0.058,-0.1812,0.945,3.171,1.28,-5.488,0.0,0.0,0.0,0.0,0.0,0.0,0.0,0.0
6.413,0.058,-0.181,0.942,3.171,1.098,-5.427,0.0,0.0,0.0,0.0,0.0,0.0,0.0,0.0
6.423,0.063,-0.179,0.942,1.768,0.0,-5.61,0.0,0.0,0.0,0.0,0.0,0.0,0.0,0.0
6.433,0.061,-0.179,0.944,1.768,0.488,-5.366,0.0,0.0,0.0,0.0,0.0,0.0,0.0,0.0
6.443,0.059000000000000004,-0.179,0.946,1.585,0.976,-5.122,0.0,0.0,0.0,0.0,0.0,0.0,0.0,0.0
6.454,0.057,-0.179,0.948,0.244,0.427,-5.0,0.0,0.0,0.0,0.0,0.0,0.0,0.0,0.0
6.462,0.056,-0.17833333333333332,0.951,-0.061,0.549,-4.939,0.0,0.0,0.0,0.0,0.0,0.0,0.0,0.0
6.473,0.055,-0.17766666666666667,0.954,1.28,1.463,-4.817,0.0,0.0,0.0,0.0,0.0,0.0,0.0,0.0
6.483,0.054,-0.177,0.957,3.11,2.5,-4.512,0.0,0.0,0.0,0.0,0.0,0.0,0.0,0.0
6.493,0.05,-0.176,0.9556666666666667,4.024,3.11,-4.39,0.0,0.0,0.0,0.0,0.0,0.0,0.0,0.0
6.503,0.046,-0.175,0.9543333333333333,4.207,3.293,-4.268,0.0,0.0,0.0,0.0,0.0,0.0,0.0,0.0
6.514,0.042,-0.174,0.953,4.268,3.78,-4.024,0.0,0.0,0.0,0.0,0.0,0.0,0.0,0.0
6.524,0.045,-0.172,0.962,3.659,3.902,-3.354,0.0,0.0,0.0,0.0,0.0,0.0,0.0,0.0
6.533,0.041999999999999996,-0.172,0.9578,2.561,3.659,-2.683,0.0,0.0,0.0,0.0,0.0,0.0,0.0,0.0
6.543,0.039,-0.172,0.9536,1.524,3.476,-2.439,0.0,0.0,0.0,0.0,0.0,0.0,0.0,0.0
6.553,0.036,-0.172,0.9493999999999999,1.22,3.415,-2.195,0.0,0.0,0.0,0.0,0.0,0.0,0.0,0.0
6.563,0.033,-0.172,0.9451999999999999,1.524,3.537,-1.829,0.0,0.0,0.0,0.0,0.0,0.0,0.0,0.0
6.574,0.03,-0.172,0.941,2.683,4.329,-1.524,0.0,0.0,0.0,0.0,0.0,0.0,0.0,0.0
6.584,0.035,-0.18,0.94,3.841,4.817,-1.463,0.0,0.0,0.0,0.0,0.0,0.0,0.0,0.0
6.593,0.039,-0.182,0.93775,4.451,4.817,-1.524,0.0,0.0,0.0,0.0,0.0,0.0,0.0,0.0
6.603,0.043,-0.184,0.9355,4.146,4.207,-1.463,0.0,0.0,0.0,0.0,0.0,0.0,0.0,0.0
6.613,0.047,-0.186,0.93325,2.561,2.866,-1.463,0.0,0.0,0.0,0.0,0.0,0.0,0.0,0.0
6.624,0.051,-0.188,0.931,0.488,1.951,-1.463,0.0,0.0,0.0,0.0,0.0,0.0,0.0,0.0
6.634,0.056,-0.184,0.938,-1.22,1.341,-1.159,0.0,0.0,0.0,0.0,0.0,0.0,0.0,0.0
6.644,0.0596,-0.18159999999999998,0.9324,-2.073,1.098,-0.854,0.0,0.0,0.0,0.0,0.0,0.0,0.0,0.0
6.654,0.0632,-0.1792,0.9268,-2.012,1.22,-0.488,0.0,0.0,0.0,0.0,0.0,0.0,0.0,0.0
6.663,0.0668,-0.17679999999999998,0.9212,-1.89,1.28,-0.366,0.0,0.0,0.0,0.0,0.0,0.0,0.0,0.0
6.673,0.07039999999999999,-0.1744,0.9156,-2.927,2.012,-0.61,0.0,0.0,0.0,0.0,0.0,0.0,0.0,0.0
6.684,0.074,-0.172,0.91,-3.841,-0.122,-1.28,0.0,0.0,0.0,0.0,0.0,0.0,0.0,0.0
6.694,0.071,-0.167,0.909,-4.939,-3.598,-1.402,0.0,0.0,0.0,0.0,0.0,0.0,0.0,0.0
6.704,0.07133333333333333,-0.165,0.9116666666666667,-6.159,-5.061,-1.28,0.0,0.0,0.0,0.0,0.0,0.0,0.0,0.0
6.714,0.07166666666666666,-0.163,0.9143333333333333,-5.793,-5.122,-1.159,0.0,0.0,0.0,0.0,0.0,0.0,0.0,0.0
6.725,0.072,-0.161,0.917,-4.207,-3.72,-0.61,0.0,0.0,0.0,0.0,0.0,0.0,0.0,0.0
6.733,0.06533333333333333,-0.14766666666666667,0.9203333333333333,-4.024,-5.244,-0.854,0.0,0.0,0.0,0.0,0.0,0.0,0.0,0.0
6.744,0.058666666666666666,-0.13433333333333333,0.9236666666666667,-4.207,-7.073,-1.22,0.0,0.0,0.0,0.0,0.0,0.0,0.0,0.0
6.754,0.052,-0.121,0.927,-4.024,-8.476,-1.463,0.0,0.0,0.0,0.0,0.0,0.0,0.0,0.0
6.764,0.05833333333333333,-0.11833333333333333,0.934,-3.902,-10.305,-1.646,0.0,0.0,0.0,0.0,0.0,0.0,0.0,0.0
6.774,0.06466666666666666,-0.11566666666666667,0.941,-3.354,-12.012,-2.073,0.0,0.0,0.0,0.0,0.0,0.0,0.0,0.0
6.785,0.071,-0.113,0.948,-2.073,-12.256,-2.378,0.0,0.0,0.0,0.0,0.0,0.0,0.0,0.0
6.795,0.082,-0.111,0.958,-0.61,-11.22,-2.5,0.0,0.0,0.0,0.0,0.0,0.0,0.0,0.0
6.804,0.08,-0.1072,0.957,-0.366,-10.976,-2.866,0.0,0.0,0.0,0.0,0.0,0.0,0.0,0.0
6.814,0.078,-0.1034,0.956,-0.671,-10.976,-3.415,0.0,0.0,0.0,0.0,0.0,0.0,0.0,0.0
6.824,0.076,-0.0996,0.955,-0.671,-10.854,-3.902,0.0,0.0,0.0,0.0,0.0,0.0,0.0,0.0
6.834,0.074,-0.0958,0.954,-2.134,-12.622,-4.329,0.0,0.0,0.0,0.0,0.0,0.0,0.0,0.0
6.845,0.072,-0.092,0.953,-2.988,-15.244,-4.573,0.0,0.0,0.0,0.0,0.0,0.0,0.0,0.0
6.855,0.06,-0.091,0.938,-2.012,-16.89,-4.146,0.0,0.0,0.0,0.0,0.0,0.0,0.0,0.0
6.864,0.0495,-0.09525,0.94675,0.488,-16.707,-3.537,0.0,0.0,0.0,0.0,0.0,0.0,0.0,0.0
6.874,0.039,-0.0995,0.9555,2.927,-16.159,-3.598,0.0,0.0,0.0,0.0,0.0,0.0,0.0,0.0
6.884,0.028499999999999998,-0.10375,0.9642499999999999,5.61,-15.305,-3.537,0.0,0.0,0.0,0.0,0.0,0.0,0.0,0.0
6.895,0.018,-0.108,0.973,7.317,-13.171,-3.841,0.0,0.0,0.0,0.0,0.0,0.0,0.0,0.0
6.905,0.027,-0.123,0.99,8.415,-11.159,-2.988,0.0,0.0,0.0,0.0,0.0,0.0,0.0,0.0
6.915,0.0284,-0.13,0.9852,10.0,-7.256,-1.22,0.0,0.0,0.0,0.0,0.0,0.0,0.0,0.0
6.925,0.0298,-0.137,0.9803999999999999,9.512,-6.28,-0.549,0.0,0.0,0.0,0.0,0.0,0.0,0.0,0.0
