Timestamp,Acc x (g),Acc y (g),Acc z (g),Gyro x (deg/s),Gyro y (deg/s),Gyro z (deg/s),Beccheggio/Pitch (deg/s),Rollio/Roll (deg/s),Imbardata/Yaw (deg/s),Mag x (microTesla),Mag y (microTesla),Mag z (microTesla),Pressione (milliBar),Altitudine (m)
0.0,0.171,-0.168,0.948,1.646,4.329,0.732,0.0,0.0,0.0,0.0,0.0,0.0,0.0,0.0
0.01,0.166,-0.164,0.947,1.402,3.902,0.854,0.0,0.0,0.0,0.0,0.0,0.0,0.0,0.0
0.02,0.163,-0.15,0.941,2.439,3.537,0.244,0.0,0.0,0.0,0.0,0.0,0.0,0.0,0.0
0.031,0.16266666666666668,-0.15333333333333332,0.943,4.024,4.451,-0.671,0.0,0.0,0.0,0.0,0.0,0.0,0.0,0.0
0.04,0.16233333333333333,-0.15666666666666668,0.945,3.902,5.427,-0.854,0.0,0.0,0.0,0.0,0.0,0.0,0.0,0.0
0.05,0.162,-0.16,0.947,4.512,5.854,-0.549,0.0,0.0,0.0,0.0,0.0,0.0,0.0,0.0
0.06,0.171,-0.161,0.935,6.524,7.073,-0.427,0.0,0.0,0.0,0.0,0.0,0.0,0.0,0.0
0.07,0.167,-0.154,0.928,8.049,7.256,-0.671,0.0,0.0,0.0,0.0,0.0,0.0,0.0,0.0
0.081,0.168,-0.153,0.94,7.683,5.915,-0.366,0.0,0.0,0.0,0.0,0.0,0.0,0.0,0.0
0.091,0.169,-0.152,0.952,6.768,5.305,0.061,0.0,0.0,0.0,0.0,0.0,0.0,0.0,0.0
0.101,0.171,-0.153,0.954,4.207,3.72,0.732,0.0,0.0,0.0,0.0,0.0,0.0,0.0,0.0
0.11,0.1695,-0.1545,0.959,1.098,0.793,1.707,0.0,0.0,0.0,0.0,0.0,0.0,0.0,0.0
0.12,0.168,-0.156,0.964,0.671,0.915,2.561,0.0,0.0,0.0,0.0,0.0,0.0,0.0,0.0
0.13,0.162,-0.16,0.963,1.768,1.585,3.537,0.0,0.0,0.0,0.0,0.0,0.0,0.0,0.0
0.141,0.165,-0.1575,0.967,2.805,3.902,5.122,0.0,0.0,0.0,0.0,0.0,0.0,0.0,0.0
0.151,0.168,-0.155,0.971,3.78,6.951,6.28,0.0,0.0,0.0,0.0,0.0,0.0,0.0,0.0
0.161,0.165,-0.149,0.966,3.598,8.963,6.768,0.0,0.0,0.0,0.0,0.0,0.0,0.0,0.0
0.171,0.158,-0.154,0.964,3.415,9.329,7.073,0.0,0.0,0.0,0.0,0.0,0.0,0.0,0.0
0.18,0.1535,-0.14450000000000002,0.9604999999999999,3.049,9.329,6.89,0.0,0.0,0.0,0.0,0.0,0.0,0.0,0.0
0.19,0.149,-0.135,0.957,2.134,8.415,5.854,0.0,0.0,0.0,0.0,0.0,0.0,0.0,0.0
0.201,0.14350000000000002,-0.1335,0.962,-1.768,4.024,5.061,0.0,0.0,0.0,0.0,0.0,0.0,0.0,0.0
0.211,0.138,-0.132,0.967,-6.159,0.427,5.061,0.0,0.0,0.0,0.0,0.0,0.0,0.0,0.0
0.221,0.144,-0.145,0.957,-6.89,0.671,4.817,0.0,0.0,0.0,0.0,0.0,0.0,0.0,0.0
0.231,0.151,-0.153,0.944,-4.329,2.195,5.061,0.0,0.0,0.0,0.0,0.0,0.0,0.0,0.0
0.24,0.15,-0.147,0.948,-2.744,3.232,5.305,0.0,0.0,0.0,0.0,0.0,0.0,0.0,0.0
0.25,0.149,-0.141,0.952,-3.049,3.171,4.39,0.0,0.0,0.0,0.0,0.0,0.0,0.0,0.0
0.261,0.1515,-0.1405,0.951,-3.171,2.744,3.476,0.0,0.0,0.0,0.0,0.0,0.0,0.0,0.0
0.271,0.154,-0.14,0.95,-1.037,2.927,1.707,0.0,0.0,0.0,0.0,0.0,0.0,0.0,0.0
0.281,0.146,-0.141,0.927,2.866,2.622,-0.366,0.0,0.0,0.0,0.0,0.0,0.0,0.0,0.0
0.291,0.145,-0.138,0.939,3.415,2.317,-1.402,0.0,0.0,0.0,0.0,0.0,0.0,0.0,0.0
0.302,0.1465,-0.14175000000000001,0.94275,1.341,0.854,-2.073,0.0,0.0,0.0,0.0,0.0,0.0,0.0,0.0
0.31,0.148,-0.14550000000000002,0.9464999999999999,-0.549,-0.732,-1.89,0.0,0.0,0.0,0.0,0.0,0.0,0.0,0.0
0.321,0.1495,-0.14925,0.9502499999999999,-2.134,-0.854,-1.341,0.0,0.0,0.0,0.0,0.0,0.0,0.0,0.0
0.331,0.151,-0.153,0.954,-2.5,-0.61,-0.549,0.0,0.0,0.0,0.0,0.0,0.0,0.0,0.0
0.341,0.151,-0.153,0.953,-1.585,-0.915,-0.122,0.0,0.0,0.0,0.0,0.0,0.0,0.0,0.0
0.352,0.151,-0.14650000000000002,0.9564999999999999,-0.305,-1.28,-0.244,0.0,0.0,0.0,0.0,0.0,0.0,0.0,0.0
0.362,0.151,-0.14,0.96,-1.341,-0.976,-0.793,0.0,0.0,0.0,0.0,0.0,0.0,0.0,0.0
0.372,0.157,-0.156,0.971,-2.012,0.915,0.244,0.0,0.0,0.0,0.0,0.0,0.0,0.0,0.0
0.381,0.153,-0.1575,0.9624999999999999,-1.951,1.159,1.28,0.0,0.0,0.0,0.0,0.0,0.0,0.0,0.0
0.391,0.149,-0.159,0.954,-1.768,0.183,1.341,0.0,0.0,0.0,0.0,0.0,0.0,0.0,0.0
0.401,0.148,-0.147,0.952,-1.524,0.366,1.402,0.0,0.0,0.0,0.0,0.0,0.0,0.0,0.0
0.412,0.145,-0.1445,0.95,-1.89,0.0,1.28,0.0,0.0,0.0,0.0,0.0,0.0,0.0,0.0
0.422,0.142,-0.142,0.948,-1.524,-1.28,0.549,0.0,0.0,0.0,0.0,0.0,0.0,0.0,0.0
0.432,0.14,-0.14,0.952,-1.768,-1.89,0.0,0.0,0.0,0.0,0.0,0.0,0.0,0.0,0.0
0.442,0.153,-0.141,0.972,-4.512,-1.951,0.671,0.0,0.0,0.0,0.0,0.0,0.0,0.0,0.0
0.451,0.152,-0.15,0.9784999999999999,-7.378,-2.744,1.22,0.0,0.0,0.0,0.0,0.0,0.0,0.0,0.0
0.461,0.151,-0.159,0.985,-9.573,-3.72,1.585,0.0,0.0,0.0,0.0,0.0,0.0,0.0,0.0
0.472,0.154,-0.1625,0.974,-7.866,-0.976,2.256,0.0,0.0,0.0,0.0,0.0,0.0,0.0,0.0
0.482,0.157,-0.166,0.963,-4.939,1.159,2.5,0.0,0.0,0.0,0.0,0.0,0.0,0.0,0.0
0.492,0.155,-0.157,0.957,-4.207,1.951,2.439,0.0,0.0,0.0,0.0,0.0,0.0,0.0,0.0
0.502,0.148,-0.154,0.958,-3.963,1.463,2.012,0.0,0.0,0.0,0.0,0.0,0.0,0.0,0.0
0.511,0.15,-0.1535,0.9555,-4.268,0.793,1.524,0.0,0.0,0.0,0.0,0.0,0.0,0.0,0.0
0.521,0.152,-0.153,0.953,-4.878,1.341,1.707,0.0,0.0,0.0,0.0,0.0,0.0,0.0,0.0
0.532,0.153,-0.161,0.9544999999999999,-4.207,3.049,2.134,0.0,0.0,0.0,0.0,0.0,0.0,0.0,0.0
0.542,0.154,-0.169,0.956,-3.78,4.024,2.805,0.0,0.0,0.0,0.0,0.0,0.0,0.0,0.0
0.552,0.15,-0.165,0.958,-5.732,2.988,3.232,0.0,0.0,0.0,0.0,0.0,0.0,0.0,0.0
0.562,0.142,-0.157,0.955,-7.317,1.037,2.622,0.0,0.0,0.0,0.0,0.0,0.0,0.0,0.0
0.573,0.143,-0.15925,0.95025,-7.256,0.549,1.768,0.0,0.0,0.0,0.0,0.0,0.0,0.0,0.0
0.581,0.144,-0.1615,0.9455,-4.573,1.22,1.463,0.0,0.0,0.0,0.0,0.0,0.0,0.0,0.0
0.592,0.145,-0.16375,0.94075,-1.707,1.829,0.793,0.0,0.0,0.0,0.0,0.0,0.0,0.0,0.0
0.602,0.146,-0.166,0.936,0.549,1.768,-0.244,0.0,0.0,0.0,0.0,0.0,0.0,0.0,0.0
0.612,0.147,-0.167,0.939,2.988,2.378,-1.159,0.0,0.0,0.0,0.0,0.0,0.0,0.0,0.0
0.623,0.1505,-0.167,0.946,4.024,3.415,-1.463,0.0,0.0,0.0,0.0,0.0,0.0,0.0,0.0
0.633,0.154,-0.167,0.953,3.902,3.902,-1.768,0.0,0.0,0.0,0.0,0.0,0.0,0.0,0.0
0.643,0.148,-0.176,0.954,4.817,3.72,-1.646,0.0,0.0,0.0,0.0,0.0,0.0,0.0,0.0
0.652,0.14350000000000002,-0.16099999999999998,0.952,4.329,2.744,-1.89,0.0,0.0,0.0,0.0,0.0,0.0,0.0,0.0
0.662,0.139,-0.146,0.95,1.524,-0.549,-3.902,0.0,0.0,0.0,0.0,0.0,0.0,0.0,0.0
0.672,0.126,-0.134,0.939,-1.341,-5.976,-6.951,0.0,0.0,0.0,0.0,0.0,0.0,0.0,0.0
0.683,0.1375,-0.14350000000000002,0.9455,-3.171,-9.573,-10.122,0.0,0.0,0.0,0.0,0.0,0.0,0.0,0.0
0.693,0.149,-0.153,0.952,1.829,-8.598,-12.134,0.0,0.0,0.0,0.0,0.0,0.0,0.0,0.0
0.703,0.163,-0.177,0.961,8.354,-4.939,-10.671,0.0,0.0,0.0,0.0,0.0,0.0,0.0,0.0
0.713,0.17,-0.176,0.964,8.232,-2.561,-8.11,0.0,0.0,0.0,0.0,0.0,0.0,0.0,0.0
0.722,0.17,-0.174,0.9604999999999999,5.122,-2.927,-6.402,0.0,0.0,0.0,0.0,0.0,0.0,0.0,0.0
0.732,0.17,-0.172,0.957,2.988,-2.317,-4.451,0.0,0.0,0.0,0.0,0.0,0.0,0.0,0.0
0.743,0.169,-0.17049999999999998,0.9524999999999999,2.561,-0.244,-3.049,0.0,0.0,0.0,0.0,0.0,0.0,0.0,0.0
0.753,0.168,-0.169,0.948,2.988,0.061,-2.195,0.0,0.0,0.0,0.0,0.0,0.0,0.0,0.0
0.763,0.167,-0.162,0.946,3.354,-0.61,-1.951,0.0,0.0,0.0,0.0,0.0,0.0,0.0,0.0
0.773,0.162,-0.151,0.943,3.537,-1.951,-3.049,0.0,0.0,0.0,0.0,0.0,0.0,0.0,0.0
0.782,0.1625,-0.151,0.95,3.78,-3.659,-4.39,0.0,0.0,0.0,0.0,0.0,0.0,0.0,0.0
0.792,0.163,-0.151,0.957,3.963,-3.049,-4.695,0.0,0.0,0.0,0.0,0.0,0.0,0.0,0.0
0.803,0.163,-0.152,0.9584999999999999,4.329,-1.646,-4.756,0.0,0.0,0.0,0.0,0.0,0.0,0.0,0.0
0.813,0.163,-0.153,0.96,2.927,-1.585,-4.695,0.0,0.0,0.0,0.0,0.0,0.0,0.0,0.0
0.823,0.166,-0.154,0.96,1.341,-2.134,-2.866,0.0,0.0,0.0,0.0,0.0,0.0,0.0,0.0
0.833,0.18,-0.167,0.967,-0.366,-0.61,-0.244,0.0,0.0,0.0,0.0,0.0,0.0,0.0,0.0
0.844,0.176,-0.163,0.9635,-1.646,0.244,0.488,0.0,0.0,0.0,0.0,0.0,0.0,0.0,0.0
0.852,0.172,-0.159,0.96,-1.646,-0.244,0.976,0.0,0.0,0.0,0.0,0.0,0.0,0.0,0.0
0.863,0.168,-0.155,0.9564999999999999,-0.549,0.793,1.098,0.0,0.0,0.0,0.0,0.0,0.0,0.0,0.0
0.873,0.164,-0.151,0.953,0.732,1.768,0.61,0.0,0.0,0.0,0.0,0.0,0.0,0.0,0.0
0.883,0.166,-0.149,0.952,1.829,2.439,0.061,0.0,0.0,0.0,0.0,0.0,0.0,0.0,0.0
0.894,0.164,-0.1515,0.9544999999999999,2.5,2.866,-0.427,0.0,0.0,0.0,0.0,0.0,0.0,0.0,0.0
0.904,0.162,-0.154,0.957,3.232,3.476,-0.915,0.0,0.0,0.0,0.0,0.0,0.0,0.0,0.0
0.914,0.159,-0.152,0.947,3.537,3.659,-1.829,0.0,0.0,0.0,0.0,0.0,0.0,0.0,0.0
0.923,0.156,-0.149,0.9405,3.598,2.805,-3.232,0.0,0.0,0.0,0.0,0.0,0.0,0.0,0.0
0.933,0.153,-0.146,0.934,3.476,1.341,-5.122,0.0,0.0,0.0,0.0,0.0,0.0,0.0,0.0
0.943,0.159,-0.147,0.926,4.024,0.366,-7.744,0.0,0.0,0.0,0.0,0.0,0.0,0.0,0.0
0.954,0.16899999999999998,-0.1565,0.9430000000000001,5.122,1.646,-12.012,0.0,0.0,0.0,0.0,0.0,0.0,0.0,0.0
0.964,0.179,-0.166,0.96,5.366,5.366,-8.171,0.0,0.0,0.0,0.0,0.0,0.0,0.0,0.0
0.974,0.194,-0.187,0.967,10.305,9.329,-1.341,0.0,0.0,0.0,0.0,0.0,0.0,0.0,0.0
0.984,0.195,-0.188,0.963,14.695,18.049,2.744,0.0,0.0,0.0,0.0,0.0,0.0,0.0,0.0
0.993,0.17099999999999999,-0.1615,0.9595,11.037,16.89,1.707,0.0,0.0,0.0,0.0,0.0,0.0,0.0,0.0
1.003,0.147,-0.135,0.956,5.366,10.305,0.976,0.0,0.0,0.0,0.0,0.0,0.0,0.0,0.0
1.014,0.1495,-0.1385,0.952,2.622,8.415,2.073,0.0,0.0,0.0,0.0,0.0,0.0,0.0,0.0
1.024,0.152,-0.142,0.948,2.622,7.256,1.524,0.0,0.0,0.0,0.0,0.0,0.0,0.0,0.0
1.034,0.149,-0.146,0.945,3.232,5.915,2.012,0.0,0.0,0.0,0.0,0.0,0.0,0.0,0.0
1.044,0.152,-0.138,0.943,3.902,4.939,2.195,0.0,0.0,0.0,0.0,0.0,0.0,0.0,0.0
1.055,0.1495,-0.1365,0.948,3.963,3.78,2.195,0.0,0.0,0.0,0.0,0.0,0.0,0.0,0.0
1.063,0.147,-0.135,0.953,2.378,2.256,1.829,0.0,0.0,0.0,0.0,0.0,0.0,0.0,0.0
1.074,0.1445,-0.1335,0.958,-0.549,-0.488,1.646,0.0,0.0,0.0,0.0,0.0,0.0,0.0,0.0
1.084,0.142,-0.132,0.963,-3.902,-3.72,1.463,0.0,0.0,0.0,0.0,0.0,0.0,0.0,0.0
1.094,0.148,-0.134,0.968,-5.976,-4.878,1.402,0.0,0.0,0.0,0.0,0.0,0.0,0.0,0.0
1.104,0.158,-0.142,0.971,-6.463,-4.207,2.134,0.0,0.0,0.0,0.0,0.0,0.0,0.0,0.0
1.115,0.1565,-0.141,0.9684999999999999,-6.768,-3.293,2.927,0.0,0.0,0.0,0.0,0.0,0.0,0.0,0.0
1.123,0.155,-0.14,0.966,-6.098,-3.963,2.134,0.0,0.0,0.0,0.0,0.0,0.0,0.0,0.0
1.134,0.1535,-0.139,0.9635,-4.39,-4.329,0.976,0.0,0.0,0.0,0.0,0.0,0.0,0.0,0.0
1.144,0.152,-0.138,0.961,-3.841,-3.354,0.366,0.0,0.0,0.0,0.0,0.0,0.0,0.0,0.0
1.154,0.155,-0.144,0.965,-3.476,-2.439,0.183,0.0,0.0,0.0,0.0,0.0,0.0,0.0,0.0
1.165,0.1555,-0.1455,0.959,-3.902,-2.744,0.183,0.0,0.0,0.0,0.0,0.0,0.0,0.0,0.0
1.175,0.156,-0.147,0.953,-4.939,-3.476,0.427,0.0,0.0,0.0,0.0,0.0,0.0,0.0,0.0
1.185,0.157,-0.143,0.954,-6.524,-4.207,0.61,0.0,0.0,0.0,0.0,0.0,0.0,0.0,0.0
1.194,0.157,-0.145,0.9475,-7.378,-5.671,0.244,0.0,0.0,0.0,0.0,0.0,0.0,0.0,0.0
1.204,0.157,-0.147,0.941,-6.707,-6.159,0.305,0.0,0.0,0.0,0.0,0.0,0.0,0.0,0.0
1.214,0.163,-0.15,0.95,-6.098,-5.854,0.061,0.0,0.0,0.0,0.0,0.0,0.0,0.0,0.0
1.225,0.163,-0.156,0.9584999999999999,-6.341,-5.854,0.366,0.0,0.0,0.0,0.0,0.0,0.0,0.0,0.0
1.235,0.163,-0.162,0.967,-8.049,-5.854,0.976,0.0,0.0,0.0,0.0,0.0,0.0,0.0,0.0
1.245,0.167,-0.165,0.969,-7.134,-5.366,0.976,0.0,0.0,0.0,0.0,0.0,0.0,0.0,0.0
1.255,0.164,-0.16,0.95,-3.415,-4.695,0.244,0.0,0.0,0.0,0.0,0.0,0.0,0.0,0.0
1.264,0.165,-0.154,0.9595,-1.707,-2.622,0.183,0.0,0.0,0.0,0.0,0.0,0.0,0.0,0.0
1.274,0.166,-0.148,0.969,-3.598,-1.159,0.488,0.0,0.0,0.0,0.0,0.0,0.0,0.0,0.0
1.285,0.1725,-0.15999999999999998,0.971,-5.183,-0.061,1.463,0.0,0.0,0.0,0.0,0.0,0.0,0.0,0.0
1.295,0.179,-0.172,0.973,-5.061,2.317,2.866,0.0,0.0,0.0,0.0,0.0,0.0,0.0,0.0
1.305,0.178,-0.176,0.96,-3.171,5.366,4.146,0.0,0.0,0.0,0.0,0.0,0.0,0.0,0.0
1.315,0.167,-0.168,0.944,-0.61,6.341,4.146,0.0,0.0,0.0,0.0,0.0,0.0,0.0,0.0
1.326,0.1635,-0.1565,0.9359999999999999,2.622,6.341,3.049,0.0,0.0,0.0,0.0,0.0,0.0,0.0,0.0
1.334,0.16,-0.145,0.928,3.598,5.854,1.829,0.0,0.0,0.0,0.0,0.0,0.0,0.0,0.0
1.345,0.164,-0.1525,0.9355,3.171,4.878,1.098,0.0,0.0,0.0,0.0,0.0,0.0,0.0,0.0
1.355,0.168,-0.16,0.943,2.927,5.061,1.098,0.0,0.0,0.0,0.0,0.0,0.0,0.0,0.0
1.365,0.169,-0.167,0.954,2.439,5.976,1.646,0.0,0.0,0.0,0.0,0.0,0.0,0.0,0.0
1.375,0.164,-0.164,0.958,1.829,6.098,1.89,0.0,0.0,0.0,0.0,0.0,0.0,0.0,0.0
1.386,0.16225,-0.162,0.955,2.012,6.098,1.707,0.0,0.0,0.0,0.0,0.0,0.0,0.0,0.0
1.394,0.1605,-0.16,0.952,2.927,6.951,1.341,0.0,0.0,0.0,0.0,0.0,0.0,0.0,0.0
1.405,0.15875,-0.158,0.949,3.659,8.232,1.341,0.0,0.0,0.0,0.0,0.0,0.0,0.0,0.0
1.415,0.157,-0.156,0.946,4.329,9.268,1.341,0.0,0.0,0.0,0.0,0.0,0.0,0.0,0.0
1.425,0.156,-0.157,0.943,4.024,8.537,1.89,0.0,0.0,0.0,0.0,0.0,0.0,0.0,0.0
1.435,0.156,-0.159,0.939,4.207,7.866,2.561,0.0,0.0,0.0,0.0,0.0,0.0,0.0,0.0
1.446,0.1545,-0.157,0.944,5.793,9.695,3.11,0.0,0.0,0.0,0.0,0.0,0.0,0.0,0.0
1.456,0.153,-0.155,0.949,5.549,9.695,3.415,0.0,0.0,0.0,0.0,0.0,0.0,0.0,0.0
1.465,0.14100000000000001,-0.148,0.948,2.988,4.939,1.89,0.0,0.0,0.0,0.0,0.0,0.0,0.0,0.0
1.475,0.129,-0.141,0.947,-0.549,0.305,0.427,0.0,0.0,0.0,0.0,0.0,0.0,0.0,0.0
1.485,0.149,-0.145,0.961,-2.378,0.244,0.488,0.0,0.0,0.0,0.0,0.0,0.0,0.0,0.0
1.496,0.1495,-0.1555,0.967,0.366,3.537,1.585,0.0,0.0,0.0,0.0,0.0,0.0,0.0,0.0
1.506,0.15,-0.166,0.973,0.854,4.451,2.195,0.0,0.0,0.0,0.0,0.0,0.0,0.0,0.0
1.516,0.143,-0.151,0.97,-1.524,2.805,2.012,0.0,0.0,0.0,0.0,0.0,0.0,0.0,0.0
1.526,0.141,-0.15,0.966,-3.537,1.89,2.073,0.0,0.0,0.0,0.0,0.0,0.0,0.0,0.0
1.535,0.1425,-0.1505,0.9624999999999999,-3.537,1.341,1.463,0.0,0.0,0.0,0.0,0.0,0.0,0.0,0.0
1.545,0.144,-0.151,0.959,-3.415,0.61,1.037,0.0,0.0,0.0,0.0,0.0,0.0,0.0,0.0
1.556,0.14200000000000002,-0.15,0.962,-4.39,0.244,0.915,0.0,0.0,0.0,0.0,0.0,0.0,0.0,0.0
1.566,0.14,-0.149,0.965,-5.244,0.549,0.976,0.0,0.0,0.0,0.0,0.0,0.0,0.0,0.0
1.576,0.141,-0.157,0.963,-4.207,1.829,1.159,0.0,0.0,0.0,0.0,0.0,0.0,0.0,0.0
1.586,0.141,-0.159,0.951,-2.012,2.439,0.976,0.0,0.0,0.0,0.0,0.0,0.0,0.0,0.0
1.597,0.1405,-0.156,0.9555,-1.098,2.378,0.854,0.0,0.0,0.0,0.0,0.0,0.0,0.0,0.0
1.605,0.14,-0.153,0.96,-1.037,2.683,0.793,0.0,0.0,0.0,0.0,0.0,0.0,0.0,0.0
1.616,0.14200000000000002,-0.1575,0.9724999999999999,-0.915,4.085,1.159,0.0,0.0,0.0,0.0,0.0,0.0,0.0,0.0
1.626,0.144,-0.162,0.985,-0.549,6.22,1.829,0.0,0.0,0.0,0.0,0.0,0.0,0.0,0.0
1.636,0.149,-0.162,0.984,0.732,10.061,3.11,0.0,0.0,0.0,0.0,0.0,0.0,0.0,0.0
1.646,0.151,-0.159,0.979,2.073,14.024,4.329,0.0,0.0,0.0,0.0,0.0,0.0,0.0,0.0
1.657,0.14325,-0.1585,0.96675,4.634,16.463,4.634,0.0,0.0,0.0,0.0,0.0,0.0,0.0,0.0
1.665,0.1355,-0.158,0.9545,6.89,17.927,4.146,0.0,0.0,0.0,0.0,0.0,0.0,0.0,0.0
1.676,0.12775,-0.1575,0.94225,7.5,15.366,2.744,0.0,0.0,0.0,0.0,0.0,0.0,0.0,0.0
1.686,0.12,-0.157,0.93,7.988,11.951,1.524,0.0,0.0,0.0,0.0,0.0,0.0,0.0,0.0
1.696,0.124,-0.166,0.962,5.976,8.902,1.89,0.0,0.0,0.0,0.0,0.0,0.0,0.0,0.0
1.706,0.116,-0.152,0.979,-0.305,3.598,0.976,0.0,0.0,0.0,0.0,0.0,0.0,0.0,0.0
1.717,0.1145,-0.16,0.971,6.524,12.439,4.39,0.0,0.0,0.0,0.0,0.0,0.0,0.0,0.0
1.727,0.113,-0.168,0.963,4.695,9.329,3.293,0.0,0.0,0.0,0.0,0.0,0.0,0.0,0.0
1.736,0.1295,-0.1775,0.965,-1.707,3.902,3.72,0.0,0.0,0.0,0.0,0.0,0.0,0.0,0.0
1.746,0.146,-0.187,0.967,5.061,11.22,6.341,0.0,0.0,0.0,0.0,0.0,0.0,0.0,0.0
1.756,0.111,-0.155,0.983,3.537,8.293,5.854,0.0,0.0,0.0,0.0,0.0,0.0,0.0,0.0
1.767,0.114,-0.151,0.967,3.11,7.805,5.61,0.0,0.0,0.0,0.0,0.0,0.0,0.0,0.0
1.777,0.117,-0.147,0.951,5.366,7.5,4.756,0.0,0.0,0.0,0.0,0.0,0.0,0.0,0.0
1.787,0.109,-0.15,0.957,5.61,6.037,4.024,0.0,0.0,0.0,0.0,0.0,0.0,0.0,0.0
1.797,0.117,-0.157,0.983,4.268,6.28,4.39,0.0,0.0,0.0,0.0,0.0,0.0,0.0,0.0
1.806,0.117,-0.164,0.988,5.427,8.902,5.488,0.0,0.0,0.0,0.0,0.0,0.0,0.0,0.0
1.816,0.117,-0.171,0.993,7.073,11.037,7.012,0.0,0.0,0.0,0.0,0.0,0.0,0.0,0.0
1.827,0.1155,-0.161,0.9795,7.073,11.768,8.049,0.0,0.0,0.0,0.0,0.0,0.0,0.0,0.0
1.837,0.114,-0.151,0.966,7.805,11.951,8.537,0.0,0.0,0.0,0.0,0.0,0.0,0.0,0.0
1.847,0.104,-0.141,0.956,8.72,10.793,8.78,0.0,0.0,0.0,0.0,0.0,0.0,0.0,0.0
1.857,0.104,-0.127,0.952,8.11,10.427,8.72,0.0,0.0,0.0,0.0,0.0,0.0,0.0,0.0
1.868,0.0955,-0.124,0.9495,7.256,10.305,8.049,0.0,0.0,0.0,0.0,0.0,0.0,0.0,0.0
1.876,0.087,-0.121,0.947,6.463,9.207,7.378,0.0,0.0,0.0,0.0,0.0,0.0,0.0,0.0
1.887,0.092,-0.119,0.9464999999999999,5.793,8.476,6.89,0.0,0.0,0.0,0.0,0.0,0.0,0.0,0.0
1.897,0.097,-0.117,0.946,6.098,9.207,6.402,0.0,0.0,0.0,0.0,0.0,0.0,0.0,0.0
1.907,0.093,-0.117,0.947,7.439,10.854,6.22,0.0,0.0,0.0,0.0,0.0,0.0,0.0,0.0
1.917,0.092,-0.112,0.947,8.537,12.012,5.61,0.0,0.0,0.0,0.0,0.0,0.0,0.0,0.0
1.928,0.08875,-0.11125,0.948,10.305,13.232,4.817,0.0,0.0,0.0,0.0,0.0,0.0,0.0,0.0
1.936,0.08549999999999999,-0.1105,0.949,11.89,13.902,3.841,0.0,0.0,0.0,0.0,0.0,0.0,0.0,0.0
1.947,0.08225,-0.10975,0.95,11.463,12.805,2.378,0.0,0.0,0.0,0.0,0.0,0.0,0.0,0.0
1.957,0.079,-0.109,0.951,9.512,10.244,0.488,0.0,0.0,0.0,0.0,0.0,0.0,0.0,0.0
1.967,0.079,-0.124,0.956,8.72,9.146,-0.366,0.0,0.0,0.0,0.0,0.0,0.0,0.0,0.0
1.977,0.087,-0.136,0.963,9.939,10.488,0.122,0.0,0.0,0.0,0.0,0.0,0.0,0.0,0.0
1.988,0.09,-0.135,0.9704999999999999,10.244,11.402,0.854,0.0,0.0,0.0,0.0,0.0,0.0,0.0,0.0
1.998,0.093,-0.134,0.978,10.427,11.463,1.28,0.0,0.0,0.0,0.0,0.0,0.0,0.0,0.0
2.007,0.0895,-0.129,0.974,9.939,10.488,0.976,0.0,0.0,0.0,0.0,0.0,0.0,0.0,0.0
2.017,0.086,-0.124,0.97,9.512,10.366,0.854,0.0,0.0,0.0,0.0,0.0,0.0,0.0,0.0
2.027,0.083,-0.121,0.974,8.659,10.183,0.915,0.0,0.0,0.0,0.0,0.0,0.0,0.0,0.0
2.038,0.08,-0.11649999999999999,0.9715,6.951,10.122,0.671,0.0,0.0,0.0,0.0,0.0,0.0,0.0,0.0
2.048,0.077,-0.112,0.969,4.451,10.061,0.793,0.0,0.0,0.0,0.0,0.0,0.0,0.0,0.0
2.058,0.074,-0.113,0.964,2.317,9.939,0.732,0.0,0.0,0.0,0.0,0.0,0.0,0.0,0.0
2.068,0.072,-0.113,0.955,0.244,9.207,0.61,0.0,0.0,0.0,0.0,0.0,0.0,0.0,0.0
2.077,0.074,-0.1125,0.9455,-0.305,8.293,0.793,0.0,0.0,0.0,0.0,0.0,0.0,0.0,0.0
2.087,0.076,-0.112,0.936,-0.244,6.829,0.854,0.0,0.0,0.0,0.0,0.0,0.0,0.0,0.0
2.098,0.0775,-0.1195,0.9430000000000001,-1.28,5.61,0.549,0.0,0.0,0.0,0.0,0.0,0.0,0.0,0.0
2.108,0.079,-0.127,0.95,-0.244,6.646,1.707,0.0,0.0,0.0,0.0,0.0,0.0,0.0,0.0
2.118,0.073,-0.128,0.943,2.988,7.744,3.049,0.0,0.0,0.0,0.0,0.0,0.0,0.0,0.0
2.128,0.079,-0.123,0.956,4.939,9.634,4.329,0.0,0.0,0.0,0.0,0.0,0.0,0.0,0.0
2.139,0.069,-0.1105,0.9555,6.159,11.463,5.427,0.0,0.0,0.0,0.0,0.0,0.0,0.0,0.0
2.147,0.059,-0.098,0.955,6.402,11.463,5.061,0.0,0.0,0.0,0.0,0.0,0.0,0.0,0.0
2.158,0.0545,-0.08449999999999999,0.948,5.305,9.939,3.232,0.0,0.0,0.0,0.0,0.0,0.0,0.0,0.0
2.168,0.05,-0.071,0.941,2.927,7.073,1.28,0.0,0.0,0.0,0.0,0.0,0.0,0.0,0.0
2.178,0.057,-0.076,0.951,-0.183,3.841,0.549,0.0,0.0,0.0,0.0,0.0,0.0,0.0,0.0
2.188,0.065,-0.081,0.942,-0.183,2.439,-0.061,0.0,0.0,0.0,0.0,0.0,0.0,0.0,0.0
2.199,0.0555,-0.083,0.9375,0.793,1.524,-0.976,0.0,0.0,0.0,0.0,0.0,0.0,0.0,0.0
2.209,0.046,-0.085,0.933,1.341,-0.244,-1.463,0.0,0.0,0.0,0.0,0.0,0.0,0.0,0.0
2.218,0.0475,-0.093,0.9455,0.793,0.915,-1.585,0.0,0.0,0.0,0.0,0.0,0.0,0.0,0.0
2.228,0.049,-0.101,0.958,1.89,2.805,-1.463,0.0,0.0,0.0,0.0,0.0,0.0,0.0,0.0
2.238,0.053,-0.104,0.959,2.683,4.573,-0.732,0.0,0.0,0.0,0.0,0.0,0.0,0.0,0.0
2.248,0.051,-0.099,0.953,2.195,4.878,-0.549,0.0,0.0,0.0,0.0,0.0,0.0,0.0,0.0
2.259,0.0475,-0.0955,0.9504999999999999,0.671,2.927,-1.28,0.0,0.0,0.0,0.0,0.0,0.0,0.0,0.0
2.269,0.044,-0.092,0.948,-0.732,0.549,-2.073,0.0,0.0,0.0,0.0,0.0,0.0,0.0,0.0
2.278,0.0465,-0.0945,0.952,-0.854,0.427,-2.317,0.0,0.0,0.0,0.0,0.0,0.0,0.0,0.0
2.288,0.049,-0.097,0.956,-1.89,-1.159,-2.988,0.0,0.0,0.0,0.0,0.0,0.0,0.0,0.0
2.298,0.049,-0.102,0.966,-3.049,-2.317,-3.232,0.0,0.0,0.0,0.0,0.0,0.0,0.0,0.0
2.309,0.056,-0.103,0.9695,-2.805,-1.463,-2.927,0.0,0.0,0.0,0.0,0.0,0.0,0.0,0.0
2.319,0.063,-0.104,0.973,-2.439,-0.61,-2.927,0.0,0.0,0.0,0.0,0.0,0.0,0.0,0.0
2.329,0.061,-0.101,0.969,-1.646,0.671,-2.622,0.0,0.0,0.0,0.0,0.0,0.0,0.0,0.0
2.339,0.066,-0.105,0.968,0.366,2.744,-2.256,0.0,0.0,0.0,0.0,0.0,0.0,0.0,0.0
2.348,0.064,-0.101,0.964,0.915,3.902,-2.134,0.0,0.0,0.0,0.0,0.0,0.0,0.0,0.0
2.358,0.062,-0.097,0.96,0.305,3.293,-2.195,0.0,0.0,0.0,0.0,0.0,0.0,0.0,0.0
2.369,0.0615,-0.0985,0.9564999999999999,-0.122,2.134,-2.195,0.0,0.0,0.0,0.0,0.0,0.0,0.0,0.0
2.379,0.061,-0.1,0.953,-0.183,0.732,-2.683,0.0,0.0,0.0,0.0,0.0,0.0,0.0,0.0
2.389,0.062,-0.093,0.95,-1.524,0.122,-2.866,0.0,0.0,0.0,0.0,0.0,0.0,0.0,0.0
2.399,0.069,-0.098,0.952,-2.195,0.488,-2.622,0.0,0.0,0.0,0.0,0.0,0.0,0.0,0.0
2.41,0.0675,-0.10200000000000001,0.956,-2.012,1.463,-2.073,0.0,0.0,0.0,0.0,0.0,0.0,0.0,0.0
2.418,0.066,-0.106,0.96,-2.805,1.463,-1.524,0.0,0.0,0.0,0.0,0.0,0.0,0.0,0.0
2.429,0.064,-0.10300000000000001,0.9524999999999999,-2.744,1.402,-1.098,0.0,0.0,0.0,0.0,0.0,0.0,0.0,0.0
2.439,0.062,-0.1,0.945,-1.524,2.622,-1.037,0.0,0.0,0.0,0.0,0.0,0.0,0.0,0.0
2.449,0.054,-0.099,0.942,-0.854,3.11,-1.28,0.0,0.0,0.0,0.0,0.0,0.0,0.0,0.0
2.459,0.051,-0.099,0.942,-0.488,2.378,-1.707,0.0,0.0,0.0,0.0,0.0,0.0,0.0,0.0
2.47,0.057499999999999996,-0.101,0.945,-0.122,2.256,-1.89,0.0,0.0,0.0,0.0,0.0,0.0,0.0,0.0
2.48,0.064,-0.103,0.948,0.61,2.866,-1.951,0.0,0.0,0.0,0.0,0.0,0.0,0.0,0.0
2.489,0.063,-0.1055,0.9544999999999999,1.463,3.902,-1.585,0.0,0.0,0.0,0.0,0.0,0.0,0.0,0.0
2.499,0.062,-0.108,0.961,2.256,5.488,-0.976,0.0,0.0,0.0,0.0,0.0,0.0,0.0,0.0
2.509,0.057,-0.102,0.959,2.195,6.22,-0.793,0.0,0.0,0.0,0.0,0.0,0.0,0.0,0.0
2.519,0.05,-0.098,0.962,1.098,6.28,-0.854,0.0,0.0,0.0,0.0,0.0,0.0,0.0,0.0
2.53,0.0475,-0.0955,0.9544999999999999,-0.122,5.732,-1.098,0.0,0.0,0.0,0.0,0.0,0.0,0.0,0.0
2.54,0.045,-0.093,0.947,-1.829,3.537,-1.768,0.0,0.0,0.0,0.0,0.0,0.0,0.0,0.0
2.549,0.048,-0.0965,0.945,-3.598,1.89,-2.439,0.0,0.0,0.0,0.0,0.0,0.0,0.0,0.0
2.559,0.051,-0.1,0.943,-3.293,2.012,-2.622,0.0,0.0,0.0,0.0,0.0,0.0,0.0,0.0
2.569,0.058,-0.112,0.943,-2.256,2.927,-2.195,0.0,0.0,0.0,0.0,0.0,0.0,0.0,0.0
2.58,0.054000000000000006,-0.113,0.9404999999999999,-2.195,2.5,-2.317,0.0,0.0,0.0,0.0,0.0,0.0,0.0,0.0
2.59,0.05,-0.114,0.938,-2.134,0.183,-2.866,0.0,0.0,0.0,0.0,0.0,0.0,0.0,0.0
2.6,0.053,-0.116,0.932,-1.037,-0.122,-2.683,0.0,0.0,0.0,0.0,0.0,0.0,0.0,0.0
2.61,0.054,-0.114,0.933,-0.427,-1.159,-2.866,0.0,0.0,0.0,0.0,0.0,0.0,0.0,0.0
2.619,0.058499999999999996,-0.11599999999999999,0.9425,-0.183,-2.439,-2.927,0.0,0.0,0.0,0.0,0.0,0.0,0.0,0.0
2.629,0.063,-0.118,0.952,0.122,-2.134,-2.012,0.0,0.0,0.0,0.0,0.0,0.0,0.0,0.0
2.64,0.0635,-0.1215,0.964,1.951,-0.244,-0.366,0.0,0.0,0.0,0.0,0.0,0.0,0.0,0.0
2.65,0.064,-0.125,0.976,3.72,2.012,1.28,0.0,0.0,0.0,0.0,0.0,0.0,0.0,0.0
2.66,0.05,-0.105,0.962,3.78,2.866,1.951,0.0,0.0,0.0,0.0,0.0,0.0,0.0,0.0
2.67,0.041,-0.093,0.952,4.085,3.415,2.134,0.0,0.0,0.0,0.0,0.0,0.0,0.0,0.0
2.679,0.042499999999999996,-0.0985,0.949,5.488,4.329,2.561,0.0,0.0,0.0,0.0,0.0,0.0,0.0,0.0
2.689,0.044,-0.104,0.946,7.866,5.183,2.744,0.0,0.0,0.0,0.0,0.0,0.0,0.0,0.0
2.7,0.042499999999999996,-0.11399999999999999,0.961,10.427,6.098,3.171,0.0,0.0,0.0,0.0,0.0,0.0,0.0,0.0
2.71,0.041,-0.124,0.976,14.329,9.024,5.122,0.0,0.0,0.0,0.0,0.0,0.0,0.0,0.0
2.72,0.047,-0.123,0.972,17.134,11.524,8.354,0.0,0.0,0.0,0.0,0.0,0.0,0.0,0.0
2.73,0.046,-0.117,0.963,20.488,13.841,11.89,0.0,0.0,0.0,0.0,0.0,0.0,0.0,0.0
2.741,0.042499999999999996,-0.1005,0.963,23.78,17.012,15.915,0.0,0.0,0.0,0.0,0.0,0.0,0.0,0.0
2.751,0.039,-0.084,0.963,23.963,17.744,18.963,0.0,0.0,0.0,0.0,0.0,0.0,0.0,0.0
2.76,0.037000000000000005,-0.055,0.9359999999999999,24.268,14.878,19.756,0.0,0.0,0.0,0.0,0.0,0.0,0.0,0.0
2.77,0.035,-0.026,0.909,22.439,10.732,19.939,0.0,0.0,0.0,0.0,0.0,0.0,0.0,0.0
2.78,0.045,-0.006,0.912,19.146,9.512,20.183,0.0,0.0,0.0,0.0,0.0,0.0,0.0,0.0
2.79,0.043,0.005,0.906,15.183,8.72,18.232,0.0,0.0,0.0,0.0,0.0,0.0,0.0,0.0
2.801,0.0315,0.0155,0.8895,5.976,4.939,13.415,0.0,0.0,0.0,0.0,0.0,0.0,0.0,0.0
2.811,0.02,0.026,0.873,-3.902,-2.927,9.329,0.0,0.0,0.0,0.0,0.0,0.0,0.0,0.0
2.82,0.040999999999999995,0.0009999999999999974,0.863,-15.061,-10.427,6.159,0.0,0.0,0.0,0.0,0.0,0.0,0.0,0.0
2.83,0.062,-0.024,0.853,-24.695,-17.073,6.037,0.0,0.0,0.0,0.0,0.0,0.0,0.0,0.0
2.84,0.082,-0.072,0.866,-27.683,-21.402,4.024,0.0,0.0,0.0,0.0,0.0,0.0,0.0,0.0
2.851,0.097,-0.0985,0.913,-31.22,-25.061,2.622,0.0,0.0,0.0,0.0,0.0,0.0,0.0,0.0
2.861,0.112,-0.125,0.96,-29.756,-27.439,-1.28,0.0,0.0,0.0,0.0,0.0,0.0,0.0,0.0
2.871,0.104,-0.115,1.025,-26.951,-23.963,-5.305,0.0,0.0,0.0,0.0,0.0,0.0,0.0,0.0
2.881,0.09,-0.128,1.062,-21.28,-18.537,-7.134,0.0,0.0,0.0,0.0,0.0,0.0,0.0,0.0
2.89,0.08149999999999999,-0.14650000000000002,1.046,-10.305,-12.073,-5.122,0.0,0.0,0.0,0.0,0.0,0.0,0.0,0.0
2.9,0.073,-0.165,1.03,0.244,-1.28,-2.195,0.0,0.0,0.0,0.0,0.0,0.0,0.0,0.0
2.911,0.057499999999999996,-0.13,0.9815,1.402,5.366,-1.159,0.0,0.0,0.0,0.0,0.0,0.0,0.0,0.0
2.921,0.042,-0.095,0.933,-2.683,6.341,-3.293,0.0,0.0,0.0,0.0,0.0,0.0,0.0,0.0
2.931,0.054,-0.077,0.872,-10.061,2.439,-7.012,0.0,0.0,0.0,0.0,0.0,0.0,0.0,0.0
2.941,0.058,-0.121,0.846,-15.549,-2.927,-9.329,0.0,0.0,0.0,0.0,0.0,0.0,0.0,0.0
2.95,0.07100000000000001,-0.154,0.867,-20.976,-7.012,-10.122,0.0,0.0,0.0,0.0,0.0,0.0,0.0,0.0
2.96,0.084,-0.187,0.888,-25.0,-11.524,-8.963,0.0,0.0,0.0,0.0,0.0,0.0,0.0,0.0
2.971,0.07,-0.202,0.8925000000000001,-20.915,-14.939,-6.646,0.0,0.0,0.0,0.0,0.0,0.0,0.0,0.0
2.981,0.056,-0.217,0.897,-12.927,-19.39,-6.159,0.0,0.0,0.0,0.0,0.0,0.0,0.0,0.0
2.991,0.066,-0.196,0.965,-6.89,-18.598,-5.488,0.0,0.0,0.0,0.0,0.0,0.0,0.0,0.0
3.001,0.06,-0.169,1.042,-5.732,-13.72,-5.854,0.0,0.0,0.0,0.0,0.0,0.0,0.0,0.0
3.012,0.020999999999999998,-0.10375000000000001,1.034,-26.829,-20.549,-7.378,0.0,0.0,0.0,0.0,0.0,0.0,0.0,0.0
3.02,-0.018000000000000002,-0.038500000000000006,1.026,9.451,17.195,0.549,0.0,0.0,0.0,0.0,0.0,0.0,0.0,0.0
3.031,-0.056999999999999995,0.026749999999999996,1.018,20.0,17.683,-6.037,0.0,0.0,0.0,0.0,0.0,0.0,0.0,0.0
3.041,-0.096,0.092,1.01,-1.463,7.988,-20.427,0.0,0.0,0.0,0.0,0.0,0.0,0.0,0.0
3.051,-0.042,-0.045,1.037,-3.659,13.841,-24.634,0.0,0.0,0.0,0.0,0.0,0.0,0.0,0.0
3.061,-0.024,-0.126,1.008,-1.89,19.085,-25.549,0.0,0.0,0.0,0.0,0.0,0.0,0.0,0.0
3.072,-0.009000000000000001,-0.1385,0.9715,-7.866,17.744,-26.829,0.0,0.0,0.0,0.0,0.0,0.0,0.0,0.0
3.082,0.006,-0.151,0.935,-13.841,11.159,-26.524,0.0,0.0,0.0,0.0,0.0,0.0,0.0,0.0
3.091,0.007,-0.16,0.9215,-22.927,2.012,-27.561,0.0,0.0,0.0,0.0,0.0,0.0,0.0,0.0
3.101,0.008,-0.169,0.908,-30.183,-6.585,-27.622,0.0,0.0,0.0,0.0,0.0,0.0,0.0,0.0
3.111,0.021,-0.179,0.901,-34.817,-12.744,-27.561,0.0,0.0,0.0,0.0,0.0,0.0,0.0,0.0
3.122,0.025,-0.1835,0.903,-38.78,-19.085,-27.988,0.0,0.0,0.0,0.0,0.0,0.0,0.0,0.0
3.132,0.029,-0.188,0.905,-40.366,-22.805,-28.72,0.0,0.0,0.0,0.0,0.0,0.0,0.0,0.0
3.142,0.054,-0.185,0.929,-42.134,-23.963,-30.549,0.0,0.0,0.0,0.0,0.0,0.0,0.0,0.0
3.152,0.076,-0.191,0.955,-43.171,-25.854,-31.951,0.0,0.0,0.0,0.0,0.0,0.0,0.0,0.0
3.161,0.1005,-0.20350000000000001,0.9855,-35.915,-24.817,-30.61,0.0,0.0,0.0,0.0,0.0,0.0,0.0,0.0
3.171,0.125,-0.216,1.016,-26.22,-20.488,-29.939,0.0,0.0,0.0,0.0,0.0,0.0,0.0,0.0
3.182,0.1195,-0.22599999999999998,1.0535,-15.305,-13.598,-27.622,0.0,0.0,0.0,0.0,0.0,0.0,0.0,0.0
3.192,0.114,-0.236,1.091,-4.512,-5.488,-23.415,0.0,0.0,0.0,0.0,0.0,0.0,0.0,0.0
3.202,0.099,-0.231,1.065,6.463,2.073,-17.805,0.0,0.0,0.0,0.0,0.0,0.0,0.0,0.0
3.212,0.08,-0.189,1.035,13.659,5.061,-10.976,0.0,0.0,0.0,0.0,0.0,0.0,0.0,0.0
3.221,0.062,-0.1245,1.0285,14.146,4.878,-5.244,0.0,0.0,0.0,0.0,0.0,0.0,0.0,0.0
3.231,0.044,-0.06,1.022,8.78,1.037,-2.744,0.0,0.0,0.0,0.0,0.0,0.0,0.0,0.0
3.242,0.048,-0.018500000000000003,1.012,-2.073,-6.159,0.061,0.0,0.0,0.0,0.0,0.0,0.0,0.0,0.0
3.252,0.052,0.023,1.002,-14.024,-14.939,2.378,0.0,0.0,0.0,0.0,0.0,0.0,0.0,0.0
3.262,0.08,0.025,0.995,-21.524,-17.927,5.366,0.0,0.0,0.0,0.0,0.0,0.0,0.0,0.0
3.272,0.095,0.001,0.996,-22.927,-14.451,9.085,0.0,0.0,0.0,0.0,0.0,0.0,0.0,0.0
3.283,0.1175,-0.03375,0.9645,-20.732,-10.427,12.927,0.0,0.0,0.0,0.0,0.0,0.0,0.0,0.0
3.291,0.14,-0.0685,0.933,-19.268,-3.963,15.976,0.0,0.0,0.0,0.0,0.0,0.0,0.0,0.0
3.302,0.1625,-0.10325000000000001,0.9015,-16.22,3.232,19.207,0.0,0.0,0.0,0.0,0.0,0.0,0.0,0.0
3.312,0.185,-0.138,0.87,-7.439,13.659,27.561,0.0,0.0,0.0,0.0,0.0,0.0,0.0,0.0
3.322,0.187,-0.158,0.815,-2.5,19.634,33.659,0.0,0.0,0.0,0.0,0.0,0.0,0.0,0.0
3.332,0.184,-0.189,0.827,-4.39,7.012,26.463,0.0,0.0,0.0,0.0,0.0,0.0,0.0,0.0
3.343,0.156,-0.219,0.83,-5.61,3.963,21.951,0.0,0.0,0.0,0.0,0.0,0.0,0.0,0.0
3.353,0.128,-0.249,0.833,-2.683,3.293,19.024,0.0,0.0,0.0,0.0,0.0,0.0,0.0,0.0
3.362,0.1265,-0.27049999999999996,0.8465,-1.402,-1.341,13.902,0.0,0.0,0.0,0.0,0.0,0.0,0.0,0.0
3.372,0.125,-0.292,0.86,1.89,-2.134,17.927,0.0,0.0,0.0,0.0,0.0,0.0,0.0,0.0
3.382,0.123,-0.32,0.858,17.744,0.671,21.524,0.0,0.0,0.0,0.0,0.0,0.0,0.0,0.0
3.393,0.0985,-0.27949999999999997,0.8875,28.537,-4.024,19.817,0.0,0.0,0.0,0.0,0.0,0.0,0.0,0.0
3.403,0.074,-0.239,0.917,30.732,-6.707,16.951,0.0,0.0,0.0,0.0,0.0,0.0,0.0,0.0
3.413,0.085,-0.223,0.973,34.634,-4.268,13.598,0.0,0.0,0.0,0.0,0.0,0.0,0.0,0.0
3.423,0.083,-0.203,1.016,37.378,0.976,11.098,0.0,0.0,0.0,0.0,0.0,0.0,0.0,0.0
3.432,0.07,-0.1935,1.0365,38.659,7.378,9.451,0.0,0.0,0.0,0.0,0.0,0.0,0.0,0.0
3.442,0.057,-0.184,1.057,38.476,12.134,8.049,0.0,0.0,0.0,0.0,0.0,0.0,0.0,0.0
3.453,0.0425,-0.153,1.0385,35.244,13.72,5.732,0.0,0.0,0.0,0.0,0.0,0.0,0.0,0.0
3.463,0.028,-0.122,1.02,29.939,13.841,2.256,0.0,0.0,0.0,0.0,0.0,0.0,0.0,0.0
3.473,0.024,-0.104,0.995,23.598,13.232,-1.463,0.0,0.0,0.0,0.0,0.0,0.0,0.0,0.0
3.483,0.031,-0.104,0.968,15.915,10.122,-4.878,0.0,0.0,0.0,0.0,0.0,0.0,0.0,0.0
3.492,0.041999999999999996,-0.11449999999999999,0.953,6.098,5.488,-8.11,0.0,0.0,0.0,0.0,0.0,0.0,0.0,0.0
3.502,0.053,-0.125,0.938,-2.439,0.976,-10.244,0.0,0.0,0.0,0.0,0.0,0.0,0.0,0.0
3.513,0.0655,-0.14300000000000002,0.941,-8.476,-1.463,-11.524,0.0,0.0,0.0,0.0,0.0,0.0,0.0,0.0
3.523,0.078,-0.161,0.944,-12.5,-2.073,-11.646,0.0,0.0,0.0,0.0,0.0,0.0,0.0,0.0
3.533,0.083,-0.17,0.948,-15.976,-1.768,-11.22,0.0,0.0,0.0,0.0,0.0,0.0,0.0,0.0
3.543,0.088,-0.186,0.943,-17.134,-0.549,-10.061,0.0,0.0,0.0,0.0,0.0,0.0,0.0,0.0
3.554,0.09325,-0.18625,0.9442499999999999,-16.22,1.341,-9.329,0.0,0.0,0.0,0.0,0.0,0.0,0.0,0.0
3.562,0.0985,-0.1865,0.9455,-15.915,1.951,-8.841,0.0,0.0,0.0,0.0,0.0,0.0,0.0,0.0
3.573,0.10375,-0.18675,0.94675,-15.549,0.671,-8.72,0.0,0.0,0.0,0.0,0.0,0.0,0.0,0.0
3.583,0.109,-0.187,0.948,-14.268,-1.646,-8.659,0.0,0.0,0.0,0.0,0.0,0.0,0.0,0.0
3.593,0.106,-0.179,0.95,-13.293,-4.451,-8.659,0.0,0.0,0.0,0.0,0.0,0.0,0.0,0.0
3.603,0.109,-0.169,0.958,-12.805,-4.024,-8.232,0.0,0.0,0.0,0.0,0.0,0.0,0.0,0.0
3.614,0.098,-0.1645,0.953,-12.866,-1.707,-7.256,0.0,0.0,0.0,0.0,0.0,0.0,0.0,0.0
3.624,0.087,-0.16,0.948,-11.89,0.366,-5.549,0.0,0.0,0.0,0.0,0.0,0.0,0.0,0.0
3.633,0.086,-0.14700000000000002,0.9275,-10.61,4.878,-3.354,0.0,0.0,0.0,0.0,0.0,0.0,0.0,0.0
3.643,0.085,-0.134,0.907,-11.585,6.098,-2.073,0.0,0.0,0.0,0.0,0.0,0.0,0.0,0.0
3.653,0.08,-0.143,0.887,-13.293,2.317,-1.402,0.0,0.0,0.0,0.0,0.0,0.0,0.0,0.0
3.664,0.091,-0.16549999999999998,0.8975,-12.927,-3.293,-0.427,0.0,0.0,0.0,0.0,0.0,0.0,0.0,0.0
3.674,0.102,-0.188,0.908,-11.402,-5.488,1.402,0.0,0.0,0.0,0.0,0.0,0.0,0.0,0.0
3.684,0.118,-0.199,0.934,-7.927,-3.415,2.927,0.0,0.0,0.0,0.0,0.0,0.0,0.0,0.0
3.694,0.109,-0.203,0.949,-3.171,-1.707,4.268,0.0,0.0,0.0,0.0,0.0,0.0,0.0,0.0
3.703,0.1,-0.206,0.962,2.805,-0.061,5.854,0.0,0.0,0.0,0.0,0.0,0.0,0.0,0.0
3.713,0.094,-0.192,0.965,8.232,2.744,7.073,0.0,0.0,0.0,0.0,0.0,0.0,0.0,0.0
3.724,0.079,-0.181,0.9675,11.341,4.329,7.256,0.0,0.0,0.0,0.0,0.0,0.0,0.0,0.0
3.734,0.064,-0.17,0.97,13.293,5.427,6.646,0.0,0.0,0.0,0.0,0.0,0.0,0.0,0.0
3.744,0.063,-0.164,0.975,13.171,5.427,5.183,0.0,0.0,0.0,0.0,0.0,0.0,0.0,0.0
3.754,0.071,-0.17,0.978,11.768,4.817,3.902,0.0,0.0,0.0,0.0,0.0,0.0,0.0,0.0
3.763,0.07999999999999999,-0.1845,0.979,11.098,3.902,3.72,0.0,0.0,0.0,0.0,0.0,0.0,0.0,0.0
3.773,0.089,-0.199,0.98,10.915,3.537,4.268,0.0,0.0,0.0,0.0,0.0,0.0,0.0,0.0
3.784,0.08549999999999999,-0.198,0.982,10.61,3.354,5.061,0.0,0.0,0.0,0.0,0.0,0.0,0.0,0.0
3.794,0.082,-0.197,0.984,9.756,4.085,5.854,0.0,0.0,0.0,0.0,0.0,0.0,0.0,0.0
3.804,0.076,-0.182,0.979,7.5,3.841,5.671,0.0,0.0,0.0,0.0,0.0,0.0,0.0,0.0
3.814,0.07,-0.167,0.967,4.39,2.073,4.695,0.0,0.0,0.0,0.0,0.0,0.0,0.0,0.0
3.825,0.07375000000000001,-0.17125,0.968,0.671,0.183,3.598,0.0,0.0,0.0,0.0,0.0,0.0,0.0,0.0
3.833,0.07750000000000001,-0.1755,0.969,-2.805,-0.732,2.439,0.0,0.0,0.0,0.0,0.0,0.0,0.0,0.0
3.844,0.08125,-0.17975,0.97,-6.098,-2.256,2.256,0.0,0.0,0.0,0.0,0.0,0.0,0.0,0.0
3.854,0.085,-0.184,0.971,-6.707,-0.671,3.049,0.0,0.0,0.0,0.0,0.0,0.0,0.0,0.0
3.864,0.073,-0.178,0.958,-5.915,-0.122,2.317,0.0,0.0,0.0,0.0,0.0,0.0,0.0,0.0
3.874,0.074,-0.186,0.942,1.768,4.939,1.951,0.0,0.0,0.0,0.0,0.0,0.0,0.0,0.0
3.885,0.064,-0.16849999999999998,0.931,9.512,7.378,1.159,0.0,0.0,0.0,0.0,0.0,0.0,0.0,0.0
3.895,0.054,-0.151,0.92,6.89,5.061,0.305,0.0,0.0,0.0,0.0,0.0,0.0,0.0,0.0
3.904,0.0625,-0.157,0.9319999999999999,1.524,4.024,0.0,0.0,0.0,0.0,0.0,0.0,0.0,0.0,0.0
3.914,0.071,-0.163,0.944,-5.854,-1.159,-0.122,0.0,0.0,0.0,0.0,0.0,0.0,0.0,0.0
3.924,0.076,-0.163,0.965,-16.951,-6.951,-0.854,0.0,0.0,0.0,0.0,0.0,0.0,0.0,0.0
3.935,0.094,-0.184,0.97,-20.793,-6.341,0.549,0.0,0.0,0.0,0.0,0.0,0.0,0.0,0.0
3.945,0.112,-0.205,0.975,-11.951,1.22,3.049,0.0,0.0,0.0,0.0,0.0,0.0,0.0,0.0
3.955,0.092,-0.176,0.933,-0.366,4.817,2.805,0.0,0.0,0.0,0.0,0.0,0.0,0.0,0.0
3.965,0.079,-0.149,0.925,6.402,6.463,1.341,0.0,0.0,0.0,0.0,0.0,0.0,0.0,0.0
3.974,0.08,-0.143,0.933,9.512,7.5,0.0,0.0,0.0,0.0,0.0,0.0,0.0,0.0,0.0
3.984,0.076,-0.145,0.924,7.683,5.305,-1.159,0.0,0.0,0.0,0.0,0.0,0.0,0.0,0.0
3.995,0.08099999999999999,-0.1545,0.9319999999999999,2.378,1.098,-1.951,0.0,0.0,0.0,0.0,0.0,0.0,0.0,0.0
4.005,0.086,-0.164,0.94,-1.89,-1.768,-1.768,0.0,0.0,0.0,0.0,0.0,0.0,0.0,0.0
4.015,0.092,-0.174,0.946,-5.0,-3.78,-1.159,0.0,0.0,0.0,0.0,0.0,0.0,0.0,0.0
4.025,0.098,-0.18,0.956,-6.341,-4.634,-0.305,0.0,0.0,0.0,0.0,0.0,0.0,0.0,0.0
4.036,0.094,-0.1775,0.9615,-6.037,-3.659,0.854,0.0,0.0,0.0,0.0,0.0,0.0,0.0,0.0
4.044,0.09,-0.175,0.967,-4.573,-2.256,1.098,0.0,0.0,0.0,0.0,0.0,0.0,0.0,0.0
4.055,0.0885,-0.173,0.9604999999999999,-3.11,-1.524,1.159,0.0,0.0,0.0,0.0,0.0,0.0,0.0,0.0
4.065,0.087,-0.171,0.954,-2.317,-0.915,1.098,0.0,0.0,0.0,0.0,0.0,0.0,0.0,0.0
4.075,0.083,-0.173,0.95,-0.488,-0.183,0.549,0.0,0.0,0.0,0.0,0.0,0.0,0.0,0.0
4.085,0.077,-0.16,0.939,0.488,-0.732,-0.488,0.0,0.0,0.0,0.0,0.0,0.0,0.0,0.0
4.096,0.08225,-0.165,0.9375,0.427,-0.854,-1.463,0.0,0.0,0.0,0.0,0.0,0.0,0.0,0.0
4.104,0.0875,-0.16999999999999998,0.9359999999999999,0.671,-1.646,-1.707,0.0,0.0,0.0,0.0,0.0,0.0,0.0,0.0
4.115,0.09275,-0.175,0.9345,0.366,-2.5,-1.402,0.0,0.0,0.0,0.0,0.0,0.0,0.0,0.0
4.125,0.098,-0.18,0.933,-0.427,-3.537,-1.159,0.0,0.0,0.0,0.0,0.0,0.0,0.0,0.0
4.135,0.097,-0.178,0.938,-1.098,-3.841,-1.098,0.0,0.0,0.0,0.0,0.0,0.0,0.0,0.0
4.145,0.092,-0.174,0.944,-2.195,-3.78,-1.22,0.0,0.0,0.0,0.0,0.0,0.0,0.0,0.0
4.156,0.089,-0.178,0.949,-3.476,-3.598,-1.28,0.0,0.0,0.0,0.0,0.0,0.0,0.0,0.0
4.166,0.086,-0.182,0.954,-3.902,-3.659,-1.28,0.0,0.0,0.0,0.0,0.0,0.0,0.0,0.0
4.175,0.086,-0.1825,0.951,-4.085,-4.39,-1.22,0.0,0.0,0.0,0.0,0.0,0.0,0.0,0.0
4.185,0.086,-0.183,0.948,-5.427,-5.305,-1.037,0.0,0.0,0.0,0.0,0.0,0.0,0.0,0.0
4.195,0.088,-0.194,0.961,-5.366,-4.695,-0.305,0.0,0.0,0.0,0.0,0.0,0.0,0.0,0.0
4.206,0.086,-0.191,0.9624999999999999,-4.268,-3.78,0.427,0.0,0.0,0.0,0.0,0.0,0.0,0.0,0.0
4.216,0.084,-0.188,0.964,-4.024,-3.902,-0.122,0.0,0.0,0.0,0.0,0.0,0.0,0.0,0.0
4.226,0.081,-0.178,0.957,-3.354,-5.305,-1.585,0.0,0.0,0.0,0.0,0.0,0.0,0.0,0.0
4.236,0.087,-0.174,0.95,-3.354,-7.622,-3.11,0.0,0.0,0.0,0.0,0.0,0.0,0.0,0.0
4.245,0.0915,-0.1815,0.9475,-3.598,-10.671,-4.451,0.0,0.0,0.0,0.0,0.0,0.0,0.0,0.0
4.255,0.096,-0.189,0.945,-2.439,-12.134,-4.268,0.0,0.0,0.0,0.0,0.0,0.0,0.0,0.0
4.266,0.098,-0.191,0.951,-3.963,-12.988,-4.207,0.0,0.0,0.0,0.0,0.0,0.0,0.0,0.0
4.276,0.1,-0.193,0.957,-5.427,-13.415,-4.451,0.0,0.0,0.0,0.0,0.0,0.0,0.0,0.0
4.286,0.11,-0.202,0.948,-4.024,-11.402,-3.171,0.0,0.0,0.0,0.0,0.0,0.0,0.0,0.0
4.296,0.117,-0.194,0.955,-3.841,-9.573,-2.195,0.0,0.0,0.0,0.0,0.0,0.0,0.0,0.0
4.305,0.1205,-0.188,0.948,-5.0,-9.756,-1.89,0.0,0.0,0.0,0.0,0.0,0.0,0.0,0.0
4.315,0.124,-0.182,0.941,-5.671,-10.549,-1.768,0.0,0.0,0.0,0.0,0.0,0.0,0.0,0.0
4.326,0.1255,-0.179,0.9415,-6.402,-11.22,-1.768,0.0,0.0,0.0,0.0,0.0,0.0,0.0,0.0
4.336,0.127,-0.176,0.942,-7.012,-12.256,-2.012,0.0,0.0,0.0,0.0,0.0,0.0,0.0,0.0
4.346,0.129,-0.184,0.944,-6.098,-12.317,-2.134,0.0,0.0,0.0,0.0,0.0,0.0,0.0,0.0
4.356,0.135,-0.182,0.949,-5.061,-11.585,-2.5,0.0,0.0,0.0,0.0,0.0,0.0,0.0,0.0
4.367,0.1375,-0.186,0.951,-5.732,-12.683,-3.354,0.0,0.0,0.0,0.0,0.0,0.0,0.0,0.0
4.375,0.14,-0.19,0.953,-5.183,-12.5,-3.049,0.0,0.0,0.0,0.0,0.0,0.0,0.0,0.0
4.386,0.1425,-0.194,0.955,-3.232,-9.878,-1.646,0.0,0.0,0.0,0.0,0.0,0.0,0.0,0.0
4.396,0.145,-0.198,0.957,-3.537,-8.354,-0.671,0.0,0.0,0.0,0.0,0.0,0.0,0.0,0.0
4.406,0.146,-0.199,0.958,-3.72,-7.805,-0.122,0.0,0.0,0.0,0.0,0.0,0.0,0.0,0.0
4.416,0.144,-0.202,0.958,-2.439,-5.122,0.366,0.0,0.0,0.0,0.0,0.0,0.0,0.0,0.0
4.427,0.1355,-0.1965,0.9555,-1.829,-3.598,0.305,0.0,0.0,0.0,0.0,0.0,0.0,0.0,0.0
4.437,0.127,-0.191,0.953,-2.683,-4.817,-0.305,0.0,0.0,0.0,0.0,0.0,0.0,0.0,0.0
4.446,0.129,-0.1905,0.9584999999999999,-3.659,-5.732,-1.402,0.0,0.0,0.0,0.0,0.0,0.0,0.0,0.0
4.456,0.131,-0.19,0.964,-4.512,-5.244,-1.28,0.0,0.0,0.0,0.0,0.0,0.0,0.0,0.0
4.466,0.142,-0.2,0.964,-6.89,-4.512,1.159,0.0,0.0,0.0,0.0,0.0,0.0,0.0,0.0
4.477,0.138,-0.192,0.9584999999999999,-9.817,-4.573,0.183,0.0,0.0,0.0,0.0,0.0,0.0,0.0,0.0
4.487,0.134,-0.184,0.953,-5.793,-4.878,-2.195,0.0,0.0,0.0,0.0,0.0,0.0,0.0,0.0
4.497,0.15,-0.225,0.962,-1.829,-2.256,-0.854,0.0,0.0,0.0,0.0,0.0,0.0,0.0,0.0
4.507,0.149,-0.209,0.968,-2.012,-1.098,-0.427,0.0,0.0,0.0,0.0,0.0,0.0,0.0,0.0
4.516,0.1455,-0.2075,0.962,-1.402,-0.183,-0.61,0.0,0.0,0.0,0.0,0.0,0.0,0.0,0.0
4.526,0.142,-0.206,0.956,-1.768,-0.854,-0.793,0.0,0.0,0.0,0.0,0.0,0.0,0.0,0.0
4.537,0.149,-0.208,0.9544999999999999,-2.378,-1.037,-0.549,0.0,0.0,0.0,0.0,0.0,0.0,0.0,0.0
4.547,0.156,-0.21,0.953,-2.378,-1.098,-0.183,0.0,0.0,0.0,0.0,0.0,0.0,0.0,0.0
4.557,0.151,-0.214,0.951,-1.402,-0.915,0.122,0.0,0.0,0.0,0.0,0.0,0.0,0.0,0.0
4.567,0.152,-0.208,0.95,-0.427,-0.671,-0.061,0.0,0.0,0.0,0.0,0.0,0.0,0.0,0.0
4.576,0.152,-0.203,0.9495,-0.427,-1.524,-0.793,0.0,0.0,0.0,0.0,0.0,0.0,0.0,0.0
4.586,0.152,-0.198,0.949,-0.427,-1.768,-1.28,0.0,0.0,0.0,0.0,0.0,0.0,0.0,0.0
4.597,0.1525,-0.20500000000000002,0.951,-0.244,-0.244,-0.915,0.0,0.0,0.0,0.0,0.0,0.0,0.0,0.0
4.607,0.153,-0.212,0.953,0.488,0.427,-0.183,0.0,0.0,0.0,0.0,0.0,0.0,0.0,0.0
4.617,0.152,-0.213,0.95,1.524,1.22,0.488,0.0,0.0,0.0,0.0,0.0,0.0,0.0,0.0
4.627,0.151,-0.206,0.951,1.28,1.585,0.671,0.0,0.0,0.0,0.0,0.0,0.0,0.0,0.0
4.638,0.152,-0.2065,0.9515,0.488,0.122,0.0,0.0,0.0,0.0,0.0,0.0,0.0,0.0,0.0
4.646,0.153,-0.207,0.952,-0.732,-0.793,-0.427,0.0,0.0,0.0,0.0,0.0,0.0,0.0,0.0
4.657,0.154,-0.2075,0.9524999999999999,-0.793,-1.22,-0.549,0.0,0.0,0.0,0.0,0.0,0.0,0.0,0.0
4.667,0.155,-0.208,0.953,-0.61,-1.707,-0.427,0.0,0.0,0.0,0.0,0.0,0.0,0.0,0.0
4.677,0.159,-0.206,0.956,-0.793,-1.463,-0.488,0.0,0.0,0.0,0.0,0.0,0.0,0.0,0.0
4.687,0.155,-0.212,0.957,-0.915,-0.915,-0.366,0.0,0.0,0.0,0.0,0.0,0.0,0.0,0.0
4.698,0.1535,-0.212,0.955,-1.098,0.122,-0.061,0.0,0.0,0.0,0.0,0.0,0.0,0.0,0.0
4.708,0.152,-0.212,0.953,-1.28,0.61,0.183,0.0,0.0,0.0,0.0,0.0,0.0,0.0,0.0
4.717,0.1515,-0.2095,0.949,-1.646,0.427,0.549,0.0,0.0,0.0,0.0,0.0,0.0,0.0,0.0
4.727,0.151,-0.207,0.945,-2.134,0.488,0.671,0.0,0.0,0.0,0.0,0.0,0.0,0.0,0.0
4.737,0.153,-0.21,0.946,-2.866,0.122,0.915,0.0,0.0,0.0,0.0,0.0,0.0,0.0,0.0
4.748,0.1555,-0.212,0.946,-2.866,-0.61,0.976,0.0,0.0,0.0,0.0,0.0,0.0,0.0,0.0
4.758,0.158,-0.214,0.946,-2.317,-0.122,1.159,0.0,0.0,0.0,0.0,0.0,0.0,0.0,0.0
4.768,0.159,-0.214,0.956,-2.256,0.366,1.22,0.0,0.0,0.0,0.0,0.0,0.0,0.0,0.0
4.777,0.1565,-0.2135,0.958,-1.768,0.549,1.098,0.0,0.0,0.0,0.0,0.0,0.0,0.0,0.0
4.787,0.154,-0.213,0.96,-1.159,1.768,1.463,0.0,0.0,0.0,0.0,0.0,0.0,0.0,0.0
4.797,0.152,-0.212,0.962,-0.793,2.805,1.829,0.0,0.0,0.0,0.0,0.0,0.0,0.0,0.0
4.808,0.1495,-0.20650000000000002,0.952,-0.915,1.89,1.646,0.0,0.0,0.0,0.0,0.0,0.0,0.0,0.0
4.818,0.147,-0.201,0.942,-1.28,0.549,1.28,0.0,0.0,0.0,0.0,0.0,0.0,0.0,0.0
4.828,0.152,-0.2,0.956,-1.585,1.28,1.037,0.0,0.0,0.0,0.0,0.0,0.0,0.0,0.0
4.838,0.152,-0.21,0.963,-0.854,2.561,1.402,0.0,0.0,0.0,0.0,0.0,0.0,0.0,0.0
4.847,0.1495,-0.20650000000000002,0.957,-0.366,3.049,1.585,0.0,0.0,0.0,0.0,0.0,0.0,0.0,0.0
4.857,0.147,-0.203,0.951,-1.037,1.707,0.732,0.0,0.0,0.0,0.0,0.0,0.0,0.0,0.0
4.868,0.15,-0.20650000000000002,0.9524999999999999,-2.5,1.829,0.305,0.0,0.0,0.0,0.0,0.0,0.0,0.0,0.0
4.878,0.153,-0.21,0.954,-1.707,2.866,0.793,0.0,0.0,0.0,0.0,0.0,0.0,0.0,0.0
4.888,0.154,-0.219,0.951,-0.305,2.622,1.098,0.0,0.0,0.0,0.0,0.0,0.0,0.0,0.0
4.898,0.149,-0.21,0.945,-0.366,1.524,0.488,0.0,0.0,0.0,0.0,0.0,0.0,0.0,0.0
4.909,0.14975,-0.21125,0.94475,-1.098,1.22,0.183,0.0,0.0,0.0,0.0,0.0,0.0,0.0,0.0
4.917,0.1505,-0.2125,0.9444999999999999,-1.402,1.463,0.244,0.0,0.0,0.0,0.0,0.0,0.0,0.0,0.0
4.928,0.15125,-0.21375,0.9442499999999999,-1.098,1.402,0.427,0.0,0.0,0.0,0.0,0.0,0.0,0.0,0.0
4.938,0.152,-0.215,0.944,-1.159,1.28,0.488,0.0,0.0,0.0,0.0,0.0,0.0,0.0,0.0
4.948,0.154,-0.21,0.944,-2.134,1.524,0.671,0.0,0.0,0.0,0.0,0.0,0.0,0.0,0.0
4.958,0.155,-0.216,0.938,-2.683,1.524,1.22,0.0,0.0,0.0,0.0,0.0,0.0,0.0,0.0
4.969,0.153,-0.217,0.942,-1.829,2.195,1.768,0.0,0.0,0.0,0.0,0.0,0.0,0.0,0.0
4.979,0.151,-0.218,0.946,-1.159,2.073,1.646,0.0,0.0,0.0,0.0,0.0,0.0,0.0,0.0
4.988,0.1525,-0.2135,0.9455,-1.22,1.585,1.159,0.0,0.0,0.0,0.0,0.0,0.0,0.0,0.0
4.998,0.154,-0.209,0.945,0.0,2.439,1.098,0.0,0.0,0.0,0.0,0.0,0.0,0.0,0.0
5.008,0.153,-0.212,0.948,1.829,3.537,1.341,0.0,0.0,0.0,0.0,0.0,0.0,0.0,0.0
5.019,0.14650000000000002,-0.20450000000000002,0.943,2.988,2.927,0.732,0.0,0.0,0.0,0.0,0.0,0.0,0.0,0.0
5.029,0.14,-0.197,0.938,2.378,1.585,-0.122,0.0,0.0,0.0,0.0,0.0,0.0,0.0,0.0
5.039,0.144,-0.199,0.941,1.28,1.037,-0.61,0.0,0.0,0.0,0.0,0.0,0.0,0.0,0.0
5.048,0.1435,-0.20700000000000002,0.946,0.366,0.366,-0.732,0.0,0.0,0.0,0.0,0.0,0.0,0.0,0.0
5.058,0.143,-0.215,0.951,-0.183,0.549,-0.427,0.0,0.0,0.0,0.0,0.0,0.0,0.0,0.0
5.068,0.146,-0.218,0.946,-0.61,0.427,-0.122,0.0,0.0,0.0,0.0,0.0,0.0,0.0,0.0
5.079,0.147,-0.218,0.945,-0.732,0.244,0.061,0.0,0.0,0.0,0.0,0.0,0.0,0.0,0.0
5.089,0.148,-0.218,0.944,-0.915,0.183,0.244,0.0,0.0,0.0,0.0,0.0,0.0,0.0,0.0
5.099,0.147,-0.22,0.946,-1.159,-0.244,0.244,0.0,0.0,0.0,0.0,0.0,0.0,0.0,0.0
5.109,0.151,-0.223,0.946,-0.671,0.366,0.549,0.0,0.0,0.0,0.0,0.0,0.0,0.0,0.0
5.118,0.1495,-0.2235,0.9464999999999999,0.183,0.976,0.976,0.0,0.0,0.0,0.0,0.0,0.0,0.0,0.0
5.128,0.148,-0.224,0.947,1.341,0.61,0.976,0.0,0.0,0.0,0.0,0.0,0.0,0.0,0.0
5.139,0.1455,-0.2145,0.9484999999999999,1.28,-0.183,0.366,0.0,0.0,0.0,0.0,0.0,0.0,0.0,0.0
5.149,0.143,-0.205,0.95,0.732,-0.427,-0.122,0.0,0.0,0.0,0.0,0.0,0.0,0.0,0.0
5.159,0.145,-0.211,0.952,0.854,0.244,0.061,0.0,0.0,0.0,0.0,0.0,0.0,0.0,0.0
5.169,0.147,-0.209,0.948,0.183,0.427,0.122,0.0,0.0,0.0,0.0,0.0,0.0,0.0,0.0
5.18,0.14575,-0.20975,0.94675,-0.427,-0.122,0.305,0.0,0.0,0.0,0.0,0.0,0.0,0.0,0.0
5.188,0.1445,-0.2105,0.9455,-1.585,-0.549,0.549,0.0,0.0,0.0,0.0,0.0,0.0,0.0,0.0
5.199,0.14325,-0.21125,0.9442499999999999,-2.988,-1.463,0.244,0.0,0.0,0.0,0.0,0.0,0.0,0.0,0.0
5.209,0.142,-0.212,0.943,-3.537,-1.585,0.427,0.0,0.0,0.0,0.0,0.0,0.0,0.0,0.0
5.219,0.148,-0.217,0.951,-3.293,-0.732,0.854,0.0,0.0,0.0,0.0,0.0,0.0,0.0,0.0
5.229,0.148,-0.213,0.95,-2.012,-0.61,0.488,0.0,0.0,0.0,0.0,0.0,0.0,0.0,0.0
5.24,0.146,-0.2105,0.948,-0.854,-0.244,0.183,0.0,0.0,0.0,0.0,0.0,0.0,0.0,0.0
5.25,0.144,-0.208,0.946,-1.098,-0.183,-0.183,0.0,0.0,0.0,0.0,0.0,0.0,0.0,0.0
5.259,0.1455,-0.212,0.946,-1.341,-0.122,-0.183,0.0,0.0,0.0,0.0,0.0,0.0,0.0,0.0
5.269,0.147,-0.216,0.946,-0.732,0.305,0.0,0.0,0.0,0.0,0.0,0.0,0.0,0.0,0.0
5.279,0.147,-0.213,0.942,-0.427,-0.305,-0.305,0.0,0.0,0.0,0.0,0.0,0.0,0.0,0.0
5.29,0.14150000000000001,-0.212,0.941,-1.159,-0.793,-0.793,0.0,0.0,0.0,0.0,0.0,0.0,0.0,0.0
5.3,0.136,-0.211,0.94,-1.951,-1.951,-1.28,0.0,0.0,0.0,0.0,0.0,0.0,0.0,0.0
5.31,0.133,-0.215,0.938,-2.439,-3.354,-1.707,0.0,0.0,0.0,0.0,0.0,0.0,0.0,0.0
5.32,0.139,-0.219,0.938,-2.378,-3.537,-1.951,0.0,0.0,0.0,0.0,0.0,0.0,0.0,0.0
5.329,0.142,-0.228,0.941,-1.524,-3.049,-1.768,0.0,0.0,0.0,0.0,0.0,0.0,0.0,0.0
5.339,0.142,-0.229,0.945,-0.793,-2.439,-1.28,0.0,0.0,0.0,0.0,0.0,0.0,0.0,0.0
5.35,0.1415,-0.2275,0.9455,-0.549,-1.159,-1.098,0.0,0.0,0.0,0.0,0.0,0.0,0.0,0.0
5.36,0.141,-0.226,0.946,-0.549,-0.854,-1.22,0.0,0.0,0.0,0.0,0.0,0.0,0.0,0.0
5.37,0.141,-0.23,0.938,0.122,-0.671,-0.854,0.0,0.0,0.0,0.0,0.0,0.0,0.0,0.0
5.38,0.149,-0.229,0.942,-0.061,-0.915,-0.549,0.0,0.0,0.0,0.0,0.0,0.0,0.0,0.0
5.389,0.1455,-0.226,0.9424999999999999,-0.427,-2.561,-0.976,0.0,0.0,0.0,0.0,0.0,0.0,0.0,0.0
5.399,0.142,-0.223,0.943,0.244,-2.5,-0.854,0.0,0.0,0.0,0.0,0.0,0.0,0.0,0.0
5.41,0.136,-0.2195,0.944,1.098,-1.89,-0.793,0.0,0.0,0.0,0.0,0.0,0.0,0.0,0.0
5.42,0.13,-0.216,0.945,1.646,-2.317,-1.402,0.0,0.0,0.0,0.0,0.0,0.0,0.0,0.0
5.43,0.139,-0.211,0.943,1.341,-2.805,-2.134,0.0,0.0,0.0,0.0,0.0,0.0,0.0,0.0
5.44,0.144,-0.222,0.955,1.22,-2.134,-2.195,0.0,0.0,0.0,0.0,0.0,0.0,0.0,0.0
5.451,0.14625,-0.22575,0.95975,1.524,-0.671,-1.524,0.0,0.0,0.0,0.0,0.0,0.0,0.0,0.0
5.459,0.1485,-0.22949999999999998,0.9644999999999999,1.402,0.427,-0.549,0.0,0.0,0.0,0.0,0.0,0.0,0.0,0.0
5.47,0.15075,-0.23324999999999999,0.96925,0.488,1.341,0.366,0.0,0.0,0.0,0.0,0.0,0.0,0.0,0.0
5.48,0.153,-0.237,0.974,-0.854,1.341,0.976,0.0,0.0,0.0,0.0,0.0,0.0,0.0,0.0
5.49,0.154,-0.226,0.96,-1.585,0.488,0.732,0.0,0.0,0.0,0.0,0.0,0.0,0.0,0.0
5.5,0.15,-0.223,0.947,-1.585,-0.122,0.488,0.0,0.0,0.0,0.0,0.0,0.0,0.0,0.0
5.511,0.1485,-0.225,0.9504999999999999,-1.098,0.061,0.671,0.0,0.0,0.0,0.0,0.0,0.0,0.0,0.0
5.521,0.147,-0.227,0.954,-0.976,0.671,1.037,0.0,0.0,0.0,0.0,0.0,0.0,0.0,0.0
5.53,0.14,-0.222,0.9410000000000001,-0.732,0.0,0.915,0.0,0.0,0.0,0.0,0.0,0.0,0.0,0.0
5.54,0.133,-0.217,0.928,-0.732,-0.854,0.549,0.0,0.0,0.0,0.0,0.0,0.0,0.0,0.0
5.55,0.136,-0.217,0.937,-1.28,-1.341,0.122,0.0,0.0,0.0,0.0,0.0,0.0,0.0,0.0
5.56,0.137,-0.221,0.938,-1.707,-1.951,0.061,0.0,0.0,0.0,0.0,0.0,0.0,0.0,0.0
5.571,0.1385,-0.2225,0.937,-0.854,-1.951,0.244,0.0,0.0,0.0,0.0,0.0,0.0,0.0,0.0
5.581,0.14,-0.224,0.936,0.183,-2.073,-0.122,0.0,0.0,0.0,0.0,0.0,0.0,0.0,0.0
5.591,0.146,-0.219,0.951,-0.671,-1.646,-0.671,0.0,0.0,0.0,0.0,0.0,0.0,0.0,0.0
5.6,0.143,-0.233,0.963,0.183,-0.549,0.0,0.0,0.0,0.0,0.0,0.0,0.0,0.0,0.0
5.61,0.144,-0.232,0.957,1.951,0.0,0.0,0.0,0.0,0.0,0.0,0.0,0.0,0.0,0.0
5.621,0.1435,-0.2305,0.9615,2.073,0.61,-0.183,0.0,0.0,0.0,0.0,0.0,0.0,0.0,0.0
5.631,0.143,-0.229,0.966,2.561,2.012,-0.061,0.0,0.0,0.0,0.0,0.0,0.0,0.0,0.0
5.641,0.138,-0.229,0.953,2.5,2.256,0.0,0.0,0.0,0.0,0.0,0.0,0.0,0.0,0.0
5.651,0.136,-0.222,0.947,1.524,1.585,0.0,0.0,0.0,0.0,0.0,0.0,0.0,0.0,0.0
5.66,0.1345,-0.2205,0.9390000000000001,0.976,0.61,-0.488,0.0,0.0,0.0,0.0,0.0,0.0,0.0,0.0
5.67,0.133,-0.219,0.931,0.61,-0.671,-0.976,0.0,0.0,0.0,0.0,0.0,0.0,0.0,0.0
5.681,0.14,-0.223,0.9375,1.768,-0.976,-1.341,0.0,0.0,0.0,0.0,0.0,0.0,0.0,0.0
5.691,0.147,-0.227,0.944,1.159,-1.037,-1.768,0.0,0.0,0.0,0.0,0.0,0.0,0.0,0.0
5.701,0.144,-0.223,0.944,-0.488,-1.768,-1.524,0.0,0.0,0.0,0.0,0.0,0.0,0.0,0.0
5.711,0.157,-0.242,0.961,0.793,0.0,-0.183,0.0,0.0,0.0,0.0,0.0,0.0,0.0,0.0
5.722,0.157,-0.23875,0.959,0.488,1.341,0.61,0.0,0.0,0.0,0.0,0.0,0.0,0.0,0.0
5.73,0.157,-0.2355,0.957,-0.793,0.305,0.61,0.0,0.0,0.0,0.0,0.0,0.0,0.0,0.0
5.741,0.157,-0.23225,0.955,-0.976,0.61,0.488,0.0,0.0,0.0,0.0,0.0,0.0,0.0,0.0
5.751,0.157,-0.229,0.953,-0.976,0.793,0.427,0.0,0.0,0.0,0.0,0.0,0.0,0.0,0.0
5.761,0.15,-0.226,0.94,0.0,0.122,-0.061,0.0,0.0,0.0,0.0,0.0,0.0,0.0,0.0
5.771,0.153,-0.222,0.928,1.707,0.061,-0.549,0.0,0.0,0.0,0.0,0.0,0.0,0.0,0.0
5.782,0.15,-0.224,0.937,1.768,-0.122,-0.915,0.0,0.0,0.0,0.0,0.0,0.0,0.0,0.0
5.792,0.147,-0.226,0.946,0.61,-0.305,-0.732,0.0,0.0,0.0,0.0,0.0,0.0,0.0,0.0
5.801,0.147,-0.228,0.9415,0.61,0.732,0.183,0.0,0.0,0.0,0.0,0.0,0.0,0.0,0.0
5.811,0.147,-0.23,0.937,1.22,0.732,0.244,0.0,0.0,0.0,0.0,0.0,0.0,0.0,0.0
5.821,0.138,-0.211,0.945,-0.549,-0.366,-0.427,0.0,0.0,0.0,0.0,0.0,0.0,0.0,0.0
5.831,0.144,-0.213,0.937,-0.122,-0.183,-0.854,0.0,0.0,0.0,0.0,0.0,0.0,0.0,0.0
5.842,0.1445,-0.2135,0.9435,0.915,0.61,-1.098,0.0,0.0,0.0,0.0,0.0,0.0,0.0,0.0
5.852,0.145,-0.214,0.95,1.524,0.305,-1.707,0.0,0.0,0.0,0.0,0.0,0.0,0.0,0.0
5.861,0.1485,-0.2195,0.959,1.037,0.427,-2.012,0.0,0.0,0.0,0.0,0.0,0.0,0.0,0.0
5.871,0.152,-0.225,0.968,-0.183,1.341,-1.707,0.0,0.0,0.0,0.0,0.0,0.0,0.0,0.0
5.881,0.148,-0.237,0.953,3.78,3.232,-2.378,0.0,0.0,0.0,0.0,0.0,0.0,0.0,0.0
5.892,0.1455,-0.22899999999999998,0.9464999999999999,2.805,2.134,-3.171,0.0,0.0,0.0,0.0,0.0,0.0,0.0,0.0
5.902,0.143,-0.221,0.94,1.829,1.768,-3.537,0.0,0.0,0.0,0.0,0.0,0.0,0.0,0.0
5.912,0.15,-0.237,0.938,2.5,2.5,-2.744,0.0,0.0,0.0,0.0,0.0,0.0,0.0,0.0
5.922,0.151,-0.228,0.931,1.463,1.829,-2.561,0.0,0.0,0.0,0.0,0.0,0.0,0.0,0.0
5.931,0.148,-0.2255,0.93,1.585,1.402,-2.561,0.0,0.0,0.0,0.0,0.0,0.0,0.0,0.0
5.941,0.145,-0.223,0.929,2.439,1.098,-2.866,0.0,0.0,0.0,0.0,0.0,0.0,0.0,0.0
5.952,0.147,-0.222,0.935,1.159,-0.488,-3.598,0.0,0.0,0.0,0.0,0.0,0.0,0.0,0.0
5.962,0.149,-0.221,0.941,-0.061,-0.854,-4.268,0.0,0.0,0.0,0.0,0.0,0.0,0.0,0.0
5.972,0.148,-0.233,0.946,0.305,-1.402,-4.634,0.0,0.0,0.0,0.0,0.0,0.0,0.0,0.0
5.982,0.151,-0.239,0.954,0.976,-0.122,-3.963,0.0,0.0,0.0,0.0,0.0,0.0,0.0,0.0
5.993,0.149,-0.23424999999999999,0.9535,1.402,1.829,-3.354,0.0,0.0,0.0,0.0,0.0,0.0,0.0,0.0
6.001,0.147,-0.22949999999999998,0.953,2.073,2.988,-2.744,0.0,0.0,0.0,0.0,0.0,0.0,0.0,0.0
6.012,0.145,-0.22475,0.9524999999999999,1.585,3.963,-2.5,0.0,0.0,0.0,0.0,0.0,0.0,0.0,0.0
6.022,0.143,-0.22,0.952,0.61,3.659,-2.927,0.0,0.0,0.0,0.0,0.0,0.0,0.0,0.0
6.032,0.138,-0.22,0.939,1.463,3.293,-3.171,0.0,0.0,0.0,0.0,0.0,0.0,0.0,0.0
6.042,0.137,-0.215,0.938,1.585,3.049,-3.293,0.0,0.0,0.0,0.0,0.0,0.0,0.0,0.0
6.053,0.1365,-0.213,0.94075,0.0,1.768,-4.024,0.0,0.0,0.0,0.0,0.0,0.0,0.0,0.0
6.061,0.136,-0.211,0.9435,-0.488,1.707,-4.329,0.0,0.0,0.0,0.0,0.0,0.0,0.0,0.0
6.072,0.1355,-0.209,0.9462499999999999,-0.427,2.805,-4.085,0.0,0.0,0.0,0.0,0.0,0.0,0.0,0.0
6.082,0.135,-0.207,0.949,-1.402,2.378,-4.39,0.0,0.0,0.0,0.0,0.0,0.0,0.0,0.0
6.092,0.14,-0.204,0.95,-2.683,2.256,-4.634,0.0,0.0,0.0,0.0,0.0,0.0,0.0,0.0
6.102,0.14,-0.21,0.95,-3.841,2.195,-4.39,0.0,0.0,0.0,0.0,0.0,0.0,0.0,0.0
6.113,0.14500000000000002,-0.2135,0.9425,-4.085,2.5,-3.354,0.0,0.0,0.0,0.0,0.0,0.0,0.0,0.0
6.123,0.15,-0.217,0.935,-4.146,2.439,-2.622,0.0,0.0,0.0,0.0,0.0,0.0,0.0,0.0
6.132,0.156,-0.215,0.936,-5.0,0.976,-2.195,0.0,0.0,0.0,0.0,0.0,0.0,0.0,0.0
6.142,0.162,-0.213,0.937,-6.28,0.61,-0.793,0.0,0.0,0.0,0.0,0.0,0.0,0.0,0.0
6.152,0.171,-0.213,0.948,-9.024,0.732,1.159,0.0,0.0,0.0,0.0,0.0,0.0,0.0,0.0
6.163,0.1675,-0.2175,0.937,-9.085,0.732,1.951,0.0,0.0,0.0,0.0,0.0,0.0,0.0,0.0
6.173,0.164,-0.222,0.926,-9.634,1.28,4.634,0.0,0.0,0.0,0.0,0.0,0.0,0.0,0.0
6.183,0.148,-0.184,0.939,-9.756,0.488,3.171,0.0,0.0,0.0,0.0,0.0,0.0,0.0,0.0
6.193,0.141,-0.195,0.915,-5.915,-0.854,1.28,0.0,0.0,0.0,0.0,0.0,0.0,0.0,0.0
6.202,0.1455,-0.192,0.922,-5.305,-0.732,0.671,0.0,0.0,0.0,0.0,0.0,0.0,0.0,0.0
6.212,0.15,-0.189,0.929,-4.695,-1.463,-0.366,0.0,0.0,0.0,0.0,0.0,0.0,0.0,0.0
6.223,0.16,-0.2,0.9410000000000001,-2.317,-1.89,-1.22,0.0,0.0,0.0,0.0,0.0,0.0,0.0,0.0
6.233,0.17,-0.211,0.953,2.622,-1.768,-2.073,0.0,0.0,0.0,0.0,0.0,0.0,0.0,0.0
6.243,0.18,-0.197,0.955,7.683,-0.976,-2.744,0.0,0.0,0.0,0.0,0.0,0.0,0.0,0.0
6.253,0.161,-0.135,0.97,4.39,-6.22,-7.561,0.0,0.0,0.0,0.0,0.0,0.0,0.0,0.0
6.264,0.182,-0.17049999999999998,0.98,1.707,-0.488,-5.0,0.0,0.0,0.0,0.0,0.0,0.0,0.0,0.0
6.272,0.203,-0.206,0.99,4.024,1.707,-3.415,0.0,0.0,0.0,0.0,0.0,0.0,0.0,0.0
6.283,0.1925,-0.1845,0.966,3.659,1.22,-3.232,0.0,0.0,0.0,0.0,0.0,0.0,0.0,0.0
6.293,0.182,-0.163,0.942,2.866,1.037,-2.622,0.0,0.0,0.0,0.0,0.0,0.0,0.0,0.0
6.303,0.167,-0.155,0.913,3.78,-0.732,-3.293,0.0,0.0,0.0,0.0,0.0,0.0,0.0,0.0
6.313,0.154,-0.157,0.906,6.402,-2.744,-3.78,0.0,0.0,0.0,0.0,0.0,0.0,0.0,0.0
6.324,0.1485,-0.154,0.911,6.402,-7.012,-4.634,0.0,0.0,0.0,0.0,0.0,0.0,0.0,0.0
6.334,0.143,-0.151,0.916,5.0,-10.854,-5.061,0.0,0.0,0.0,0.0,0.0,0.0,0.0,0.0
6.343,0.135,-0.1585,0.946,3.963,-12.378,-5.183,0.0,0.0,0.0,0.0,0.0,0.0,0.0,0.0
6.353,0.127,-0.166,0.976,3.598,-12.5,-4.634,0.0,0.0,0.0,0.0,0.0,0.0,0.0,0.0
6.363,0.126,-0.167,0.987,3.354,-11.585,-3.963,0.0,0.0,0.0,0.0,0.0,0.0,0.0,0.0
6.373,0.117,-0.174,1.0,4.573,-9.329,-3.963,0.0,0.0,0.0,0.0,0.0,0.0,0.0,0.0
6.384,0.12,-0.175,0.9855,5.427,-6.951,-3.78,0.0,0.0,0.0,0.0,0.0,0.0,0.0,0.0
6.394,0.123,-0.176,0.971,5.183,-6.22,-3.841,0.0,0.0,0.0,0.0,0.0,0.0,0.0,0.0
6.403,0.1205,-0.1835,0.9635,4.573,-5.976,-3.72,0.0,0.0,0.0,0.0,0.0,0.0,0.0,0.0
6.413,0.118,-0.191,0.956,5.427,-5.366,-3.537,0.0,0.0,0.0,0.0,0.0,0.0,0.0,0.0
6.423,0.118,-0.194,0.943,6.89,-4.085,-3.293,0.0,0.0,0.0,0.0,0.0,0.0,0.0,0.0
6.434,0.1205,-0.199,0.937,7.866,-2.622,-2.744,0.0,0.0,0.0,0.0,0.0,0.0,0.0,0.0
6.444,0.123,-0.204,0.931,7.561,-2.073,-2.073,0.0,0.0,0.0,0.0,0.0,0.0,0.0,0.0
6.454,0.12,-0.198,0.925,5.488,-3.171,-1.585,0.0,0.0,0.0,0.0,0.0,0.0,0.0,0.0
6.464,0.123,-0.196,0.92,3.78,-4.817,-1.524,0.0,0.0,0.0,0.0,0.0,0.0,0.0,0.0
6.473,0.125,-0.1935,0.9225000000000001,3.11,-6.28,-1.341,0.0,0.0,0.0,0.0,0.0,0.0,0.0,0.0
6.483,0.127,-0.191,0.925,2.561,-7.439,-1.159,0.0,0.0,0.0,0.0,0.0,0.0,0.0,0.0
6.494,0.131,-0.19,0.937,2.256,-7.195,-0.915,0.0,0.0,0.0,0.0,0.0,0.0,0.0,0.0
6.504,0.135,-0.189,0.949,2.195,-6.707,-0.976,0.0,0.0,0.0,0.0,0.0,0.0,0.0,0.0
6.514,0.128,-0.186,0.948,0.244,-7.378,-1.037,0.0,0.0,0.0,0.0,0.0,0.0,0.0,0.0
6.524,0.127,-0.19,0.959,-1.037,-7.439,-0.366,0.0,0.0,0.0,0.0,0.0,0.0,0.0,0.0
6.535,0.12775,-0.18875,0.95375,-1.037,-5.671,0.976,0.0,0.0,0.0,0.0,0.0,0.0,0.0,0.0
6.543,0.1285,-0.1875,0.9484999999999999,-2.195,-4.268,2.256,0.0,0.0,0.0,0.0,0.0,0.0,0.0,0.0
6.554,0.12925,-0.18625,0.9432499999999999,-3.537,-3.78,3.354,0.0,0.0,0.0,0.0,0.0,0.0,0.0,0.0
6.564,0.13,-0.185,0.938,-3.171,-3.293,4.024,0.0,0.0,0.0,0.0,0.0,0.0,0.0,0.0
6.574,0.127,-0.175,0.916,-2.378,-3.78,3.963,0.0,0.0,0.0,0.0,0.0,0.0,0.0,0.0
6.584,0.12,-0.166,0.911,-3.598,-6.829,3.415,0.0,0.0,0.0,0.0,0.0,0.0,0.0,0.0
6.595,0.118,-0.167,0.916,-2.561,-7.378,3.11,0.0,0.0,0.0,0.0,0.0,0.0,0.0,0.0
6.603,0.11599999999999999,-0.168,0.921,-3.11,-7.927,2.683,0.0,0.0,0.0,0.0,0.0,0.0,0.0,0.0
6.614,0.114,-0.169,0.926,-3.232,-8.902,2.134,0.0,0.0,0.0,0.0,0.0,0.0,0.0,0.0
6.624,0.112,-0.17,0.931,-1.402,-6.402,2.927,0.0,0.0,0.0,0.0,0.0,0.0,0.0,0.0
6.634,0.111,-0.174,0.933,0.488,-3.902,4.207,0.0,0.0,0.0,0.0,0.0,0.0,0.0,0.0
6.644,0.107,-0.169,0.936,-0.122,-3.11,4.878,0.0,0.0,0.0,0.0,0.0,0.0,0.0,0.0
6.655,0.1065,-0.161,0.9345000000000001,-1.159,-3.72,4.207,0.0,0.0,0.0,0.0,0.0,0.0,0.0,0.0
6.665,0.106,-0.153,0.933,-1.707,-4.451,3.415,0.0,0.0,0.0,0.0,0.0,0.0,0.0,0.0
6.674,0.11299999999999999,-0.16599999999999998,0.948,-2.622,-4.329,3.354,0.0,0.0,0.0,0.0,0.0,0.0,0.0,0.0
6.684,0.12,-0.179,0.963,-3.293,-3.354,4.268,0.0,0.0,0.0,0.0,0.0,0.0,0.0,0.0
6.694,0.126,-0.191,0.977,-4.024,-1.768,5.427,0.0,0.0,0.0,0.0,0.0,0.0,0.0,0.0
6.705,0.1275,-0.192,0.975,-5.122,-0.244,6.585,0.0,0.0,0.0,0.0,0.0,0.0,0.0,0.0
6.715,0.129,-0.193,0.973,-6.707,-0.305,6.951,0.0,0.0,0.0,0.0,0.0,0.0,0.0,0.0
6.725,0.128,-0.19,0.965,-7.439,-0.488,7.378,0.0,0.0,0.0,0.0,0.0,0.0,0.0,0.0
6.735,0.133,-0.191,0.965,-6.037,1.646,8.11,0.0,0.0,0.0,0.0,0.0,0.0,0.0,0.0
6.744,0.126,-0.187,0.96,-5.427,2.622,8.415,0.0,0.0,0.0,0.0,0.0,0.0,0.0,0.0
6.754,0.114,-0.171,0.953,-7.134,1.037,8.171,0.0,0.0,0.0,0.0,0.0,0.0,0.0,0.0
6.765,0.115,-0.169,0.958,-8.049,0.915,8.232,0.0,0.0,0.0,0.0,0.0,0.0,0.0,0.0
6.775,0.116,-0.167,0.963,-7.744,2.5,8.598,0.0,0.0,0.0,0.0,0.0,0.0,0.0,0.0
6.785,0.11,-0.164,0.963,-7.134,4.573,8.78,0.0,0.0,0.0,0.0,0.0,0.0,0.0,0.0
6.795,0.106,-0.155,0.957,-6.829,5.183,8.659,0.0,0.0,0.0,0.0,0.0,0.0,0.0,0.0
6.804,0.10250000000000001,-0.154,0.9524999999999999,-6.28,5.793,8.841,0.0,0.0,0.0,0.0,0.0,0.0,0.0,0.0
6.814,0.099,-0.153,0.948,-6.524,5.549,8.598,0.0,0.0,0.0,0.0,0.0,0.0,0.0,0.0
6.825,0.0825,-0.16,0.95,-6.524,5.61,8.171,0.0,0.0,0.0,0.0,0.0,0.0,0.0,0.0
6.835,0.066,-0.167,0.952,-6.098,7.012,7.561,0.0,0.0,0.0,0.0,0.0,0.0,0.0,0.0
6.845,0.039,-0.178,0.932,-3.598,5.488,6.585,0.0,0.0,0.0,0.0,0.0,0.0,0.0,0.0
6.855,0.052,-0.185,0.923,-1.951,1.463,4.817,0.0,0.0,0.0,0.0,0.0,0.0,0.0,0.0
6.866,0.087,-0.21225,0.98125,-2.134,-5.183,1.524,0.0,0.0,0.0,0.0,0.0,0.0,0.0,0.0
6.874,0.122,-0.2395,1.0394999999999999,-5.0,-11.159,-1.341,0.0,0.0,0.0,0.0,0.0,0.0,0.0,0.0
6.885,0.157,-0.26675,1.09775,-9.695,-14.817,-2.622,0.0,0.0,0.0,0.0,0.0,0.0,0.0,0.0
6.895,0.192,-0.294,1.156,-12.256,-17.378,-2.5,0.0,0.0,0.0,0.0,0.0,0.0,0.0,0.0
6.905,0.235,-0.32,1.189,-11.22,-17.561,-1.22,0.0,0.0,0.0,0.0,0.0,0.0,0.0,0.0
6.915,0.272,-0.322,1.216,-6.341,-13.841,-0.488,0.0,0.0,0.0,0.0,0.0,0.0,0.0,0.0
6.926,0.29700000000000004,-0.3095,1.2185000000000001,2.012,-7.256,0.305,0.0,0.0,0.0,0.0,0.0,0.0,0.0,0.0
6.936,0.322,-0.297,1.221,7.744,-0.488,1.098,0.0,0.0,0.0,0.0,0.0,0.0,0.0,0.0
6.945,0.3195,-0.27949999999999997,1.1935,11.646,5.305,0.915,0.0,0.0,0.0,0.0,0.0,0.0,0.0,0.0
6.955,0.317,-0.262,1.166,14.939,11.037,1.341,0.0,0.0,0.0,0.0,0.0,0.0,0.0,0.0
6.965,0.304,-0.235,1.101,15.854,13.72,1.524,0.0,0.0,0.0,0.0,0.0,0.0,0.0,0.0
6.976,0.28700000000000003,-0.201,1.034,14.329,13.598,0.976,0.0,0.0,0.0,0.0,0.0,0.0,0.0,0.0
6.986,0.27,-0.167,0.967,8.049,10.732,0.976,0.0,0.0,0.0,0.0,0.0,0.0,0.0,0.0
6.996,0.244,-0.158,0.932,-1.951,6.585,2.439,0.0,0.0,0.0,0.0,0.0,0.0,0.0,0.0
7.006,0.215,-0.153,0.896,-11.768,2.561,3.537,0.0,0.0,0.0,0.0,0.0,0.0,0.0,0.0
7.015,0.186,-0.155,0.853,-17.439,-2.073,3.72,0.0,0.0,0.0,0.0,0.0,0.0,0.0,0.0
7.025,0.157,-0.157,0.81,-18.171,-4.634,4.024,0.0,0.0,0.0,0.0,0.0,0.0,0.0,0.0
7.036,0.14350000000000002,-0.16849999999999998,0.792,-14.695,-3.963,4.878,0.0,0.0,0.0,0.0,0.0,0.0,0.0,0.0
7.046,0.13,-0.18,0.774,-11.159,-5.122,5.488,0.0,0.0,0.0,0.0,0.0,0.0,0.0,0.0
7.056,0.148,-0.221,0.779,-2.866,-2.744,7.439,0.0,0.0,0.0,0.0,0.0,0.0,0.0,0.0
7.066,0.106,-0.174,0.801,-0.854,-6.159,5.061,0.0,0.0,0.0,0.0,0.0,0.0,0.0,0.0
7.075,0.146,-0.2015,0.8465,-1.829,-3.841,3.171,0.0,0.0,0.0,0.0,0.0,0.0,0.0,0.0
7.085,0.186,-0.229,0.892,0.183,-3.598,2.561,0.0,0.0,0.0,0.0,0.0,0.0,0.0,0.0
7.096,0.2235,-0.2545,0.9265,-1.402,-1.829,3.354,0.0,0.0,0.0,0.0,0.0,0.0,0.0,0.0
7.106,0.261,-0.28,0.961,-3.232,-1.22,4.268,0.0,0.0,0.0,0.0,0.0,0.0,0.0,0.0
7.116,0.286,-0.291,0.966,-2.622,-0.915,5.366,0.0,0.0,0.0,0.0,0.0,0.0,0.0,0.0
7.126,0.305,-0.29,0.972,-0.854,1.585,5.549,0.0,0.0,0.0,0.0,0.0,0.0,0.0,0.0
7.137,0.30774999999999997,-0.2925,0.971,0.549,3.476,5.0,0.0,0.0,0.0,0.0,0.0,0.0,0.0,0.0
7.145,0.3105,-0.295,0.97,1.524,6.098,4.573,0.0,0.0,0.0,0.0,0.0,0.0,0.0,0.0
7.156,0.31325000000000003,-0.2975,0.969,2.805,8.72,4.268,0.0,0.0,0.0,0.0,0.0,0.0,0.0,0.0
7.166,0.316,-0.3,0.968,4.939,10.854,3.78,0.0,0.0,0.0,0.0,0.0,0.0,0.0,0.0
7.176,0.312,-0.295,0.954,5.366,11.707,3.293,0.0,0.0,0.0,0.0,0.0,0.0,0.0,0.0
7.186,0.312,-0.288,0.944,2.988,11.037,2.561,0.0,0.0,0.0,0.0,0.0,0.0,0.0,0.0
7.197,0.3135,-0.291,0.933,0.305,9.817,2.256,0.0,0.0,0.0,0.0,0.0,0.0,0.0,0.0
7.207,0.315,-0.294,0.922,-2.317,8.415,2.134,0.0,0.0,0.0,0.0,0.0,0.0,0.0,0.0
7.216,0.312,-0.289,0.916,-4.329,7.073,1.646,0.0,0.0,0.0,0.0,0.0,0.0,0.0,0.0
7.226,0.308,-0.291,0.904,-4.512,6.28,1.524,0.0,0.0,0.0,0.0,0.0,0.0,0.0,0.0
7.236,0.308,-0.292,0.901,-3.659,6.524,1.159,0.0,0.0,0.0,0.0,0.0,0.0,0.0,0.0
7.247,0.2925,-0.28049999999999997,0.891,-2.5,5.732,-0.061,0.0,0.0,0.0,0.0,0.0,0.0,0.0,0.0
7.257,0.277,-0.269,0.881,-2.195,4.756,-1.341,0.0,0.0,0.0,0.0,0.0,0.0,0.0,0.0
7.267,0.277,-0.271,0.891,-1.768,4.878,-2.378,0.0,0.0,0.0,0.0,0.0,0.0,0.0,0.0
7.277,0.275,-0.282,0.884,0.549,4.695,-2.866,0.0,0.0,0.0,0.0,0.0,0.0,0.0,0.0
7.286,0.279,-0.285,0.893,1.524,4.634,-2.866,0.0,0.0,0.0,0.0,0.0,0.0,0.0,0.0
7.296,0.276,-0.287,0.909,-0.976,4.024,-2.5,0.0,0.0,0.0,0.0,0.0,0.0,0.0,0.0
7.307,0.271,-0.295,0.9105000000000001,-4.024,2.439,-1.646,0.0,0.0,0.0,0.0,0.0,0.0,0.0,0.0
7.317,0.266,-0.303,0.912,-4.329,2.134,-0.305,0.0,0.0,0.0,0.0,0.0,0.0,0.0,0.0
7.327,0.267,-0.299,0.902,-3.293,3.659,1.159,0.0,0.0,0.0,0.0,0.0,0.0,0.0,0.0
7.337,0.254,-0.292,0.895,-1.037,5.183,2.317,0.0,0.0,0.0,0.0,0.0,0.0,0.0,0.0
7.346,0.2415,-0.2865,0.889,1.89,7.012,3.476,0.0,0.0,0.0,0.0,0.0,0.0,0.0,0.0
7.356,0.229,-0.281,0.883,3.354,7.927,4.451,0.0,0.0,0.0,0.0,0.0,0.0,0.0,0.0
7.367,0.222,-0.272,0.874,3.476,7.378,5.427,0.0,0.0,0.0,0.0,0.0,0.0,0.0,0.0
7.377,0.215,-0.263,0.865,3.11,5.671,5.305,0.0,0.0,0.0,0.0,0.0,0.0,0.0,0.0
7.387,0.203,-0.256,0.857,3.293,2.927,4.634,0.0,0.0,0.0,0.0,0.0,0.0,0.0,0.0
7.397,0.196,-0.25,0.864,2.073,1.341,4.085,0.0,0.0,0.0,0.0,0.0,0.0,0.0,0.0
7.408,0.18825,-0.24775,0.8665,0.976,0.183,3.841,0.0,0.0,0.0,0.0,0.0,0.0,0.0,0.0
7.416,0.1805,-0.2455,0.869,2.866,-0.488,3.841,0.0,0.0,0.0,0.0,0.0,0.0,0.0,0.0
7.427,0.17275000000000001,-0.24325,0.8714999999999999,5.915,-0.366,3.293,0.0,0.0,0.0,0.0,0.0,0.0,0.0,0.0
7.437,0.165,-0.241,0.874,6.22,-1.28,2.439,0.0,0.0,0.0,0.0,0.0,0.0,0.0,0.0
7.447,0.155,-0.239,0.881,5.0,-3.415,1.646,0.0,0.0,0.0,0.0,0.0,0.0,0.0,0.0
7.457,0.151,-0.248,0.882,4.939,-4.268,1.402,0.0,0.0,0.0,0.0,0.0,0.0,0.0,0.0
7.468,0.14766666666666667,-0.24866666666666667,0.8923333333333333,5.0,-4.146,1.524,0.0,0.0,0.0,0.0,0.0,0.0,0.0,0.0
7.477,0.1443333333333333,-0.24933333333333332,0.9026666666666667,4.146,-4.39,1.341,0.0,0.0,0.0,0.0,0.0,0.0,0.0,0.0
7.487,0.141,-0.25,0.913,4.146,-3.841,1.037,0.0,0.0,0.0,0.0,0.0,0.0,0.0,0.0
7.497,0.143,-0.251,0.919,3.78,-2.744,0.793,0.0,0.0,0.0,0.0,0.0,0.0,0.0,0.0
7.507,0.142,-0.252,0.93,2.805,-2.256,0.61,0.0,0.0,0.0,0.0,0.0,0.0,0.0,0.0
7.518,0.1385,-0.251,0.932,2.195,-2.134,0.427,0.0,0.0,0.0,0.0,0.0,0.0,0.0,0.0
7.528,0.135,-0.25,0.934,1.646,-1.341,-0.122,0.0,0.0,0.0,0.0,0.0,0.0,0.0,0.0
7.538,0.13,-0.239,0.932,0.122,-1.524,-1.524,0.0,0.0,0.0,0.0,0.0,0.0,0.0,0.0
