Timestamp,Acc x (g),Acc y (g),Acc z (g),Gyro x (deg/s),Gyro y (deg/s),Gyro z (deg/s),Beccheggio/Pitch (deg/s),Rollio/Roll (deg/s),Imbardata/Yaw (deg/s),Mag x (microTesla),Mag y (microTesla),Mag z (microTesla),Pressione (milliBar),Altitudine (m)
0.0,0.137,-0.261,0.932,-2.805,-4.878,0.061,0.0,0.0,0.0,0.0,0.0,0.0,0.0,0.0
0.009,0.143,-0.254,0.941,-2.866,-4.878,0.366,0.0,0.0,0.0,0.0,0.0,0.0,0.0,0.0
0.019,0.145,-0.256,0.938,-2.988,-5.305,0.366,0.0,0.0,0.0,0.0,0.0,0.0,0.0,0.0
0.029,0.141,-0.258,0.938,-2.5,-6.768,0.915,0.0,0.0,0.0,0.0,0.0,0.0,0.0,0.0
0.04,0.1415,-0.2595,0.939,-2.012,-6.524,0.732,0.0,0.0,0.0,0.0,0.0,0.0,0.0,0.0
0.05,0.142,-0.261,0.94,-0.915,-4.207,-0.061,0.0,0.0,0.0,0.0,0.0,0.0,0.0,0.0
0.06,0.147,-0.264,0.939,0.366,-2.073,-0.305,0.0,0.0,0.0,0.0,0.0,0.0,0.0,0.0
0.069,0.1455,-0.2655,0.9435,0.976,-0.549,-1.037,0.0,0.0,0.0,0.0,0.0,0.0,0.0,0.0
0.079,0.144,-0.267,0.948,2.378,0.671,-2.683,0.0,0.0,0.0,0.0,0.0,0.0,0.0,0.0
0.089,0.136,-0.264,0.938,3.598,1.646,-4.939,0.0,0.0,0.0,0.0,0.0,0.0,0.0,0.0
0.1,0.1385,-0.262,0.9355,4.695,2.744,-6.159,0.0,0.0,0.0,0.0,0.0,0.0,0.0,0.0
0.11,0.141,-0.26,0.933,6.463,4.695,-7.012,0.0,0.0,0.0,0.0,0.0,0.0,0.0,0.0
0.12,0.137,-0.253,0.931,6.646,7.195,-8.049,0.0,0.0,0.0,0.0,0.0,0.0,0.0,0.0
0.13,0.131,-0.252,0.933,6.402,7.866,-9.207,0.0,0.0,0.0,0.0,0.0,0.0,0.0,0.0
0.139,0.137,-0.2515,0.942,4.634,5.549,-10.183,0.0,0.0,0.0,0.0,0.0,0.0,0.0,0.0
0.149,0.143,-0.251,0.951,1.951,2.866,-9.634,0.0,0.0,0.0,0.0,0.0,0.0,0.0,0.0
0.16,0.144,-0.2575,0.946,1.951,3.293,-9.268,0.0,0.0,0.0,0.0,0.0,0.0,0.0,0.0
0.17,0.145,-0.264,0.941,3.415,5.671,-9.573,0.0,0.0,0.0,0.0,0.0,0.0,0.0,0.0
0.18,0.144,-0.253,0.933,5.244,6.037,-9.39,0.0,0.0,0.0,0.0,0.0,0.0,0.0,0.0
0.19,0.142,-0.247,0.934,5.793,5.61,-8.11,0.0,0.0,0.0,0.0,0.0,0.0,0.0,0.0
0.201,0.13974999999999999,-0.24275,0.9337500000000001,4.695,5.305,-6.829,0.0,0.0,0.0,0.0,0.0,0.0,0.0,0.0
0.209,0.1375,-0.2385,0.9335,4.329,3.232,-6.707,0.0,0.0,0.0,0.0,0.0,0.0,0.0,0.0
0.22,0.13525,-0.23425,0.93325,4.207,1.28,-7.5,0.0,0.0,0.0,0.0,0.0,0.0,0.0,0.0
0.23,0.133,-0.23,0.933,2.439,-0.061,-6.951,0.0,0.0,0.0,0.0,0.0,0.0,0.0,0.0
0.24,0.141,-0.239,0.947,-0.122,-1.402,-6.159,0.0,0.0,0.0,0.0,0.0,0.0,0.0,0.0
0.25,0.146,-0.25,0.948,-0.61,-1.28,-5.061,0.0,0.0,0.0,0.0,0.0,0.0,0.0,0.0
0.261,0.145,-0.24966666666666668,0.9456666666666667,-0.671,-0.671,-4.451,0.0,0.0,0.0,0.0,0.0,0.0,0.0,0.0
0.27,0.144,-0.24933333333333332,0.9433333333333332,-1.28,-1.341,-4.39,0.0,0.0,0.0,0.0,0.0,0.0,0.0,0.0
0.28,0.143,-0.249,0.941,-0.976,-2.5,-3.476,0.0,0.0,0.0,0.0,0.0,0.0,0.0,0.0
0.29,0.149,-0.259,0.944,-1.098,-1.829,-2.134,0.0,0.0,0.0,0.0,0.0,0.0,0.0,0.0
0.3,0.149,-0.261,0.942,-0.427,-1.463,-1.524,0.0,0.0,0.0,0.0,0.0,0.0,0.0,0.0
0.311,0.148,-0.254,0.942,-0.854,-1.402,-0.854,0.0,0.0,0.0,0.0,0.0,0.0,0.0,0.0
0.321,0.147,-0.247,0.942,-1.463,-1.585,0.427,0.0,0.0,0.0,0.0,0.0,0.0,0.0,0.0
0.331,0.144,-0.25,0.944,-2.073,-1.951,0.305,0.0,0.0,0.0,0.0,0.0,0.0,0.0,0.0
0.34,0.1435,-0.247,0.945,-0.854,-2.622,-0.305,0.0,0.0,0.0,0.0,0.0,0.0,0.0,0.0
0.35,0.143,-0.244,0.946,0.488,-0.854,-1.037,0.0,0.0,0.0,0.0,0.0,0.0,0.0,0.0
0.36,0.144,-0.243,0.952,1.22,0.793,-1.646,0.0,0.0,0.0,0.0,0.0,0.0,0.0,0.0
0.371,0.143,-0.246,0.9475,2.195,0.671,-2.317,0.0,0.0,0.0,0.0,0.0,0.0,0.0,0.0
0.381,0.142,-0.249,0.943,2.012,1.098,-2.5,0.0,0.0,0.0,0.0,0.0,0.0,0.0,0.0
0.391,0.147,-0.252,0.946,1.402,1.646,-1.829,0.0,0.0,0.0,0.0,0.0,0.0,0.0,0.0
0.401,0.149,-0.252,0.947,0.549,2.012,-0.671,0.0,0.0,0.0,0.0,0.0,0.0,0.0,0.0
0.41,0.1475,-0.249,0.9464999999999999,0.305,1.341,-0.305,0.0,0.0,0.0,0.0,0.0,0.0,0.0,0.0
0.42,0.146,-0.246,0.946,0.0,0.427,-0.183,0.0,0.0,0.0,0.0,0.0,0.0,0.0,0.0
0.431,0.15,-0.2495,0.9435,-0.427,0.183,0.427,0.0,0.0,0.0,0.0,0.0,0.0,0.0,0.0
0.441,0.154,-0.253,0.941,0.793,1.707,0.854,0.0,0.0,0.0,0.0,0.0,0.0,0.0,0.0
0.451,0.153,-0.252,0.933,2.5,2.439,0.671,0.0,0.0,0.0,0.0,0.0,0.0,0.0,0.0
0.461,0.148,-0.249,0.93,3.11,1.341,0.427,0.0,0.0,0.0,0.0,0.0,0.0,0.0,0.0
0.472,0.14975,-0.24925,0.9345,2.927,1.28,0.244,0.0,0.0,0.0,0.0,0.0,0.0,0.0,0.0
0.48,0.1515,-0.2495,0.9390000000000001,3.171,2.256,0.061,0.0,0.0,0.0,0.0,0.0,0.0,0.0,0.0
0.491,0.15325,-0.24975,0.9435,3.293,2.378,0.305,0.0,0.0,0.0,0.0,0.0,0.0,0.0,0.0
0.501,0.155,-0.25,0.948,2.317,1.646,0.671,0.0,0.0,0.0,0.0,0.0,0.0,0.0,0.0
0.511,0.155,-0.25,0.948,0.122,0.244,0.854,0.0,0.0,0.0,0.0,0.0,0.0,0.0,0.0
0.521,0.156,-0.255,0.951,-1.707,-1.28,1.524,0.0,0.0,0.0,0.0,0.0,0.0,0.0,0.0
0.532,0.1575,-0.2595,0.949,-1.707,-2.073,3.049,0.0,0.0,0.0,0.0,0.0,0.0,0.0,0.0
0.542,0.159,-0.264,0.947,-1.646,-1.646,4.39,0.0,0.0,0.0,0.0,0.0,0.0,0.0,0.0
0.551,0.153,-0.26,0.944,-0.976,-1.28,5.305,0.0,0.0,0.0,0.0,0.0,0.0,0.0,0.0
0.561,0.146,-0.254,0.94,0.0,-1.524,5.671,0.0,0.0,0.0,0.0,0.0,0.0,0.0,0.0
0.571,0.146,-0.252,0.939,0.427,-0.976,5.488,0.0,0.0,0.0,0.0,0.0,0.0,0.0,0.0
0.582,0.14250000000000002,-0.247,0.9375,1.646,-0.122,5.061,0.0,0.0,0.0,0.0,0.0,0.0,0.0,0.0
0.592,0.139,-0.242,0.936,1.951,-0.122,4.268,0.0,0.0,0.0,0.0,0.0,0.0,0.0,0.0
0.602,0.143,-0.244,0.947,1.89,0.0,3.841,0.0,0.0,0.0,0.0,0.0,0.0,0.0,0.0
0.612,0.148,-0.248,0.954,0.732,1.341,3.72,0.0,0.0,0.0,0.0,0.0,0.0,0.0,0.0
0.621,0.146,-0.251,0.953,0.488,1.707,4.329,0.0,0.0,0.0,0.0,0.0,0.0,0.0,0.0
0.631,0.148,-0.252,0.943,0.793,1.463,3.963,0.0,0.0,0.0,0.0,0.0,0.0,0.0,0.0
0.642,0.1475,-0.2515,0.9404999999999999,1.159,0.854,3.598,0.0,0.0,0.0,0.0,0.0,0.0,0.0,0.0
0.652,0.147,-0.251,0.938,1.22,0.305,3.78,0.0,0.0,0.0,0.0,0.0,0.0,0.0,0.0
0.662,0.149,-0.252,0.941,0.915,0.854,3.902,0.0,0.0,0.0,0.0,0.0,0.0,0.0,0.0
0.672,0.147,-0.256,0.938,0.976,0.671,4.268,0.0,0.0,0.0,0.0,0.0,0.0,0.0,0.0
0.681,0.149,-0.254,0.9415,0.854,0.549,5.122,0.0,0.0,0.0,0.0,0.0,0.0,0.0,0.0
0.691,0.151,-0.252,0.945,0.976,3.049,5.671,0.0,0.0,0.0,0.0,0.0,0.0,0.0,0.0
0.702,0.148,-0.2485,0.952,1.707,8.78,7.012,0.0,0.0,0.0,0.0,0.0,0.0,0.0,0.0
0.712,0.145,-0.245,0.959,2.378,13.78,8.598,0.0,0.0,0.0,0.0,0.0,0.0,0.0,0.0
0.722,0.134,-0.249,0.94,6.585,13.537,8.476,0.0,0.0,0.0,0.0,0.0,0.0,0.0,0.0
0.732,0.141,-0.254,0.939,10.427,14.451,7.805,0.0,0.0,0.0,0.0,0.0,0.0,0.0,0.0
0.743,0.13974999999999999,-0.24925,0.9375,17.317,14.756,7.927,0.0,0.0,0.0,0.0,0.0,0.0,0.0,0.0
0.751,0.1385,-0.2445,0.9359999999999999,36.341,13.902,7.439,0.0,0.0,0.0,0.0,0.0,0.0,0.0,0.0
0.762,0.13725,-0.23975,0.9345,18.476,13.963,7.073,0.0,0.0,0.0,0.0,0.0,0.0,0.0,0.0
0.772,0.136,-0.235,0.933,9.451,15.488,6.829,0.0,0.0,0.0,0.0,0.0,0.0,0.0,0.0
0.782,0.134,-0.265,1.016,14.573,34.207,11.768,0.0,0.0,0.0,0.0,0.0,0.0,0.0,0.0
0.792,0.155,-0.24,0.897,21.524,16.646,6.646,0.0,0.0,0.0,0.0,0.0,0.0,0.0,0.0
0.803,0.1375,-0.2365,0.938,6.707,5.0,0.915,0.0,0.0,0.0,0.0,0.0,0.0,0.0,0.0
0.813,0.12,-0.233,0.979,17.073,3.476,4.329,0.0,0.0,0.0,0.0,0.0,0.0,0.0,0.0
0.822,0.11149999999999999,-0.21200000000000002,0.9485,21.159,5.793,2.439,0.0,0.0,0.0,0.0,0.0,0.0,0.0,0.0
0.832,0.103,-0.191,0.918,15.915,2.927,-1.159,0.0,0.0,0.0,0.0,0.0,0.0,0.0,0.0
0.842,0.112,-0.206,0.937,16.463,-2.378,-1.524,0.0,0.0,0.0,0.0,0.0,0.0,0.0,0.0
0.853,0.11649999999999999,-0.202,0.9415,12.439,-4.451,-3.11,0.0,0.0,0.0,0.0,0.0,0.0,0.0,0.0
0.863,0.121,-0.198,0.946,11.159,-4.634,-3.659,0.0,0.0,0.0,0.0,0.0,0.0,0.0,0.0
0.873,0.122,-0.203,0.949,12.866,-4.817,-3.598,0.0,0.0,0.0,0.0,0.0,0.0,0.0,0.0
0.883,0.123,-0.198,0.943,13.841,-4.207,-3.841,0.0,0.0,0.0,0.0,0.0,0.0,0.0,0.0
0.892,0.126,-0.1985,0.9495,14.451,-2.927,-2.805,0.0,0.0,0.0,0.0,0.0,0.0,0.0,0.0
0.902,0.129,-0.199,0.956,14.634,-2.622,-1.159,0.0,0.0,0.0,0.0,0.0,0.0,0.0,0.0
0.913,0.13,-0.1955,0.966,13.598,-1.341,0.793,0.0,0.0,0.0,0.0,0.0,0.0,0.0,0.0
0.923,0.131,-0.192,0.976,15.671,6.951,3.72,0.0,0.0,0.0,0.0,0.0,0.0,0.0,0.0
0.933,0.146,-0.194,0.94,16.585,3.659,2.927,0.0,0.0,0.0,0.0,0.0,0.0,0.0,0.0
0.943,0.109,-0.167,0.917,11.646,-3.049,0.183,0.0,0.0,0.0,0.0,0.0,0.0,0.0,0.0
0.954,0.11375,-0.16975,0.925,8.659,-3.171,0.976,0.0,0.0,0.0,0.0,0.0,0.0,0.0,0.0
0.962,0.1185,-0.1725,0.933,8.354,-3.049,0.488,0.0,0.0,0.0,0.0,0.0,0.0,0.0,0.0
0.973,0.12325,-0.17525,0.941,7.561,-5.0,0.0,0.0,0.0,0.0,0.0,0.0,0.0,0.0,0.0
0.983,0.128,-0.178,0.949,6.28,-6.768,-0.061,0.0,0.0,0.0,0.0,0.0,0.0,0.0,0.0
0.993,0.123,-0.171,0.948,4.146,-6.768,-1.098,0.0,0.0,0.0,0.0,0.0,0.0,0.0,0.0
1.003,0.127,-0.167,0.952,0.122,-6.341,-1.707,0.0,0.0,0.0,0.0,0.0,0.0,0.0,0.0
1.014,0.12925,-0.16825,0.9552499999999999,2.744,-7.439,-2.5,0.0,0.0,0.0,0.0,0.0,0.0,0.0,0.0
1.022,0.1315,-0.16949999999999998,0.9584999999999999,6.402,-6.829,-3.537,0.0,0.0,0.0,0.0,0.0,0.0,0.0,0.0
1.033,0.13375,-0.17074999999999999,0.96175,6.159,-5.305,-2.988,0.0,0.0,0.0,0.0,0.0,0.0,0.0,0.0
1.043,0.136,-0.172,0.965,7.988,-5.732,-2.805,0.0,0.0,0.0,0.0,0.0,0.0,0.0,0.0
1.053,0.137,-0.17,0.962,7.378,-5.61,-3.598,0.0,0.0,0.0,0.0,0.0,0.0,0.0,0.0
1.063,0.142,-0.167,0.959,3.72,-5.061,-4.024,0.0,0.0,0.0,0.0,0.0,0.0,0.0,0.0
1.074,0.1425,-0.16999999999999998,0.9555,2.439,-4.817,-3.72,0.0,0.0,0.0,0.0,0.0,0.0,0.0,0.0
1.084,0.143,-0.173,0.952,2.134,-4.207,-3.902,0.0,0.0,0.0,0.0,0.0,0.0,0.0,0.0
1.093,0.142,-0.17099999999999999,0.951,2.195,-3.537,-4.085,0.0,0.0,0.0,0.0,0.0,0.0,0.0,0.0
1.103,0.141,-0.169,0.95,2.317,-3.354,-4.268,0.0,0.0,0.0,0.0,0.0,0.0,0.0,0.0
1.113,0.142,-0.167,0.952,3.293,-3.232,-5.244,0.0,0.0,0.0,0.0,0.0,0.0,0.0,0.0
1.124,0.145,-0.1675,0.9584999999999999,3.841,-3.11,-6.037,0.0,0.0,0.0,0.0,0.0,0.0,0.0,0.0
1.134,0.148,-0.168,0.965,5.549,-2.073,-5.915,0.0,0.0,0.0,0.0,0.0,0.0,0.0,0.0
1.144,0.151,-0.169,0.963,7.561,-1.646,-6.098,0.0,0.0,0.0,0.0,0.0,0.0,0.0,0.0
1.154,0.147,-0.169,0.959,8.659,-2.744,-6.037,0.0,0.0,0.0,0.0,0.0,0.0,0.0,0.0
1.163,0.147,-0.166,0.948,5.549,-3.659,-6.402,0.0,0.0,0.0,0.0,0.0,0.0,0.0,0.0
1.173,0.146,-0.164,0.941,4.024,-2.683,-6.463,0.0,0.0,0.0,0.0,0.0,0.0,0.0,0.0
1.184,0.1435,-0.1615,0.9444999999999999,4.817,-2.195,-6.159,0.0,0.0,0.0,0.0,0.0,0.0,0.0,0.0
1.194,0.141,-0.159,0.948,3.598,-2.622,-6.402,0.0,0.0,0.0,0.0,0.0,0.0,0.0,0.0
1.204,0.143,-0.157,0.955,4.024,-2.195,-6.341,0.0,0.0,0.0,0.0,0.0,0.0,0.0,0.0
1.214,0.143,-0.154,0.958,3.963,-0.61,-6.402,0.0,0.0,0.0,0.0,0.0,0.0,0.0,0.0
1.223,0.146,-0.159,0.963,0.427,0.427,-6.402,0.0,0.0,0.0,0.0,0.0,0.0,0.0,0.0
1.233,0.149,-0.164,0.968,1.463,-0.183,-5.671,0.0,0.0,0.0,0.0,0.0,0.0,0.0,0.0
1.244,0.153,-0.167,0.971,4.451,0.183,-5.061,0.0,0.0,0.0,0.0,0.0,0.0,0.0,0.0
1.254,0.157,-0.17,0.974,6.463,1.341,-5.0,0.0,0.0,0.0,0.0,0.0,0.0,0.0,0.0
1.264,0.153,-0.168,0.967,7.927,1.829,-5.305,0.0,0.0,0.0,0.0,0.0,0.0,0.0,0.0
1.274,0.153,-0.164,0.964,9.39,1.707,-5.854,0.0,0.0,0.0,0.0,0.0,0.0,0.0,0.0
1.285,0.15125,-0.161,0.961,10.915,2.439,-5.915,0.0,0.0,0.0,0.0,0.0,0.0,0.0,0.0
1.293,0.1495,-0.158,0.958,10.0,3.476,-5.0,0.0,0.0,0.0,0.0,0.0,0.0,0.0,0.0
1.304,0.14775,-0.155,0.955,8.72,2.927,-4.024,0.0,0.0,0.0,0.0,0.0,0.0,0.0,0.0
1.314,0.146,-0.152,0.952,7.439,1.768,-3.354,0.0,0.0,0.0,0.0,0.0,0.0,0.0,0.0
1.324,0.148,-0.149,0.962,6.768,2.012,-2.683,0.0,0.0,0.0,0.0,0.0,0.0,0.0,0.0
1.334,0.149,-0.15,0.965,8.354,3.049,-1.707,0.0,0.0,0.0,0.0,0.0,0.0,0.0,0.0
1.345,0.151,-0.1515,0.967,9.146,5.61,0.183,0.0,0.0,0.0,0.0,0.0,0.0,0.0,0.0
1.355,0.153,-0.153,0.969,9.878,9.573,2.378,0.0,0.0,0.0,0.0,0.0,0.0,0.0,0.0
1.364,0.1475,-0.14600000000000002,0.9575,10.366,9.939,2.866,0.0,0.0,0.0,0.0,0.0,0.0,0.0,0.0
1.374,0.142,-0.139,0.946,8.78,8.354,2.622,0.0,0.0,0.0,0.0,0.0,0.0,0.0,0.0
1.384,0.138,-0.139,0.944,8.78,6.646,2.866,0.0,0.0,0.0,0.0,0.0,0.0,0.0,0.0
1.395,0.1405,-0.1375,0.944,9.634,5.0,2.866,0.0,0.0,0.0,0.0,0.0,0.0,0.0,0.0
1.405,0.143,-0.136,0.944,8.293,4.329,2.256,0.0,0.0,0.0,0.0,0.0,0.0,0.0,0.0
1.415,0.134,-0.134,0.948,9.268,6.28,2.5,0.0,0.0,0.0,0.0,0.0,0.0,0.0,0.0
1.425,0.136,-0.143,1.004,6.524,23.415,8.537,0.0,0.0,0.0,0.0,0.0,0.0,0.0,0.0
1.434,0.122,-0.131,0.9590000000000001,16.585,13.354,4.573,0.0,0.0,0.0,0.0,0.0,0.0,0.0,0.0
1.444,0.108,-0.119,0.914,16.585,2.5,0.427,0.0,0.0,0.0,0.0,0.0,0.0,0.0,0.0
1.455,0.125,-0.1185,0.937,10.671,5.671,2.561,0.0,0.0,0.0,0.0,0.0,0.0,0.0,0.0
1.465,0.142,-0.118,0.96,9.268,7.805,0.488,0.0,0.0,0.0,0.0,0.0,0.0,0.0,0.0
1.475,0.129,-0.118,0.959,10.427,5.244,0.183,0.0,0.0,0.0,0.0,0.0,0.0,0.0,0.0
1.485,0.134,-0.111,0.961,10.61,3.78,0.122,0.0,0.0,0.0,0.0,0.0,0.0,0.0,0.0
1.496,0.1325,-0.1085,0.959,11.159,4.268,-1.159,0.0,0.0,0.0,0.0,0.0,0.0,0.0,0.0
1.504,0.131,-0.10600000000000001,0.957,12.012,3.415,-1.89,0.0,0.0,0.0,0.0,0.0,0.0,0.0,0.0
1.515,0.1295,-0.10350000000000001,0.955,9.878,1.524,-1.768,0.0,0.0,0.0,0.0,0.0,0.0,0.0,0.0
1.525,0.128,-0.101,0.953,6.646,-0.061,-2.134,0.0,0.0,0.0,0.0,0.0,0.0,0.0,0.0
1.535,0.132,-0.1,0.956,5.488,-0.305,-2.5,0.0,0.0,0.0,0.0,0.0,0.0,0.0,0.0
1.545,0.125,-0.102,0.958,8.11,-0.305,-2.439,0.0,0.0,0.0,0.0,0.0,0.0,0.0,0.0
1.556,0.126,-0.102,0.9615,7.683,-0.671,-2.622,0.0,0.0,0.0,0.0,0.0,0.0,0.0,0.0
1.564,0.127,-0.102,0.965,3.11,-0.61,-3.232,0.0,0.0,0.0,0.0,0.0,0.0,0.0,0.0
1.575,0.128,-0.102,0.9684999999999999,2.134,-0.122,-2.805,0.0,0.0,0.0,0.0,0.0,0.0,0.0,0.0
1.585,0.129,-0.102,0.972,2.561,1.707,-2.866,0.0,0.0,0.0,0.0,0.0,0.0,0.0,0.0
1.595,0.126,-0.102,0.975,3.537,2.134,-2.5,0.0,0.0,0.0,0.0,0.0,0.0,0.0,0.0
1.605,0.131,-0.107,0.971,5.488,1.524,-1.159,0.0,0.0,0.0,0.0,0.0,0.0,0.0,0.0
1.616,0.131,-0.106,0.966,5.305,2.073,-1.037,0.0,0.0,0.0,0.0,0.0,0.0,0.0,0.0
1.626,0.131,-0.105,0.961,4.085,3.354,-1.341,0.0,0.0,0.0,0.0,0.0,0.0,0.0,0.0
1.635,0.1275,-0.1015,0.958,4.207,3.659,-1.098,0.0,0.0,0.0,0.0,0.0,0.0,0.0,0.0
1.645,0.124,-0.098,0.955,4.512,2.988,-1.037,0.0,0.0,0.0,0.0,0.0,0.0,0.0,0.0
1.655,0.126,-0.101,0.954,5.0,2.988,-1.463,0.0,0.0,0.0,0.0,0.0,0.0,0.0,0.0
1.666,0.1265,-0.1,0.9555,6.646,2.561,-1.037,0.0,0.0,0.0,0.0,0.0,0.0,0.0,0.0
1.676,0.127,-0.099,0.957,6.037,2.012,-1.098,0.0,0.0,0.0,0.0,0.0,0.0,0.0,0.0
1.686,0.124,-0.094,0.952,4.207,0.976,-1.646,0.0,0.0,0.0,0.0,0.0,0.0,0.0,0.0
1.696,0.129,-0.098,0.963,6.341,0.366,-1.22,0.0,0.0,0.0,0.0,0.0,0.0,0.0,0.0
1.705,0.131,-0.099,0.9595,8.11,1.768,-1.463,0.0,0.0,0.0,0.0,0.0,0.0,0.0,0.0
1.715,0.133,-0.1,0.956,9.817,2.805,-1.646,0.0,0.0,0.0,0.0,0.0,0.0,0.0,0.0
1.726,0.129,-0.097,0.9535,11.463,3.11,-1.28,0.0,0.0,0.0,0.0,0.0,0.0,0.0,0.0
1.736,0.125,-0.094,0.951,6.829,3.11,-1.646,0.0,0.0,0.0,0.0,0.0,0.0,0.0,0.0
1.746,0.12,-0.088,0.943,1.037,1.646,-1.341,0.0,0.0,0.0,0.0,0.0,0.0,0.0,0.0
1.756,0.12,-0.086,0.948,-0.488,0.122,-1.037,0.0,0.0,0.0,0.0,0.0,0.0,0.0,0.0
1.767,0.1225,-0.08875,0.9512499999999999,-0.976,-0.732,-1.28,0.0,0.0,0.0,0.0,0.0,0.0,0.0,0.0
1.775,0.125,-0.0915,0.9544999999999999,0.488,-1.22,-1.524,0.0,0.0,0.0,0.0,0.0,0.0,0.0,0.0
1.786,0.1275,-0.09425,0.95775,5.305,-0.854,-1.28,0.0,0.0,0.0,0.0,0.0,0.0,0.0,0.0
1.796,0.13,-0.097,0.961,10.244,-0.488,-1.402,0.0,0.0,0.0,0.0,0.0,0.0,0.0,0.0
1.806,0.133,-0.092,0.96,12.012,0.854,-1.829,0.0,0.0,0.0,0.0,0.0,0.0,0.0,0.0
1.816,0.126,-0.084,0.956,10.61,1.89,-2.256,0.0,0.0,0.0,0.0,0.0,0.0,0.0,0.0
1.827,0.126,-0.083,0.95875,7.805,0.732,-1.585,0.0,0.0,0.0,0.0,0.0,0.0,0.0,0.0
1.835,0.126,-0.082,0.9615,6.646,-0.061,-0.549,0.0,0.0,0.0,0.0,0.0,0.0,0.0,0.0
1.846,0.126,-0.081,0.9642499999999999,7.378,1.037,0.244,0.0,0.0,0.0,0.0,0.0,0.0,0.0,0.0
1.856,0.126,-0.08,0.967,7.073,1.22,0.488,0.0,0.0,0.0,0.0,0.0,0.0,0.0,0.0
1.866,0.125,-0.077,0.976,7.256,0.244,1.037,0.0,0.0,0.0,0.0,0.0,0.0,0.0,0.0
1.876,0.129,-0.076,0.982,8.11,1.28,1.22,0.0,0.0,0.0,0.0,0.0,0.0,0.0,0.0
1.887,0.1315,-0.0745,0.9775,7.622,1.951,0.793,0.0,0.0,0.0,0.0,0.0,0.0,0.0,0.0
1.897,0.134,-0.073,0.973,7.622,1.402,0.915,0.0,0.0,0.0,0.0,0.0,0.0,0.0,0.0
1.906,0.1305,-0.07100000000000001,0.974,8.78,1.951,0.793,0.0,0.0,0.0,0.0,0.0,0.0,0.0,0.0
1.916,0.127,-0.069,0.975,8.11,8.11,1.524,0.0,0.0,0.0,0.0,0.0,0.0,0.0,0.0
1.926,0.137,-0.071,0.97,13.72,6.463,0.915,0.0,0.0,0.0,0.0,0.0,0.0,0.0,0.0
1.937,0.1285,-0.0625,0.9615,12.988,2.195,0.122,0.0,0.0,0.0,0.0,0.0,0.0,0.0,0.0
1.947,0.12,-0.054,0.953,6.341,1.951,0.915,0.0,0.0,0.0,0.0,0.0,0.0,0.0,0.0
1.957,0.126,-0.059,0.953,4.695,2.805,0.488,0.0,0.0,0.0,0.0,0.0,0.0,0.0,0.0
1.967,0.124,-0.062,0.958,4.695,2.622,0.488,0.0,0.0,0.0,0.0,0.0,0.0,0.0,0.0
1.976,0.124,-0.061,0.9544999999999999,3.171,1.402,0.61,0.0,0.0,0.0,0.0,0.0,0.0,0.0,0.0
1.986,0.124,-0.06,0.951,2.317,0.793,0.61,0.0,0.0,0.0,0.0,0.0,0.0,0.0,0.0
1.997,0.1225,-0.059,0.952,3.598,1.159,0.549,0.0,0.0,0.0,0.0,0.0,0.0,0.0,0.0
2.007,0.121,-0.058,0.953,4.268,1.463,0.122,0.0,0.0,0.0,0.0,0.0,0.0,0.0,0.0
2.017,0.121,-0.058,0.953,3.598,0.061,-0.122,0.0,0.0,0.0,0.0,0.0,0.0,0.0,0.0
2.027,0.12,-0.058,0.956,3.841,-2.5,-0.366,0.0,0.0,0.0,0.0,0.0,0.0,0.0,0.0
2.038,0.12125,-0.0565,0.958,4.146,-2.378,-0.732,0.0,0.0,0.0,0.0,0.0,0.0,0.0,0.0
2.046,0.1225,-0.055,0.96,4.207,-1.646,-1.098,0.0,0.0,0.0,0.0,0.0,0.0,0.0,0.0
2.057,0.12375,-0.0535,0.962,4.085,-2.073,-1.037,0.0,0.0,0.0,0.0,0.0,0.0,0.0,0.0
2.067,0.125,-0.052,0.964,2.5,-2.134,-0.915,0.0,0.0,0.0,0.0,0.0,0.0,0.0,0.0
2.077,0.125,-0.056,0.967,2.683,-2.012,-0.793,0.0,0.0,0.0,0.0,0.0,0.0,0.0,0.0
2.087,0.121,-0.056,0.965,2.134,-2.256,-0.793,0.0,0.0,0.0,0.0,0.0,0.0,0.0,0.0
2.098,0.12275,-0.0535,0.9632499999999999,0.671,-2.378,-0.549,0.0,0.0,0.0,0.0,0.0,0.0,0.0,0.0
2.106,0.1245,-0.051000000000000004,0.9615,1.89,-1.646,-0.61,0.0,0.0,0.0,0.0,0.0,0.0,0.0,0.0
2.117,0.12625,-0.0485,0.95975,0.976,-0.976,-0.793,0.0,0.0,0.0,0.0,0.0,0.0,0.0,0.0
2.127,0.128,-0.046,0.958,-1.22,-0.915,-0.61,0.0,0.0,0.0,0.0,0.0,0.0,0.0,0.0
2.137,0.127,-0.048,0.962,-2.134,-0.732,-0.549,0.0,0.0,0.0,0.0,0.0,0.0,0.0,0.0
2.147,0.129,-0.053,0.962,-1.646,-0.183,-0.427,0.0,0.0,0.0,0.0,0.0,0.0,0.0,0.0
2.158,0.13,-0.0525,0.959,-0.61,-0.488,-0.305,0.0,0.0,0.0,0.0,0.0,0.0,0.0,0.0
2.168,0.131,-0.052,0.956,-0.183,-1.646,-0.732,0.0,0.0,0.0,0.0,0.0,0.0,0.0,0.0
2.177,0.129,-0.052,0.9544999999999999,0.427,-1.524,-0.915,0.0,0.0,0.0,0.0,0.0,0.0,0.0,0.0
2.187,0.127,-0.052,0.953,2.988,-1.098,-0.915,0.0,0.0,0.0,0.0,0.0,0.0,0.0,0.0
2.197,0.125,-0.048,0.952,4.512,-1.402,-1.159,0.0,0.0,0.0,0.0,0.0,0.0,0.0,0.0
2.208,0.128,-0.048,0.9584999999999999,3.415,-2.561,-1.585,0.0,0.0,0.0,0.0,0.0,0.0,0.0,0.0
2.218,0.131,-0.048,0.965,4.573,-2.073,-1.22,0.0,0.0,0.0,0.0,0.0,0.0,0.0,0.0
2.228,0.13,-0.056,0.961,7.134,-1.037,-0.915,0.0,0.0,0.0,0.0,0.0,0.0,0.0,0.0
2.238,0.13,-0.051,0.951,4.817,-0.549,-0.793,0.0,0.0,0.0,0.0,0.0,0.0,0.0,0.0
2.247,0.1275,-0.046,0.9495,1.098,0.0,-0.915,0.0,0.0,0.0,0.0,0.0,0.0,0.0,0.0
2.257,0.125,-0.041,0.948,-0.854,-0.366,-0.61,0.0,0.0,0.0,0.0,0.0,0.0,0.0,0.0
2.268,0.1275,-0.0435,0.9515,-0.976,0.244,-0.244,0.0,0.0,0.0,0.0,0.0,0.0,0.0,0.0
2.278,0.13,-0.046,0.955,0.061,2.256,-0.427,0.0,0.0,0.0,0.0,0.0,0.0,0.0,0.0
2.288,0.125,-0.042,0.957,-0.854,3.232,-0.671,0.0,0.0,0.0,0.0,0.0,0.0,0.0,0.0
2.298,0.128,-0.038,0.957,-2.256,2.195,-0.793,0.0,0.0,0.0,0.0,0.0,0.0,0.0,0.0
2.307,0.1325,-0.044,0.9624999999999999,-1.28,0.671,-0.549,0.0,0.0,0.0,0.0,0.0,0.0,0.0,0.0
2.317,0.137,-0.05,0.968,1.159,0.0,-0.305,0.0,0.0,0.0,0.0,0.0,0.0,0.0,0.0
2.328,0.1345,-0.051500000000000004,0.9664999999999999,2.5,0.305,-0.366,0.0,0.0,0.0,0.0,0.0,0.0,0.0,0.0
2.338,0.132,-0.053,0.965,3.902,-0.061,-0.671,0.0,0.0,0.0,0.0,0.0,0.0,0.0,0.0
2.348,0.131,-0.05,0.97,6.707,-0.793,-0.671,0.0,0.0,0.0,0.0,0.0,0.0,0.0,0.0
2.358,0.128,-0.043,0.96,6.646,-0.793,-0.549,0.0,0.0,0.0,0.0,0.0,0.0,0.0,0.0
2.369,0.13025,-0.042749999999999996,0.9615,5.671,-0.305,-0.427,0.0,0.0,0.0,0.0,0.0,0.0,0.0,0.0
2.377,0.1325,-0.042499999999999996,0.963,5.549,0.488,-0.366,0.0,0.0,0.0,0.0,0.0,0.0,0.0,0.0
2.388,0.13475,-0.04225,0.9644999999999999,4.451,0.854,-0.183,0.0,0.0,0.0,0.0,0.0,0.0,0.0,0.0
2.398,0.137,-0.042,0.966,0.122,1.524,-0.183,0.0,0.0,0.0,0.0,0.0,0.0,0.0,0.0
2.408,0.139,-0.043,0.961,-2.439,-0.305,-0.793,0.0,0.0,0.0,0.0,0.0,0.0,0.0,0.0
2.418,0.133,-0.047,0.964,-3.902,-0.061,-0.366,0.0,0.0,0.0,0.0,0.0,0.0,0.0,0.0
2.429,0.1315,-0.045,0.961,-3.11,0.61,0.244,0.0,0.0,0.0,0.0,0.0,0.0,0.0,0.0
2.439,0.13,-0.043,0.958,-1.159,0.488,0.61,0.0,0.0,0.0,0.0,0.0,0.0,0.0,0.0
2.448,0.132,-0.0445,0.962,0.244,0.61,0.61,0.0,0.0,0.0,0.0,0.0,0.0,0.0,0.0
2.458,0.134,-0.046,0.966,2.073,0.427,0.976,0.0,0.0,0.0,0.0,0.0,0.0,0.0,0.0
2.468,0.137,-0.047,0.97,4.39,0.61,1.463,0.0,0.0,0.0,0.0,0.0,0.0,0.0,0.0
2.479,0.1355,-0.0445,0.9655,6.159,1.646,1.402,0.0,0.0,0.0,0.0,0.0,0.0,0.0,0.0
2.489,0.134,-0.042,0.961,8.537,2.317,1.707,0.0,0.0,0.0,0.0,0.0,0.0,0.0,0.0
2.499,0.136,-0.044,0.963,10.854,2.439,2.378,0.0,0.0,0.0,0.0,0.0,0.0,0.0,0.0
2.509,0.132,-0.043,0.963,12.195,3.659,3.11,0.0,0.0,0.0,0.0,0.0,0.0,0.0,0.0
2.518,0.133,-0.037,0.966,13.293,3.232,4.024,0.0,0.0,0.0,0.0,0.0,0.0,0.0,0.0
2.528,0.13,-0.033,0.952,11.22,0.427,3.598,0.0,0.0,0.0,0.0,0.0,0.0,0.0,0.0
2.539,0.129,-0.03,0.9575,7.5,1.463,3.72,0.0,0.0,0.0,0.0,0.0,0.0,0.0,0.0
2.549,0.128,-0.027,0.963,10.122,1.89,3.476,0.0,0.0,0.0,0.0,0.0,0.0,0.0,0.0
2.559,0.126,-0.027,0.959,12.988,1.707,2.805,0.0,0.0,0.0,0.0,0.0,0.0,0.0,0.0
2.569,0.129,-0.026,0.958,12.744,1.768,2.012,0.0,0.0,0.0,0.0,0.0,0.0,0.0,0.0
2.58,0.131,-0.0275,0.9564999999999999,14.451,1.402,1.28,0.0,0.0,0.0,0.0,0.0,0.0,0.0,0.0
2.588,0.133,-0.029,0.955,16.28,0.183,0.305,0.0,0.0,0.0,0.0,0.0,0.0,0.0,0.0
2.599,0.132,-0.022,0.952,12.073,-1.159,-0.671,0.0,0.0,0.0,0.0,0.0,0.0,0.0,0.0
2.609,0.131,-0.015,0.949,11.463,-1.951,-1.524,0.0,0.0,0.0,0.0,0.0,0.0,0.0,0.0
2.619,0.137,-0.018,0.96,17.134,-3.902,-3.11,0.0,0.0,0.0,0.0,0.0,0.0,0.0,0.0
2.629,0.124,-0.018,0.965,21.341,-4.207,-3.232,0.0,0.0,0.0,0.0,0.0,0.0,0.0,0.0
2.64,0.127,-0.013,0.9632499999999999,22.927,-4.39,-3.232,0.0,0.0,0.0,0.0,0.0,0.0,0.0,0.0
2.648,0.13,-0.008,0.9615,23.232,-6.402,-4.695,0.0,0.0,0.0,0.0,0.0,0.0,0.0,0.0
2.659,0.133,-0.003000000000000001,0.95975,20.671,-8.171,-4.817,0.0,0.0,0.0,0.0,0.0,0.0,0.0,0.0
2.669,0.136,0.002,0.958,15.915,-6.341,-2.683,0.0,0.0,0.0,0.0,0.0,0.0,0.0,0.0
2.679,0.141,-0.003,0.965,13.72,-4.268,-3.171,0.0,0.0,0.0,0.0,0.0,0.0,0.0,0.0
2.689,0.144,0.001,0.968,14.878,-3.598,-2.439,0.0,0.0,0.0,0.0,0.0,0.0,0.0,0.0
2.7,0.14200000000000002,0.005,0.964,15.732,-2.866,-2.134,0.0,0.0,0.0,0.0,0.0,0.0,0.0,0.0
2.71,0.14,0.009,0.96,14.512,-2.439,-3.537,0.0,0.0,0.0,0.0,0.0,0.0,0.0,0.0
2.719,0.14,0.014499999999999999,0.955,11.341,-3.659,-4.817,0.0,0.0,0.0,0.0,0.0,0.0,0.0,0.0
2.729,0.14,0.02,0.95,7.988,-4.024,-3.78,0.0,0.0,0.0,0.0,0.0,0.0,0.0,0.0
2.739,0.136,0.02,0.957,7.256,-2.5,-2.317,0.0,0.0,0.0,0.0,0.0,0.0,0.0,0.0
2.75,0.138,0.0225,0.958,5.854,-1.037,-1.646,0.0,0.0,0.0,0.0,0.0,0.0,0.0,0.0
2.76,0.14,0.025,0.959,3.415,-0.549,-0.732,0.0,0.0,0.0,0.0,0.0,0.0,0.0,0.0
2.77,0.143,0.026,0.962,2.317,-0.183,-0.366,0.0,0.0,0.0,0.0,0.0,0.0,0.0,0.0
2.78,0.142,0.027,0.967,2.317,0.244,0.061,0.0,0.0,0.0,0.0,0.0,0.0,0.0,0.0
2.789,0.1455,0.027,0.962,1.707,0.366,0.366,0.0,0.0,0.0,0.0,0.0,0.0,0.0,0.0
2.799,0.149,0.027,0.957,0.854,0.549,0.305,0.0,0.0,0.0,0.0,0.0,0.0,0.0,0.0
2.81,0.1485,0.0265,0.956,0.305,0.793,0.732,0.0,0.0,0.0,0.0,0.0,0.0,0.0,0.0
2.82,0.148,0.026,0.955,-2.988,0.244,1.28,0.0,0.0,0.0,0.0,0.0,0.0,0.0,0.0
2.83,0.147,0.029,0.947,-5.671,-0.061,1.402,0.0,0.0,0.0,0.0,0.0,0.0,0.0,0.0
2.84,0.145,0.022,0.957,-5.305,0.427,0.915,0.0,0.0,0.0,0.0,0.0,0.0,0.0,0.0
2.849,0.145,0.0215,0.9555,-4.634,1.098,0.671,0.0,0.0,0.0,0.0,0.0,0.0,0.0,0.0
2.859,0.145,0.021,0.954,-3.72,1.829,0.366,0.0,0.0,0.0,0.0,0.0,0.0,0.0,0.0
2.87,0.14250000000000002,0.02,0.9484999999999999,-1.341,1.585,0.305,0.0,0.0,0.0,0.0,0.0,0.0,0.0,0.0
2.88,0.14,0.019,0.943,0.793,0.915,0.61,0.0,0.0,0.0,0.0,0.0,0.0,0.0,0.0
2.89,0.145,0.019,0.939,-0.549,1.22,0.732,0.0,0.0,0.0,0.0,0.0,0.0,0.0,0.0
2.9,0.146,0.023,0.939,-3.537,1.768,0.488,0.0,0.0,0.0,0.0,0.0,0.0,0.0,0.0
2.911,0.147,0.0205,0.9412499999999999,-3.049,1.524,0.366,0.0,0.0,0.0,0.0,0.0,0.0,0.0,0.0
2.919,0.148,0.018,0.9435,-2.622,1.159,0.366,0.0,0.0,0.0,0.0,0.0,0.0,0.0,0.0
2.93,0.149,0.0155,0.94575,-4.268,0.671,0.305,0.0,0.0,0.0,0.0,0.0,0.0,0.0,0.0
2.94,0.15,0.013,0.948,-4.512,0.427,0.305,0.0,0.0,0.0,0.0,0.0,0.0,0.0,0.0
2.95,0.15,0.016,0.949,-4.634,0.244,0.061,0.0,0.0,0.0,0.0,0.0,0.0,0.0,0.0
2.96,0.144,0.016,0.95,-5.427,0.976,-0.183,0.0,0.0,0.0,0.0,0.0,0.0,0.0,0.0
2.971,0.1445,0.012,0.9504999999999999,-4.573,2.073,-0.61,0.0,0.0,0.0,0.0,0.0,0.0,0.0,0.0
2.981,0.145,0.008,0.951,-1.585,1.89,-0.244,0.0,0.0,0.0,0.0,0.0,0.0,0.0,0.0
2.99,0.1455,0.0095,0.955,0.61,1.646,-0.122,0.0,0.0,0.0,0.0,0.0,0.0,0.0,0.0
3.0,0.146,0.011,0.959,1.463,2.073,0.0,0.0,0.0,0.0,0.0,0.0,0.0,0.0,0.0
3.01,0.146,0.011,0.964,0.305,1.89,0.488,0.0,0.0,0.0,0.0,0.0,0.0,0.0,0.0
3.021,0.145,0.0125,0.967,-3.476,2.012,0.793,0.0,0.0,0.0,0.0,0.0,0.0,0.0,0.0
3.031,0.144,0.014,0.97,-4.695,2.683,0.488,0.0,0.0,0.0,0.0,0.0,0.0,0.0,0.0
3.041,0.147,0.012,0.97,-4.756,1.768,0.61,0.0,0.0,0.0,0.0,0.0,0.0,0.0,0.0
3.051,0.146,0.012,0.967,-4.146,0.488,1.098,0.0,0.0,0.0,0.0,0.0,0.0,0.0,0.0
3.06,0.1475,0.012,0.961,-5.61,0.732,0.549,0.0,0.0,0.0,0.0,0.0,0.0,0.0,0.0
3.07,0.149,0.012,0.955,-9.146,0.549,0.549,0.0,0.0,0.0,0.0,0.0,0.0,0.0,0.0
3.081,0.15,0.01,0.962,-9.695,0.915,1.402,0.0,0.0,0.0,0.0,0.0,0.0,0.0,0.0
3.091,0.151,0.008,0.969,-8.598,1.463,1.585,0.0,0.0,0.0,0.0,0.0,0.0,0.0,0.0
3.101,0.147,0.002,0.959,-6.402,1.037,1.707,0.0,0.0,0.0,0.0,0.0,0.0,0.0,0.0
3.111,0.138,0.001,0.954,-5.366,3.476,2.378,0.0,0.0,0.0,0.0,0.0,0.0,0.0,0.0
3.12,0.139,0.005,0.9475,-7.805,4.756,2.073,0.0,0.0,0.0,0.0,0.0,0.0,0.0,0.0
3.13,0.14,0.009,0.941,-10.366,2.744,2.378,0.0,0.0,0.0,0.0,0.0,0.0,0.0,0.0
3.141,0.14300000000000002,0.0075,0.945,-11.951,0.183,2.744,0.0,0.0,0.0,0.0,0.0,0.0,0.0,0.0
3.151,0.146,0.006,0.949,-13.72,0.244,2.134,0.0,0.0,0.0,0.0,0.0,0.0,0.0,0.0
3.161,0.146,-0.003,0.961,-13.049,1.829,2.5,0.0,0.0,0.0,0.0,0.0,0.0,0.0,0.0
3.171,0.148,-0.01,0.963,-11.22,2.927,3.171,0.0,0.0,0.0,0.0,0.0,0.0,0.0,0.0
3.182,0.145,-0.011,0.9584999999999999,-8.659,3.354,2.683,0.0,0.0,0.0,0.0,0.0,0.0,0.0,0.0
3.19,0.14200000000000002,-0.012,0.954,-7.134,3.598,1.829,0.0,0.0,0.0,0.0,0.0,0.0,0.0,0.0
3.201,0.139,-0.013000000000000001,0.9495,-7.561,3.232,1.829,0.0,0.0,0.0,0.0,0.0,0.0,0.0,0.0
3.211,0.136,-0.014,0.945,-7.866,3.171,1.951,0.0,0.0,0.0,0.0,0.0,0.0,0.0,0.0
3.221,0.13,-0.011,0.951,-6.829,3.963,1.402,0.0,0.0,0.0,0.0,0.0,0.0,0.0,0.0
3.231,0.134,-0.012,0.952,-6.098,4.451,1.402,0.0,0.0,0.0,0.0,0.0,0.0,0.0,0.0
3.242,0.138,-0.0115,0.9595,-7.988,3.902,0.244,0.0,0.0,0.0,0.0,0.0,0.0,0.0,0.0
3.252,0.142,-0.011,0.967,-6.463,2.012,-0.732,0.0,0.0,0.0,0.0,0.0,0.0,0.0,0.0
3.261,0.147,-0.0155,0.9704999999999999,-4.085,1.159,-0.854,0.0,0.0,0.0,0.0,0.0,0.0,0.0,0.0
3.271,0.152,-0.02,0.974,-3.171,1.829,-0.854,0.0,0.0,0.0,0.0,0.0,0.0,0.0,0.0
3.281,0.148,-0.022,0.976,-0.854,1.829,-0.427,0.0,0.0,0.0,0.0,0.0,0.0,0.0,0.0
3.292,0.1465,-0.018,0.965,-1.89,1.037,-0.183,0.0,0.0,0.0,0.0,0.0,0.0,0.0,0.0
3.302,0.145,-0.014,0.954,-5.488,0.61,-0.427,0.0,0.0,0.0,0.0,0.0,0.0,0.0,0.0
3.312,0.142,-0.015,0.952,-7.195,1.89,-0.549,0.0,0.0,0.0,0.0,0.0,0.0,0.0,0.0
3.321,0.1405,-0.0175,0.951,-6.463,2.317,-0.488,0.0,0.0,0.0,0.0,0.0,0.0,0.0,0.0
3.331,0.139,-0.02,0.95,-7.561,1.402,-0.549,0.0,0.0,0.0,0.0,0.0,0.0,0.0,0.0
3.341,0.137,-0.02,0.95,-8.171,2.073,-0.305,0.0,0.0,0.0,0.0,0.0,0.0,0.0,0.0
3.352,0.136,-0.020999999999999998,0.9475,-8.171,2.378,-0.183,0.0,0.0,0.0,0.0,0.0,0.0,0.0,0.0
3.362,0.135,-0.022,0.945,-8.841,1.341,-0.366,0.0,0.0,0.0,0.0,0.0,0.0,0.0,0.0
3.372,0.136,-0.03,0.957,-7.5,1.037,-0.427,0.0,0.0,0.0,0.0,0.0,0.0,0.0,0.0
3.382,0.143,-0.034,0.954,-8.415,1.463,-0.366,0.0,0.0,0.0,0.0,0.0,0.0,0.0,0.0
3.391,0.142,-0.037500000000000006,0.9555,-7.927,0.915,-0.122,0.0,0.0,0.0,0.0,0.0,0.0,0.0,0.0
3.401,0.141,-0.041,0.957,-4.756,0.366,-0.305,0.0,0.0,0.0,0.0,0.0,0.0,0.0,0.0
3.412,0.137,-0.035,0.9515,-5.549,0.732,-0.549,0.0,0.0,0.0,0.0,0.0,0.0,0.0,0.0
3.422,0.133,-0.029,0.946,-7.5,1.037,-0.732,0.0,0.0,0.0,0.0,0.0,0.0,0.0,0.0
3.432,0.135,-0.031,0.955,-7.134,0.915,-0.915,0.0,0.0,0.0,0.0,0.0,0.0,0.0,0.0
3.442,0.134,-0.035,0.964,-4.512,0.427,-1.037,0.0,0.0,0.0,0.0,0.0,0.0,0.0,0.0
3.453,0.1355,-0.037250000000000005,0.966,-1.829,1.098,-1.037,0.0,0.0,0.0,0.0,0.0,0.0,0.0,0.0
3.461,0.137,-0.0395,0.968,-2.805,2.317,-0.854,0.0,0.0,0.0,0.0,0.0,0.0,0.0,0.0
3.472,0.1385,-0.041749999999999995,0.97,-5.244,3.476,-0.488,0.0,0.0,0.0,0.0,0.0,0.0,0.0,0.0
3.482,0.14,-0.044,0.972,-3.841,3.415,0.0,0.0,0.0,0.0,0.0,0.0,0.0,0.0,0.0
3.492,0.137,-0.043,0.967,-4.756,2.805,-0.122,0.0,0.0,0.0,0.0,0.0,0.0,0.0,0.0
3.502,0.142,-0.045,0.956,-5.244,1.89,-0.244,0.0,0.0,0.0,0.0,0.0,0.0,0.0,0.0
3.513,0.14,-0.0445,0.9524999999999999,-4.451,1.341,-0.244,0.0,0.0,0.0,0.0,0.0,0.0,0.0,0.0
3.523,0.138,-0.044,0.949,-5.061,1.28,-0.488,0.0,0.0,0.0,0.0,0.0,0.0,0.0,0.0
3.532,0.1335,-0.043,0.95,-4.573,1.402,-0.61,0.0,0.0,0.0,0.0,0.0,0.0,0.0,0.0
3.542,0.129,-0.042,0.951,-3.72,0.793,-0.549,0.0,0.0,0.0,0.0,0.0,0.0,0.0,0.0
3.552,0.135,-0.042,0.953,-4.512,0.0,-0.366,0.0,0.0,0.0,0.0,0.0,0.0,0.0,0.0
3.563,0.1375,-0.049,0.956,-4.756,0.427,-0.183,0.0,0.0,0.0,0.0,0.0,0.0,0.0,0.0
3.573,0.14,-0.056,0.959,-3.11,1.707,0.0,0.0,0.0,0.0,0.0,0.0,0.0,0.0,0.0
3.583,0.139,-0.05,0.957,-5.549,2.622,-0.732,0.0,0.0,0.0,0.0,0.0,0.0,0.0,0.0
3.592,0.135,-0.055,0.9635,-5.366,2.439,-0.732,0.0,0.0,0.0,0.0,0.0,0.0,0.0,0.0
3.602,0.131,-0.06,0.97,-2.622,2.012,-0.183,0.0,0.0,0.0,0.0,0.0,0.0,0.0,0.0
3.612,0.131,-0.055,0.962,-2.439,1.707,-0.488,0.0,0.0,0.0,0.0,0.0,0.0,0.0,0.0
3.623,0.1305,-0.051500000000000004,0.959,-2.805,1.159,-0.366,0.0,0.0,0.0,0.0,0.0,0.0,0.0,0.0
3.633,0.13,-0.048,0.956,-5.244,0.915,-0.427,0.0,0.0,0.0,0.0,0.0,0.0,0.0,0.0
3.643,0.13,-0.044,0.964,-6.463,1.28,-0.915,0.0,0.0,0.0,0.0,0.0,0.0,0.0,0.0
3.653,0.126,-0.049,0.97,-5.549,0.854,-1.341,0.0,0.0,0.0,0.0,0.0,0.0,0.0,0.0
3.662,0.1285,-0.0505,0.963,-9.512,-0.061,-1.28,0.0,0.0,0.0,0.0,0.0,0.0,0.0,0.0
3.672,0.131,-0.052,0.956,-15.122,-0.427,-1.341,0.0,0.0,0.0,0.0,0.0,0.0,0.0,0.0
3.683,0.134,-0.057999999999999996,0.963,-15.793,0.183,-1.524,0.0,0.0,0.0,0.0,0.0,0.0,0.0,0.0
3.693,0.137,-0.064,0.97,-16.22,1.402,-0.915,0.0,0.0,0.0,0.0,0.0,0.0,0.0,0.0
3.703,0.135,-0.064,0.962,-17.195,0.915,-0.854,0.0,0.0,0.0,0.0,0.0,0.0,0.0,0.0
3.713,0.13,-0.067,0.963,-15.122,0.427,-1.341,0.0,0.0,0.0,0.0,0.0,0.0,0.0,0.0
3.724,0.1345,-0.07075000000000001,0.9664999999999999,-14.39,0.854,-2.073,0.0,0.0,0.0,0.0,0.0,0.0,0.0,0.0
3.732,0.139,-0.07450000000000001,0.97,-13.72,0.366,-2.439,0.0,0.0,0.0,0.0,0.0,0.0,0.0,0.0
3.743,0.1435,-0.07825,0.9735,-12.561,0.732,-1.707,0.0,0.0,0.0,0.0,0.0,0.0,0.0,0.0
3.753,0.148,-0.082,0.977,-19.268,5.732,-0.122,0.0,0.0,0.0,0.0,0.0,0.0,0.0,0.0
3.763,0.155,-0.099,1.0,-14.451,5.732,1.463,0.0,0.0,0.0,0.0,0.0,0.0,0.0,0.0
3.773,0.138,-0.116,0.954,11.585,-2.927,2.622,0.0,0.0,0.0,0.0,0.0,0.0,0.0,0.0
3.784,0.133,-0.093,0.9435,15.183,-1.524,1.768,0.0,0.0,0.0,0.0,0.0,0.0,0.0,0.0
3.794,0.128,-0.07,0.933,6.524,3.659,-0.915,0.0,0.0,0.0,0.0,0.0,0.0,0.0,0.0
3.803,0.1265,-0.07050000000000001,0.9445,11.89,-0.061,-0.854,0.0,0.0,0.0,0.0,0.0,0.0,0.0,0.0
3.813,0.125,-0.071,0.956,13.232,-3.78,0.122,0.0,0.0,0.0,0.0,0.0,0.0,0.0,0.0
3.823,0.138,-0.071,0.949,9.329,-2.561,1.037,0.0,0.0,0.0,0.0,0.0,0.0,0.0,0.0
3.834,0.14400000000000002,-0.074,0.965,9.39,-1.28,2.195,0.0,0.0,0.0,0.0,0.0,0.0,0.0,0.0
3.844,0.15,-0.077,0.981,5.671,0.061,2.927,0.0,0.0,0.0,0.0,0.0,0.0,0.0,0.0
3.854,0.154,-0.078,0.992,3.902,1.28,3.659,0.0,0.0,0.0,0.0,0.0,0.0,0.0,0.0
3.863,0.154,-0.076,0.9875,6.402,2.256,4.146,0.0,0.0,0.0,0.0,0.0,0.0,0.0,0.0
3.873,0.154,-0.074,0.983,3.415,3.902,3.72,0.0,0.0,0.0,0.0,0.0,0.0,0.0,0.0
3.883,0.146,-0.065,0.971,-4.512,4.878,3.11,0.0,0.0,0.0,0.0,0.0,0.0,0.0,0.0
3.894,0.135,-0.0635,0.974,-6.341,5.183,3.841,0.0,0.0,0.0,0.0,0.0,0.0,0.0,0.0
3.904,0.124,-0.062,0.977,-7.927,5.854,3.72,0.0,0.0,0.0,0.0,0.0,0.0,0.0,0.0
3.914,0.118,-0.06,0.967,-7.866,6.28,3.293,0.0,0.0,0.0,0.0,0.0,0.0,0.0,0.0
3.924,0.116,-0.064,0.961,-0.549,5.0,2.988,0.0,0.0,0.0,0.0,0.0,0.0,0.0,0.0
3.933,0.1185,-0.063,0.951,6.28,4.146,1.951,0.0,0.0,0.0,0.0,0.0,0.0,0.0,0.0
3.943,0.121,-0.062,0.941,10.183,3.293,0.732,0.0,0.0,0.0,0.0,0.0,0.0,0.0,0.0
3.954,0.1235,-0.063,0.935,14.329,1.341,0.366,0.0,0.0,0.0,0.0,0.0,0.0,0.0,0.0
3.964,0.126,-0.064,0.929,12.744,1.707,-0.244,0.0,0.0,0.0,0.0,0.0,0.0,0.0,0.0
3.974,0.135,-0.062,0.94,8.78,2.988,-0.793,0.0,0.0,0.0,0.0,0.0,0.0,0.0,0.0
3.984,0.137,-0.061,0.956,6.402,1.89,-0.915,0.0,0.0,0.0,0.0,0.0,0.0,0.0,0.0
3.995,0.136,-0.0595,0.9575,2.195,0.122,-0.732,0.0,0.0,0.0,0.0,0.0,0.0,0.0,0.0
4.003,0.135,-0.057999999999999996,0.959,-1.098,-0.793,0.488,0.0,0.0,0.0,0.0,0.0,0.0,0.0,0.0
4.014,0.134,-0.0565,0.9604999999999999,-3.537,-0.244,0.732,0.0,0.0,0.0,0.0,0.0,0.0,0.0,0.0
4.024,0.133,-0.055,0.962,-3.171,0.793,0.671,0.0,0.0,0.0,0.0,0.0,0.0,0.0,0.0
4.034,0.132,-0.055,0.961,-6.159,3.049,0.366,0.0,0.0,0.0,0.0,0.0,0.0,0.0,0.0
4.044,0.127,-0.058,0.968,-7.744,3.72,0.549,0.0,0.0,0.0,0.0,0.0,0.0,0.0,0.0
4.055,0.1265,-0.0615,0.964,-6.768,2.683,1.159,0.0,0.0,0.0,0.0,0.0,0.0,0.0,0.0
4.065,0.126,-0.065,0.96,-4.39,2.744,1.159,0.0,0.0,0.0,0.0,0.0,0.0,0.0,0.0
4.074,0.1195,-0.061,0.942,5.854,-0.793,0.244,0.0,0.0,0.0,0.0,0.0,0.0,0.0,0.0
4.084,0.113,-0.057,0.924,12.439,-1.951,0.122,0.0,0.0,0.0,0.0,0.0,0.0,0.0,0.0
4.094,0.122,-0.043,0.938,-3.232,4.939,-1.524,0.0,0.0,0.0,0.0,0.0,0.0,0.0,0.0
4.105,0.1255,-0.057999999999999996,0.97,-17.927,6.037,-2.988,0.0,0.0,0.0,0.0,0.0,0.0,0.0,0.0
4.115,0.129,-0.073,1.002,-14.39,-0.183,-0.854,0.0,0.0,0.0,0.0,0.0,0.0,0.0,0.0
4.125,0.13,-0.098,0.979,-1.22,-3.78,0.305,0.0,0.0,0.0,0.0,0.0,0.0,0.0,0.0
4.134,0.128,-0.0755,0.9755,-1.28,3.049,1.037,0.0,0.0,0.0,0.0,0.0,0.0,0.0,0.0
4.144,0.126,-0.053,0.972,1.22,4.329,0.244,0.0,0.0,0.0,0.0,0.0,0.0,0.0,0.0
4.154,0.104,-0.059,0.95,11.463,-1.829,-0.549,0.0,0.0,0.0,0.0,0.0,0.0,0.0,0.0
4.165,0.1175,-0.063,0.946,5.549,0.549,-1.098,0.0,0.0,0.0,0.0,0.0,0.0,0.0,0.0
4.175,0.131,-0.067,0.942,0.671,3.171,-1.524,0.0,0.0,0.0,0.0,0.0,0.0,0.0,0.0
4.185,0.128,-0.075,0.958,-1.28,1.829,-1.098,0.0,0.0,0.0,0.0,0.0,0.0,0.0,0.0
4.195,0.133,-0.071,0.96,-4.756,-0.915,-1.159,0.0,0.0,0.0,0.0,0.0,0.0,0.0,0.0
4.204,0.133,-0.072,0.958,-5.0,-1.524,-1.524,0.0,0.0,0.0,0.0,0.0,0.0,0.0,0.0
4.214,0.133,-0.073,0.956,-3.049,-0.305,-1.463,0.0,0.0,0.0,0.0,0.0,0.0,0.0,0.0
4.225,0.13,-0.0725,0.9615,0.122,-0.122,-1.646,0.0,0.0,0.0,0.0,0.0,0.0,0.0,0.0
4.235,0.127,-0.072,0.967,1.341,-0.122,-2.012,0.0,0.0,0.0,0.0,0.0,0.0,0.0,0.0
4.245,0.126,-0.068,0.962,-0.61,-0.061,-2.012,0.0,0.0,0.0,0.0,0.0,0.0,0.0,0.0
4.255,0.125,-0.075,0.962,-0.549,-0.366,-1.28,0.0,0.0,0.0,0.0,0.0,0.0,0.0,0.0
4.266,0.126,-0.07225,0.961,0.366,-0.244,-0.427,0.0,0.0,0.0,0.0,0.0,0.0,0.0,0.0
4.274,0.127,-0.0695,0.96,-0.732,0.0,-0.305,0.0,0.0,0.0,0.0,0.0,0.0,0.0,0.0
4.285,0.128,-0.06675,0.959,-1.585,-0.183,-0.61,0.0,0.0,0.0,0.0,0.0,0.0,0.0,0.0
4.295,0.129,-0.064,0.958,-0.549,-0.488,-0.854,0.0,0.0,0.0,0.0,0.0,0.0,0.0,0.0
4.305,0.132,-0.071,0.959,0.305,-1.037,-0.671,0.0,0.0,0.0,0.0,0.0,0.0,0.0,0.0
4.315,0.13,-0.069,0.962,0.183,-1.159,-0.732,0.0,0.0,0.0,0.0,0.0,0.0,0.0,0.0
4.326,0.13,-0.0695,0.962,-1.402,-0.854,-0.976,0.0,0.0,0.0,0.0,0.0,0.0,0.0,0.0
4.336,0.13,-0.07,0.962,-2.378,-0.915,-0.854,0.0,0.0,0.0,0.0,0.0,0.0,0.0,0.0
4.345,0.1305,-0.07300000000000001,0.961,-1.951,-0.061,-0.488,0.0,0.0,0.0,0.0,0.0,0.0,0.0,0.0
4.355,0.131,-0.076,0.96,-1.341,0.61,-0.61,0.0,0.0,0.0,0.0,0.0,0.0,0.0,0.0
4.365,0.131,-0.073,0.963,-1.22,-0.427,-0.61,0.0,0.0,0.0,0.0,0.0,0.0,0.0,0.0
4.375,0.13,-0.073,0.963,-1.098,-0.915,-0.122,0.0,0.0,0.0,0.0,0.0,0.0,0.0,0.0
4.386,0.13,-0.0745,0.967,0.061,-0.244,0.122,0.0,0.0,0.0,0.0,0.0,0.0,0.0,0.0
4.396,0.13,-0.076,0.971,1.159,0.61,0.183,0.0,0.0,0.0,0.0,0.0,0.0,0.0,0.0
4.405,0.1275,-0.07150000000000001,0.964,0.793,0.244,-0.061,0.0,0.0,0.0,0.0,0.0,0.0,0.0,0.0
4.415,0.125,-0.067,0.957,0.183,0.122,0.244,0.0,0.0,0.0,0.0,0.0,0.0,0.0,0.0
4.425,0.132,-0.069,0.96,0.244,0.305,0.671,0.0,0.0,0.0,0.0,0.0,0.0,0.0,0.0
4.436,0.135,-0.07350000000000001,0.961,-0.244,0.61,0.793,0.0,0.0,0.0,0.0,0.0,0.0,0.0,0.0
4.446,0.138,-0.078,0.962,-0.793,0.915,0.671,0.0,0.0,0.0,0.0,0.0,0.0,0.0,0.0
4.456,0.135,-0.072,0.954,-2.744,-0.061,0.732,0.0,0.0,0.0,0.0,0.0,0.0,0.0,0.0
4.466,0.13,-0.072,0.951,-2.012,-1.159,0.793,0.0,0.0,0.0,0.0,0.0,0.0,0.0,0.0
4.475,0.131,-0.0725,0.9524999999999999,-3.171,-0.793,0.427,0.0,0.0,0.0,0.0,0.0,0.0,0.0,0.0
4.485,0.132,-0.073,0.954,-2.195,-0.122,0.366,0.0,0.0,0.0,0.0,0.0,0.0,0.0,0.0
4.496,0.135,-0.0735,0.9595,0.854,-0.427,0.427,0.0,0.0,0.0,0.0,0.0,0.0,0.0,0.0
4.506,0.138,-0.074,0.965,0.061,-1.341,-0.061,0.0,0.0,0.0,0.0,0.0,0.0,0.0,0.0
4.516,0.143,-0.072,0.967,-1.768,-1.037,0.061,0.0,0.0,0.0,0.0,0.0,0.0,0.0,0.0
4.526,0.142,-0.076,0.967,-0.305,0.061,0.549,0.0,0.0,0.0,0.0,0.0,0.0,0.0,0.0
4.537,0.1385,-0.07250000000000001,0.961,0.915,0.915,1.22,0.0,0.0,0.0,0.0,0.0,0.0,0.0,0.0
4.545,0.135,-0.069,0.955,-0.366,0.61,1.28,0.0,0.0,0.0,0.0,0.0,0.0,0.0,0.0
4.556,0.131,-0.0675,0.9544999999999999,-3.841,-0.671,0.732,0.0,0.0,0.0,0.0,0.0,0.0,0.0,0.0
4.566,0.127,-0.066,0.954,-5.122,-1.28,0.671,0.0,0.0,0.0,0.0,0.0,0.0,0.0,0.0
4.576,0.128,-0.073,0.96,-3.476,-0.244,0.793,0.0,0.0,0.0,0.0,0.0,0.0,0.0,0.0
4.586,0.131,-0.073,0.965,-1.402,1.402,0.671,0.0,0.0,0.0,0.0,0.0,0.0,0.0,0.0
4.597,0.132,-0.07150000000000001,0.9644999999999999,1.463,1.585,0.793,0.0,0.0,0.0,0.0,0.0,0.0,0.0,0.0
4.607,0.133,-0.07,0.964,2.134,0.488,0.732,0.0,0.0,0.0,0.0,0.0,0.0,0.0,0.0
4.616,0.136,-0.07300000000000001,0.9635,1.341,-0.183,0.61,0.0,0.0,0.0,0.0,0.0,0.0,0.0,0.0
4.626,0.139,-0.076,0.963,1.28,0.305,0.854,0.0,0.0,0.0,0.0,0.0,0.0,0.0,0.0
4.636,0.141,-0.075,0.964,1.22,1.159,0.976,0.0,0.0,0.0,0.0,0.0,0.0,0.0,0.0
4.646,0.141,-0.07,0.967,0.305,0.976,0.671,0.0,0.0,0.0,0.0,0.0,0.0,0.0,0.0
4.657,0.1385,-0.0685,0.964,-2.988,0.183,0.183,0.0,0.0,0.0,0.0,0.0,0.0,0.0,0.0
4.667,0.136,-0.067,0.961,-3.902,0.183,0.122,0.0,0.0,0.0,0.0,0.0,0.0,0.0,0.0
4.676,0.137,-0.0695,0.962,-1.037,1.098,0.61,0.0,0.0,0.0,0.0,0.0,0.0,0.0,0.0
4.686,0.138,-0.072,0.963,0.244,2.134,0.854,0.0,0.0,0.0,0.0,0.0,0.0,0.0,0.0
4.696,0.132,-0.067,0.96,-0.732,2.012,0.61,0.0,0.0,0.0,0.0,0.0,0.0,0.0,0.0
4.707,0.132,-0.0695,0.9544999999999999,-4.268,0.915,0.244,0.0,0.0,0.0,0.0,0.0,0.0,0.0,0.0
4.717,0.132,-0.072,0.949,-4.329,0.427,0.366,0.0,0.0,0.0,0.0,0.0,0.0,0.0,0.0
4.727,0.136,-0.08,0.956,-3.293,0.671,0.427,0.0,0.0,0.0,0.0,0.0,0.0,0.0,0.0
4.737,0.138,-0.08,0.956,-2.622,0.732,0.549,0.0,0.0,0.0,0.0,0.0,0.0,0.0,0.0
4.746,0.14,-0.079,0.9584999999999999,-0.671,0.732,0.61,0.0,0.0,0.0,0.0,0.0,0.0,0.0,0.0
4.756,0.142,-0.078,0.961,1.098,0.915,0.549,0.0,0.0,0.0,0.0,0.0,0.0,0.0,0.0
4.767,0.14,-0.077,0.96,3.11,0.915,0.793,0.0,0.0,0.0,0.0,0.0,0.0,0.0,0.0
4.777,0.138,-0.076,0.959,1.585,0.732,0.61,0.0,0.0,0.0,0.0,0.0,0.0,0.0,0.0
4.787,0.135,-0.073,0.96,1.037,1.28,0.366,0.0,0.0,0.0,0.0,0.0,0.0,0.0,0.0
4.797,0.13,-0.07,0.958,1.22,1.524,0.305,0.0,0.0,0.0,0.0,0.0,0.0,0.0,0.0
4.808,0.13125,-0.07100000000000001,0.9584999999999999,-1.159,0.854,-0.061,0.0,0.0,0.0,0.0,0.0,0.0,0.0,0.0
4.816,0.1325,-0.07200000000000001,0.959,-1.707,0.0,-0.366,0.0,0.0,0.0,0.0,0.0,0.0,0.0,0.0
4.827,0.13375,-0.073,0.9595,0.732,-0.427,-0.122,0.0,0.0,0.0,0.0,0.0,0.0,0.0,0.0
4.837,0.135,-0.074,0.96,1.951,-0.61,-0.183,0.0,0.0,0.0,0.0,0.0,0.0,0.0,0.0
4.847,0.137,-0.074,0.963,0.976,-0.427,0.0,0.0,0.0,0.0,0.0,0.0,0.0,0.0,0.0
4.857,0.141,-0.073,0.964,-0.183,0.549,0.183,0.0,0.0,0.0,0.0,0.0,0.0,0.0,0.0
4.868,0.14049999999999999,-0.07225,0.96475,-0.671,1.524,0.305,0.0,0.0,0.0,0.0,0.0,0.0,0.0,0.0
4.876,0.14,-0.07150000000000001,0.9655,-1.159,1.646,0.549,0.0,0.0,0.0,0.0,0.0,0.0,0.0,0.0
4.887,0.1395,-0.07075000000000001,0.9662499999999999,-1.89,0.976,0.305,0.0,0.0,0.0,0.0,0.0,0.0,0.0,0.0
4.897,0.139,-0.07,0.967,-2.317,0.122,-0.183,0.0,0.0,0.0,0.0,0.0,0.0,0.0,0.0
4.907,0.139,-0.072,0.96,-2.927,0.0,-0.305,0.0,0.0,0.0,0.0,0.0,0.0,0.0,0.0
4.917,0.137,-0.076,0.961,-1.463,0.366,0.061,0.0,0.0,0.0,0.0,0.0,0.0,0.0,0.0
4.928,0.1365,-0.074,0.961,0.244,0.61,-0.305,0.0,0.0,0.0,0.0,0.0,0.0,0.0,0.0
4.938,0.136,-0.072,0.961,-0.183,0.549,-0.549,0.0,0.0,0.0,0.0,0.0,0.0,0.0,0.0
4.947,0.1345,-0.074,0.9584999999999999,0.549,0.854,-0.061,0.0,0.0,0.0,0.0,0.0,0.0,0.0,0.0
4.957,0.133,-0.076,0.956,2.073,1.524,0.305,0.0,0.0,0.0,0.0,0.0,0.0,0.0,0.0
4.967,0.134,-0.074,0.949,2.195,1.707,0.305,0.0,0.0,0.0,0.0,0.0,0.0,0.0,0.0
4.978,0.135,-0.07150000000000001,0.9495,1.768,0.366,-0.061,0.0,0.0,0.0,0.0,0.0,0.0,0.0,0.0
4.988,0.136,-0.069,0.95,-1.951,-1.585,-0.549,0.0,0.0,0.0,0.0,0.0,0.0,0.0,0.0
4.998,0.135,-0.074,0.957,-1.159,-1.28,-0.244,0.0,0.0,0.0,0.0,0.0,0.0,0.0,0.0
5.008,0.136,-0.078,0.958,0.61,-0.183,-0.244,0.0,0.0,0.0,0.0,0.0,0.0,0.0,0.0
5.017,0.136,-0.077,0.959,-0.549,-0.305,-0.366,0.0,0.0,0.0,0.0,0.0,0.0,0.0,0.0
5.027,0.136,-0.076,0.96,-0.244,-0.61,-0.122,0.0,0.0,0.0,0.0,0.0,0.0,0.0,0.0
5.038,0.135,-0.075,0.9604999999999999,0.671,-0.122,0.0,0.0,0.0,0.0,0.0,0.0,0.0,0.0,0.0
5.048,0.134,-0.074,0.961,0.61,-0.549,0.183,0.0,0.0,0.0,0.0,0.0,0.0,0.0,0.0
5.058,0.136,-0.076,0.962,1.037,-0.793,0.183,0.0,0.0,0.0,0.0,0.0,0.0,0.0,0.0
5.068,0.134,-0.076,0.962,1.768,-0.061,-0.244,0.0,0.0,0.0,0.0,0.0,0.0,0.0,0.0
5.077,0.1345,-0.075,0.9635,2.073,-0.366,-0.183,0.0,0.0,0.0,0.0,0.0,0.0,0.0,0.0
5.087,0.135,-0.074,0.965,3.049,-0.244,0.0,0.0,0.0,0.0,0.0,0.0,0.0,0.0,0.0
5.098,0.137,-0.073,0.9595,3.171,1.098,-0.122,0.0,0.0,0.0,0.0,0.0,0.0,0.0,0.0
5.108,0.139,-0.072,0.954,0.305,1.28,-0.976,0.0,0.0,0.0,0.0,0.0,0.0,0.0,0.0
5.118,0.136,-0.074,0.954,-1.037,0.671,-1.159,0.0,0.0,0.0,0.0,0.0,0.0,0.0,0.0
5.128,0.131,-0.079,0.958,0.122,0.244,-0.732,0.0,0.0,0.0,0.0,0.0,0.0,0.0,0.0
5.139,0.13375,-0.07925,0.9592499999999999,-1.22,-0.122,-1.037,0.0,0.0,0.0,0.0,0.0,0.0,0.0,0.0
5.147,0.1365,-0.0795,0.9604999999999999,-1.585,-0.061,-0.915,0.0,0.0,0.0,0.0,0.0,0.0,0.0,0.0
5.158,0.13924999999999998,-0.07975,0.96175,-0.061,0.061,-0.366,0.0,0.0,0.0,0.0,0.0,0.0,0.0,0.0
5.168,0.142,-0.08,0.963,0.61,0.244,-0.061,0.0,0.0,0.0,0.0,0.0,0.0,0.0,0.0
5.178,0.143,-0.08,0.974,0.854,0.976,0.0,0.0,0.0,0.0,0.0,0.0,0.0,0.0,0.0
5.188,0.144,-0.076,0.973,-1.463,1.341,-0.61,0.0,0.0,0.0,0.0,0.0,0.0,0.0,0.0
5.199,0.14,-0.078,0.965,-3.049,0.976,-0.305,0.0,0.0,0.0,0.0,0.0,0.0,0.0,0.0
5.209,0.136,-0.08,0.957,-0.854,1.463,0.183,0.0,0.0,0.0,0.0,0.0,0.0,0.0,0.0
5.218,0.1315,-0.0765,0.953,0.488,1.829,0.244,0.0,0.0,0.0,0.0,0.0,0.0,0.0,0.0
5.228,0.127,-0.073,0.949,0.183,0.488,0.427,0.0,0.0,0.0,0.0,0.0,0.0,0.0,0.0
5.238,0.127,-0.068,0.949,0.549,0.366,0.549,0.0,0.0,0.0,0.0,0.0,0.0,0.0,0.0
5.249,0.131,-0.07100000000000001,0.95,1.463,1.037,0.122,0.0,0.0,0.0,0.0,0.0,0.0,0.0,0.0
5.259,0.135,-0.074,0.951,0.854,0.366,-0.244,0.0,0.0,0.0,0.0,0.0,0.0,0.0,0.0
5.269,0.139,-0.073,0.956,0.122,0.427,-0.671,0.0,0.0,0.0,0.0,0.0,0.0,0.0,0.0
5.279,0.141,-0.079,0.959,1.463,0.854,-0.732,0.0,0.0,0.0,0.0,0.0,0.0,0.0,0.0
5.288,0.1415,-0.079,0.9584999999999999,2.439,0.061,-0.305,0.0,0.0,0.0,0.0,0.0,0.0,0.0,0.0
5.298,0.142,-0.079,0.958,2.195,-0.305,-0.183,0.0,0.0,0.0,0.0,0.0,0.0,0.0,0.0
5.309,0.1405,-0.0775,0.9595,0.915,-0.122,-0.366,0.0,0.0,0.0,0.0,0.0,0.0,0.0,0.0
5.319,0.139,-0.076,0.961,-0.854,0.122,-0.244,0.0,0.0,0.0,0.0,0.0,0.0,0.0,0.0
5.329,0.134,-0.076,0.963,0.061,-0.854,0.244,0.0,0.0,0.0,0.0,0.0,0.0,0.0,0.0
5.339,0.132,-0.075,0.963,-0.122,-1.037,0.671,0.0,0.0,0.0,0.0,0.0,0.0,0.0,0.0
5.348,0.1315,-0.073,0.9595,-2.195,-0.488,0.366,0.0,0.0,0.0,0.0,0.0,0.0,0.0,0.0
5.358,0.131,-0.071,0.956,-1.768,-0.366,0.549,0.0,0.0,0.0,0.0,0.0,0.0,0.0,0.0
5.369,0.132,-0.0725,0.9564999999999999,-0.366,-0.488,0.61,0.0,0.0,0.0,0.0,0.0,0.0,0.0,0.0
5.379,0.133,-0.074,0.957,0.671,-0.549,0.488,0.0,0.0,0.0,0.0,0.0,0.0,0.0,0.0
5.389,0.134,-0.077,0.953,1.707,0.244,0.427,0.0,0.0,0.0,0.0,0.0,0.0,0.0,0.0
5.399,0.135,-0.081,0.958,3.171,0.793,0.366,0.0,0.0,0.0,0.0,0.0,0.0,0.0,0.0
5.41,0.135,-0.079,0.9572499999999999,4.207,-0.061,0.244,0.0,0.0,0.0,0.0,0.0,0.0,0.0,0.0
5.418,0.135,-0.077,0.9564999999999999,2.683,-1.402,0.244,0.0,0.0,0.0,0.0,0.0,0.0,0.0,0.0
5.429,0.135,-0.075,0.95575,-0.793,-1.585,-0.061,0.0,0.0,0.0,0.0,0.0,0.0,0.0,0.0
5.439,0.135,-0.073,0.955,-1.768,-0.976,-0.305,0.0,0.0,0.0,0.0,0.0,0.0,0.0,0.0
5.449,0.135,-0.074,0.951,-2.073,-0.976,-0.427,0.0,0.0,0.0,0.0,0.0,0.0,0.0,0.0
5.459,0.129,-0.071,0.954,-1.707,-0.732,-0.244,0.0,0.0,0.0,0.0,0.0,0.0,0.0,0.0
5.47,0.13,-0.071,0.9564999999999999,-1.098,0.244,-0.122,0.0,0.0,0.0,0.0,0.0,0.0,0.0,0.0
5.48,0.131,-0.071,0.959,-2.5,0.0,-0.122,0.0,0.0,0.0,0.0,0.0,0.0,0.0,0.0
5.489,0.133,-0.0735,0.9584999999999999,-3.476,-0.854,-0.122,0.0,0.0,0.0,0.0,0.0,0.0,0.0,0.0
5.499,0.135,-0.076,0.958,-6.463,-0.671,-0.732,0.0,0.0,0.0,0.0,0.0,0.0,0.0,0.0
5.509,0.135,-0.074,0.958,-10.305,-0.427,-1.28,0.0,0.0,0.0,0.0,0.0,0.0,0.0,0.0
5.52,0.135,-0.0765,0.961,-12.378,-0.122,-1.646,0.0,0.0,0.0,0.0,0.0,0.0,0.0,0.0
5.53,0.135,-0.079,0.964,-16.89,-0.854,-2.317,0.0,0.0,0.0,0.0,0.0,0.0,0.0,0.0
5.54,0.144,-0.093,0.961,-16.341,-2.134,-2.256,0.0,0.0,0.0,0.0,0.0,0.0,0.0,0.0
5.549,0.14150000000000001,-0.094,0.9664999999999999,-13.415,-0.976,-2.195,0.0,0.0,0.0,0.0,0.0,0.0,0.0,0.0
5.559,0.139,-0.095,0.972,-13.293,-0.549,-2.378,0.0,0.0,0.0,0.0,0.0,0.0,0.0,0.0
5.569,0.133,-0.096,0.966,-10.366,-0.305,-2.256,0.0,0.0,0.0,0.0,0.0,0.0,0.0,0.0
5.58,0.129,-0.0965,0.9624999999999999,-7.195,1.646,-2.134,0.0,0.0,0.0,0.0,0.0,0.0,0.0,0.0
5.59,0.125,-0.097,0.959,-5.61,1.951,-1.89,0.0,0.0,0.0,0.0,0.0,0.0,0.0,0.0
5.6,0.125,-0.094,0.958,-8.598,-0.061,-2.256,0.0,0.0,0.0,0.0,0.0,0.0,0.0,0.0
5.61,0.126,-0.09,0.954,-13.171,-1.768,-2.256,0.0,0.0,0.0,0.0,0.0,0.0,0.0,0.0
5.619,0.1335,-0.0995,0.9584999999999999,-11.829,-1.098,-2.256,0.0,0.0,0.0,0.0,0.0,0.0,0.0,0.0
5.629,0.141,-0.109,0.963,-8.598,0.122,-2.439,0.0,0.0,0.0,0.0,0.0,0.0,0.0,0.0
5.64,0.1395,-0.111,0.963,-7.073,0.183,-2.134,0.0,0.0,0.0,0.0,0.0,0.0,0.0,0.0
5.65,0.138,-0.113,0.963,-6.646,-0.183,-2.012,0.0,0.0,0.0,0.0,0.0,0.0,0.0,0.0
5.66,0.14,-0.113,0.954,-8.11,-0.244,-2.622,0.0,0.0,0.0,0.0,0.0,0.0,0.0,0.0
5.67,0.14,-0.116,0.954,-7.622,-0.61,-2.561,0.0,0.0,0.0,0.0,0.0,0.0,0.0,0.0
5.681,0.1375,-0.1145,0.9555,-5.915,-0.061,-2.134,0.0,0.0,0.0,0.0,0.0,0.0,0.0,0.0
5.689,0.135,-0.113,0.957,-4.329,0.61,-1.707,0.0,0.0,0.0,0.0,0.0,0.0,0.0,0.0
5.7,0.1325,-0.1115,0.9584999999999999,-1.89,0.976,-1.098,0.0,0.0,0.0,0.0,0.0,0.0,0.0,0.0
5.71,0.13,-0.11,0.96,-1.829,1.585,-1.098,0.0,0.0,0.0,0.0,0.0,0.0,0.0,0.0
5.72,0.134,-0.113,0.957,-2.683,1.159,-1.22,0.0,0.0,0.0,0.0,0.0,0.0,0.0,0.0
5.73,0.131,-0.115,0.958,-1.22,0.549,-0.976,0.0,0.0,0.0,0.0,0.0,0.0,0.0,0.0
5.741,0.1315,-0.1155,0.959,-1.098,0.671,-1.28,0.0,0.0,0.0,0.0,0.0,0.0,0.0,0.0
5.751,0.132,-0.116,0.96,-1.402,0.671,-1.037,0.0,0.0,0.0,0.0,0.0,0.0,0.0,0.0
5.76,0.134,-0.122,0.956,-2.012,1.22,-1.098,0.0,0.0,0.0,0.0,0.0,0.0,0.0,0.0
5.77,0.133,-0.123,0.951,-1.646,1.951,-0.793,0.0,0.0,0.0,0.0,0.0,0.0,0.0,0.0
5.78,0.126,-0.124,0.952,0.061,1.951,-0.549,0.0,0.0,0.0,0.0,0.0,0.0,0.0,0.0
5.791,0.124,-0.1215,0.9484999999999999,-1.707,1.829,-1.585,0.0,0.0,0.0,0.0,0.0,0.0,0.0,0.0
5.801,0.122,-0.119,0.945,-2.256,1.89,-1.89,0.0,0.0,0.0,0.0,0.0,0.0,0.0,0.0
5.811,0.119,-0.121,0.956,-0.732,2.256,-1.829,0.0,0.0,0.0,0.0,0.0,0.0,0.0,0.0
5.82,0.124,-0.124,0.966,1.707,2.805,-1.768,0.0,0.0,0.0,0.0,0.0,0.0,0.0,0.0
5.83,0.129,-0.127,0.976,3.476,3.11,-1.585,0.0,0.0,0.0,0.0,0.0,0.0,0.0,0.0
5.84,0.131,-0.127,0.979,3.11,2.073,-1.524,0.0,0.0,0.0,0.0,0.0,0.0,0.0,0.0
5.851,0.128,-0.126,0.972,1.159,1.768,-1.463,0.0,0.0,0.0,0.0,0.0,0.0,0.0,0.0
5.861,0.125,-0.125,0.965,-1.585,2.622,-1.585,0.0,0.0,0.0,0.0,0.0,0.0,0.0,0.0
5.871,0.122,-0.124,0.963,-2.317,2.744,-1.098,0.0,0.0,0.0,0.0,0.0,0.0,0.0,0.0
5.881,0.119,-0.126,0.963,-1.829,2.317,-0.061,0.0,0.0,0.0,0.0,0.0,0.0,0.0,0.0
5.89,0.1185,-0.128,0.962,-1.951,1.402,-0.366,0.0,0.0,0.0,0.0,0.0,0.0,0.0,0.0
5.9,0.118,-0.13,0.961,-2.622,2.561,-0.732,0.0,0.0,0.0,0.0,0.0,0.0,0.0,0.0
5.911,0.11299999999999999,-0.126,0.966,-2.683,2.744,-1.098,0.0,0.0,0.0,0.0,0.0,0.0,0.0,0.0
5.921,0.108,-0.122,0.971,-3.293,2.683,-2.012,0.0,0.0,0.0,0.0,0.0,0.0,0.0,0.0
5.931,0.112,-0.132,0.967,0.671,0.366,-1.037,0.0,0.0,0.0,0.0,0.0,0.0,0.0,0.0
5.941,0.112,-0.134,0.961,-0.427,1.768,-1.341,0.0,0.0,0.0,0.0,0.0,0.0,0.0,0.0
5.952,0.11375,-0.13375,0.96,-2.134,2.866,-1.829,0.0,0.0,0.0,0.0,0.0,0.0,0.0,0.0
5.96,0.11549999999999999,-0.1335,0.959,-2.866,2.439,-0.793,0.0,0.0,0.0,0.0,0.0,0.0,0.0,0.0
5.971,0.11725,-0.13325,0.958,-3.841,2.012,-0.366,0.0,0.0,0.0,0.0,0.0,0.0,0.0,0.0
5.981,0.119,-0.133,0.957,-5.488,1.768,-1.098,0.0,0.0,0.0,0.0,0.0,0.0,0.0,0.0
5.991,0.125,-0.138,0.96,-4.756,0.915,-1.829,0.0,0.0,0.0,0.0,0.0,0.0,0.0,0.0
6.001,0.124,-0.142,0.958,-6.159,1.159,-2.073,0.0,0.0,0.0,0.0,0.0,0.0,0.0,0.0
6.012,0.1245,-0.143,0.955,-5.976,0.366,-1.646,0.0,0.0,0.0,0.0,0.0,0.0,0.0,0.0
6.022,0.125,-0.144,0.952,-5.976,-0.671,-0.976,0.0,0.0,0.0,0.0,0.0,0.0,0.0,0.0
6.031,0.132,-0.1475,0.9484999999999999,-5.549,-0.61,-0.305,0.0,0.0,0.0,0.0,0.0,0.0,0.0,0.0
6.041,0.139,-0.151,0.945,-5.793,0.61,-0.915,0.0,0.0,0.0,0.0,0.0,0.0,0.0,0.0
6.051,0.141,-0.152,0.936,-6.341,-0.976,-1.28,0.0,0.0,0.0,0.0,0.0,0.0,0.0,0.0
6.062,0.1395,-0.1495,0.9305000000000001,-6.037,-2.744,-0.122,0.0,0.0,0.0,0.0,0.0,0.0,0.0,0.0
6.072,0.138,-0.147,0.925,-6.098,-2.073,0.061,0.0,0.0,0.0,0.0,0.0,0.0,0.0,0.0
6.082,0.141,-0.149,0.928,-6.463,-1.585,0.0,0.0,0.0,0.0,0.0,0.0,0.0,0.0,0.0
6.091,0.142,-0.14300000000000002,0.9335,-5.427,-1.951,0.366,0.0,0.0,0.0,0.0,0.0,0.0,0.0,0.0
6.101,0.143,-0.137,0.939,-3.78,-2.683,0.0,0.0,0.0,0.0,0.0,0.0,0.0,0.0,0.0
6.111,0.141,-0.13,0.931,-3.232,-4.207,-0.183,0.0,0.0,0.0,0.0,0.0,0.0,0.0,0.0
6.122,0.14,-0.126,0.9375,-3.293,-6.098,0.061,0.0,0.0,0.0,0.0,0.0,0.0,0.0,0.0
6.132,0.139,-0.122,0.944,-2.683,-6.22,0.244,0.0,0.0,0.0,0.0,0.0,0.0,0.0,0.0
6.142,0.146,-0.118,0.944,-2.927,-5.366,0.671,0.0,0.0,0.0,0.0,0.0,0.0,0.0,0.0
6.152,0.152,-0.118,0.949,-3.293,-3.841,3.049,0.0,0.0,0.0,0.0,0.0,0.0,0.0,0.0
6.161,0.155,-0.11699999999999999,0.9405,-1.341,-1.098,5.488,0.0,0.0,0.0,0.0,0.0,0.0,0.0,0.0
6.171,0.158,-0.116,0.932,-2.256,0.549,3.598,0.0,0.0,0.0,0.0,0.0,0.0,0.0,0.0
6.182,0.156,-0.10300000000000001,0.918,-2.195,-3.049,4.451,0.0,0.0,0.0,0.0,0.0,0.0,0.0,0.0
6.192,0.154,-0.09,0.904,-4.817,-3.659,4.024,0.0,0.0,0.0,0.0,0.0,0.0,0.0,0.0
6.202,0.158,-0.103,0.889,-0.671,-4.207,4.329,0.0,0.0,0.0,0.0,0.0,0.0,0.0,0.0
6.212,0.153,-0.101,0.884,1.098,-6.098,3.78,0.0,0.0,0.0,0.0,0.0,0.0,0.0,0.0
6.223,0.1565,-0.09475,0.918,-2.195,-8.78,1.524,0.0,0.0,0.0,0.0,0.0,0.0,0.0,0.0
6.231,0.16,-0.0885,0.952,-0.793,-14.329,-0.732,0.0,0.0,0.0,0.0,0.0,0.0,0.0,0.0
6.242,0.1635,-0.08225,0.986,2.5,-19.573,-3.049,0.0,0.0,0.0,0.0,0.0,0.0,0.0,0.0
6.252,0.167,-0.076,1.02,9.512,-23.232,-3.902,0.0,0.0,0.0,0.0,0.0,0.0,0.0,0.0
6.262,0.176,-0.065,1.045,11.341,-21.707,-4.695,0.0,0.0,0.0,0.0,0.0,0.0,0.0,0.0
6.272,0.171,-0.061,1.06,11.037,-19.39,-4.939,0.0,0.0,0.0,0.0,0.0,0.0,0.0,0.0
6.283,0.168,-0.06233333333333333,1.0433333333333334,10.793,-14.939,-3.598,0.0,0.0,0.0,0.0,0.0,0.0,0.0,0.0
6.292,0.165,-0.06366666666666666,1.0266666666666666,8.415,-7.744,-2.012,0.0,0.0,0.0,0.0,0.0,0.0,0.0,0.0
6.302,0.162,-0.065,1.01,6.829,-3.841,0.0,0.0,0.0,0.0,0.0,0.0,0.0,0.0,0.0
6.312,0.139,-0.061,0.96,4.024,-3.415,1.159,0.0,0.0,0.0,0.0,0.0,0.0,0.0,0.0
6.322,0.121,-0.06,0.922,0.305,-4.39,1.22,0.0,0.0,0.0,0.0,0.0,0.0,0.0,0.0
6.333,0.1095,-0.0695,0.918,-1.951,-5.793,0.976,0.0,0.0,0.0,0.0,0.0,0.0,0.0,0.0
6.343,0.098,-0.079,0.914,-5.061,-5.854,0.061,0.0,0.0,0.0,0.0,0.0,0.0,0.0,0.0
6.353,0.104,-0.099,0.938,-7.439,-5.305,-0.549,0.0,0.0,0.0,0.0,0.0,0.0,0.0,0.0
6.362,0.11199999999999999,-0.12,0.965,-7.439,-5.183,-0.732,0.0,0.0,0.0,0.0,0.0,0.0,0.0,0.0
6.372,0.12,-0.141,0.992,-7.073,-4.329,-0.732,0.0,0.0,0.0,0.0,0.0,0.0,0.0,0.0
6.382,0.131,-0.141,1.003,-6.463,-4.634,-1.159,0.0,0.0,0.0,0.0,0.0,0.0,0.0,0.0
6.393,0.129,-0.155,1.0015,-4.024,-6.037,0.122,0.0,0.0,0.0,0.0,0.0,0.0,0.0,0.0
6.403,0.127,-0.169,1.0,-2.744,-3.049,0.976,0.0,0.0,0.0,0.0,0.0,0.0,0.0,0.0
6.413,0.142,-0.171,0.99,0.122,-1.402,1.89,0.0,0.0,0.0,0.0,0.0,0.0,0.0,0.0
6.423,0.138,-0.173,0.973,2.256,-1.098,3.171,0.0,0.0,0.0,0.0,0.0,0.0,0.0,0.0
6.432,0.1385,-0.16199999999999998,0.952,2.012,-0.122,4.878,0.0,0.0,0.0,0.0,0.0,0.0,0.0,0.0
6.442,0.139,-0.151,0.931,0.305,0.61,6.037,0.0,0.0,0.0,0.0,0.0,0.0,0.0,0.0
6.453,0.133,-0.14250000000000002,0.923,-1.524,-0.671,5.183,0.0,0.0,0.0,0.0,0.0,0.0,0.0,0.0
6.463,0.127,-0.134,0.915,-3.11,-1.768,4.512,0.0,0.0,0.0,0.0,0.0,0.0,0.0,0.0
6.473,0.125,-0.126,0.915,-4.024,-1.463,4.146,0.0,0.0,0.0,0.0,0.0,0.0,0.0,0.0
6.483,0.122,-0.113,0.919,-4.268,-0.732,4.024,0.0,0.0,0.0,0.0,0.0,0.0,0.0,0.0
6.494,0.11649999999999999,-0.1015,0.919,-3.354,-0.244,3.476,0.0,0.0,0.0,0.0,0.0,0.0,0.0,0.0
6.502,0.111,-0.09,0.919,-3.78,0.183,2.866,0.0,0.0,0.0,0.0,0.0,0.0,0.0,0.0
6.513,0.1075,-0.0895,0.9195,-3.11,0.244,2.256,0.0,0.0,0.0,0.0,0.0,0.0,0.0,0.0
6.523,0.104,-0.089,0.92,-2.134,0.183,1.22,0.0,0.0,0.0,0.0,0.0,0.0,0.0,0.0
6.533,0.099,-0.087,0.918,-0.122,-1.098,0.671,0.0,0.0,0.0,0.0,0.0,0.0,0.0,0.0
6.543,0.102,-0.087,0.921,2.256,-1.585,-1.463,0.0,0.0,0.0,0.0,0.0,0.0,0.0,0.0
6.554,0.10099999999999999,-0.08499999999999999,0.9226666666666667,2.988,-0.244,-2.5,0.0,0.0,0.0,0.0,0.0,0.0,0.0,0.0
6.563,0.1,-0.083,0.9243333333333333,3.171,-3.049,-1.524,0.0,0.0,0.0,0.0,0.0,0.0,0.0,0.0
6.573,0.099,-0.081,0.926,1.829,-3.72,-2.439,0.0,0.0,0.0,0.0,0.0,0.0,0.0,0.0
6.583,0.107,-0.084,0.932,-0.122,-3.293,-3.293,0.0,0.0,0.0,0.0,0.0,0.0,0.0,0.0
6.593,0.107,-0.087,0.936,-0.976,-4.512,-3.354,0.0,0.0,0.0,0.0,0.0,0.0,0.0,0.0
6.604,0.1085,-0.092,0.9470000000000001,-1.707,-4.817,-3.598,0.0,0.0,0.0,0.0,0.0,0.0,0.0,0.0
6.614,0.11,-0.097,0.958,-2.134,-4.817,-3.049,0.0,0.0,0.0,0.0,0.0,0.0,0.0,0.0
6.624,0.11,-0.104,0.963,-2.439,-4.451,-2.195,0.0,0.0,0.0,0.0,0.0,0.0,0.0,0.0
6.633,0.1105,-0.11099999999999999,0.9595,-2.744,-3.902,-1.341,0.0,0.0,0.0,0.0,0.0,0.0,0.0,0.0
6.643,0.111,-0.118,0.956,-2.988,-2.988,-0.488,0.0,0.0,0.0,0.0,0.0,0.0,0.0,0.0
6.653,0.103,-0.123,0.953,-3.171,-1.646,0.488,0.0,0.0,0.0,0.0,0.0,0.0,0.0,0.0
6.664,0.106,-0.133,0.946,-3.11,-0.671,1.341,0.0,0.0,0.0,0.0,0.0,0.0,0.0,0.0
6.674,0.109,-0.143,0.939,-2.866,-0.183,2.5,0.0,0.0,0.0,0.0,0.0,0.0,0.0,0.0
6.684,0.109,-0.151,0.942,-3.171,0.854,3.537,0.0,0.0,0.0,0.0,0.0,0.0,0.0,0.0
6.694,0.114,-0.159,0.94,-2.988,0.915,4.207,0.0,0.0,0.0,0.0,0.0,0.0,0.0,0.0
6.703,0.1155,-0.1575,0.9424999999999999,-2.012,-0.244,4.756,0.0,0.0,0.0,0.0,0.0,0.0,0.0,0.0
6.713,0.117,-0.156,0.945,0.0,-1.037,4.695,0.0,0.0,0.0,0.0,0.0,0.0,0.0,0.0
6.724,0.116,-0.1485,0.9524999999999999,2.012,-1.463,4.085,0.0,0.0,0.0,0.0,0.0,0.0,0.0,0.0
6.734,0.115,-0.141,0.96,4.207,-1.646,3.476,0.0,0.0,0.0,0.0,0.0,0.0,0.0,0.0
6.744,0.106,-0.126,0.971,5.061,-0.793,2.927,0.0,0.0,0.0,0.0,0.0,0.0,0.0,0.0
6.754,0.101,-0.113,0.976,4.878,-0.183,2.378,0.0,0.0,0.0,0.0,0.0,0.0,0.0,0.0
6.763,0.0905,-0.10450000000000001,0.9704999999999999,4.024,1.524,2.134,0.0,0.0,0.0,0.0,0.0,0.0,0.0,0.0
6.773,0.08,-0.096,0.965,4.329,6.341,1.402,0.0,0.0,0.0,0.0,0.0,0.0,0.0,0.0
6.784,0.0695,-0.0885,0.9604999999999999,4.634,5.122,2.927,0.0,0.0,0.0,0.0,0.0,0.0,0.0,0.0
6.794,0.059,-0.081,0.956,1.829,2.805,4.207,0.0,0.0,0.0,0.0,0.0,0.0,0.0,0.0
6.804,0.04,-0.082,0.944,-2.561,3.841,3.659,0.0,0.0,0.0,0.0,0.0,0.0,0.0,0.0
6.814,0.036,-0.085,0.937,-3.963,1.402,2.256,0.0,0.0,0.0,0.0,0.0,0.0,0.0,0.0
6.825,0.05266666666666667,-0.08800000000000001,0.981,-1.159,-3.293,0.122,0.0,0.0,0.0,0.0,0.0,0.0,0.0,0.0
6.834,0.06933333333333333,-0.091,1.025,0.793,-5.488,-2.5,0.0,0.0,0.0,0.0,0.0,0.0,0.0,0.0
6.844,0.086,-0.094,1.069,1.22,-5.793,-3.415,0.0,0.0,0.0,0.0,0.0,0.0,0.0,0.0
6.854,0.132,-0.113,1.114,1.585,-5.854,-2.439,0.0,0.0,0.0,0.0,0.0,0.0,0.0,0.0
6.864,0.158,-0.13,1.166,1.585,-5.549,-0.854,0.0,0.0,0.0,0.0,0.0,0.0,0.0,0.0
6.875,0.1625,-0.1325,1.173,1.768,-5.488,0.305,0.0,0.0,0.0,0.0,0.0,0.0,0.0,0.0
6.885,0.167,-0.135,1.18,3.11,-3.537,0.61,0.0,0.0,0.0,0.0,0.0,0.0,0.0,0.0
6.895,0.169,-0.12,1.148,4.207,-2.012,-0.244,0.0,0.0,0.0,0.0,0.0,0.0,0.0,0.0
6.904,0.1795,-0.11599999999999999,1.1305,4.39,-2.073,-2.622,0.0,0.0,0.0,0.0,0.0,0.0,0.0,0.0
6.914,0.19,-0.112,1.113,6.829,-3.598,-4.756,0.0,0.0,0.0,0.0,0.0,0.0,0.0,0.0
6.924,0.205,-0.118,1.111,7.439,-5.61,-5.915,0.0,0.0,0.0,0.0,0.0,0.0,0.0,0.0
6.935,0.22249999999999998,-0.1265,1.123,3.963,-4.939,-4.39,0.0,0.0,0.0,0.0,0.0,0.0,0.0,0.0
6.945,0.24,-0.135,1.135,-0.183,-0.244,-2.744,0.0,0.0,0.0,0.0,0.0,0.0,0.0,0.0
6.955,0.245,-0.135,1.125,-3.354,5.854,-1.037,0.0,0.0,0.0,0.0,0.0,0.0,0.0,0.0
6.965,0.24,-0.132,1.092,-4.817,9.634,1.341,0.0,0.0,0.0,0.0,0.0,0.0,0.0,0.0
6.974,0.22999999999999998,-0.1215,1.0335,-8.049,10.854,3.354,0.0,0.0,0.0,0.0,0.0,0.0,0.0,0.0
6.984,0.22,-0.111,0.975,-10.732,13.293,5.061,0.0,0.0,0.0,0.0,0.0,0.0,0.0,0.0
6.995,0.1995,-0.114,0.929,-11.037,15.244,5.488,0.0,0.0,0.0,0.0,0.0,0.0,0.0,0.0
7.005,0.179,-0.117,0.883,-9.756,13.232,5.61,0.0,0.0,0.0,0.0,0.0,0.0,0.0,0.0
7.015,0.173,-0.125,0.856,-9.756,11.22,5.854,0.0,0.0,0.0,0.0,0.0,0.0,0.0,0.0
7.025,0.179,-0.133,0.847,-10.793,10.366,5.915,0.0,0.0,0.0,0.0,0.0,0.0,0.0,0.0
7.034,0.1885,-0.1525,0.851,-11.22,8.537,6.341,0.0,0.0,0.0,0.0,0.0,0.0,0.0,0.0
7.044,0.198,-0.172,0.855,-9.634,7.622,7.256,0.0,0.0,0.0,0.0,0.0,0.0,0.0,0.0
7.055,0.20850000000000002,-0.1775,0.8634999999999999,-7.439,6.463,8.232,0.0,0.0,0.0,0.0,0.0,0.0,0.0,0.0
7.065,0.219,-0.183,0.872,-6.28,5.305,8.354,0.0,0.0,0.0,0.0,0.0,0.0,0.0,0.0
7.075,0.231,-0.183,0.896,-4.024,4.207,7.866,0.0,0.0,0.0,0.0,0.0,0.0,0.0,0.0
7.085,0.246,-0.187,0.925,-1.22,3.415,6.829,0.0,0.0,0.0,0.0,0.0,0.0,0.0,0.0
7.096,0.25966666666666666,-0.18133333333333335,0.9623333333333334,2.256,4.085,5.915,0.0,0.0,0.0,0.0,0.0,0.0,0.0,0.0
7.105,0.2733333333333333,-0.17566666666666667,0.9996666666666666,6.463,5.854,5.854,0.0,0.0,0.0,0.0,0.0,0.0,0.0,0.0
7.115,0.287,-0.17,1.037,8.537,6.585,5.732,0.0,0.0,0.0,0.0,0.0,0.0,0.0,0.0
7.125,0.29,-0.176,1.047,9.024,12.378,6.28,0.0,0.0,0.0,0.0,0.0,0.0,0.0,0.0
7.135,0.293,-0.164,1.039,7.195,14.146,10.366,0.0,0.0,0.0,0.0,0.0,0.0,0.0,0.0
7.146,0.2865,-0.1595,1.002,3.171,12.805,11.768,0.0,0.0,0.0,0.0,0.0,0.0,0.0,0.0
7.156,0.28,-0.155,0.965,-1.402,15.671,11.768,0.0,0.0,0.0,0.0,0.0,0.0,0.0,0.0
7.166,0.278,-0.161,0.916,-3.415,15.549,11.707,0.0,0.0,0.0,0.0,0.0,0.0,0.0,0.0
7.175,0.2745,-0.16899999999999998,0.8955,-2.927,14.329,11.098,0.0,0.0,0.0,0.0,0.0,0.0,0.0,0.0
7.185,0.271,-0.177,0.875,-3.049,13.232,10.122,0.0,0.0,0.0,0.0,0.0,0.0,0.0,0.0
7.195,0.277,-0.188,0.862,-3.415,11.037,10.061,0.0,0.0,0.0,0.0,0.0,0.0,0.0,0.0
7.206,0.27949999999999997,-0.1975,0.8625,-4.695,9.39,10.183,0.0,0.0,0.0,0.0,0.0,0.0,0.0,0.0
7.216,0.282,-0.207,0.863,-6.89,7.561,10.183,0.0,0.0,0.0,0.0,0.0,0.0,0.0,0.0
7.226,0.281,-0.209,0.872,-8.11,5.488,10.183,0.0,0.0,0.0,0.0,0.0,0.0,0.0,0.0
7.235,0.2765,-0.202,0.883,-8.049,3.537,10.305,0.0,0.0,0.0,0.0,0.0,0.0,0.0,0.0
7.245,0.272,-0.195,0.894,-6.463,2.317,10.305,0.0,0.0,0.0,0.0,0.0,0.0,0.0,0.0
7.255,0.266,-0.192,0.903,-4.695,2.317,10.0,0.0,0.0,0.0,0.0,0.0,0.0,0.0,0.0
7.266,0.2555,-0.1845,0.9065000000000001,-2.5,2.622,9.634,0.0,0.0,0.0,0.0,0.0,0.0,0.0,0.0
7.276,0.245,-0.177,0.91,0.854,2.012,9.451,0.0,0.0,0.0,0.0,0.0,0.0,0.0,0.0
7.286,0.245,-0.169,0.917,3.415,0.732,8.841,0.0,0.0,0.0,0.0,0.0,0.0,0.0,0.0
7.296,0.243,-0.162,0.933,4.573,-0.366,8.232,0.0,0.0,0.0,0.0,0.0,0.0,0.0,0.0
7.305,0.2415,-0.1535,0.946,4.329,-1.463,7.683,0.0,0.0,0.0,0.0,0.0,0.0,0.0,0.0
7.315,0.24,-0.145,0.959,3.476,-2.561,7.012,0.0,0.0,0.0,0.0,0.0,0.0,0.0,0.0
7.326,0.235,-0.144,0.97,2.866,-1.829,7.012,0.0,0.0,0.0,0.0,0.0,0.0,0.0,0.0
7.336,0.23,-0.143,0.981,2.5,0.122,7.378,0.0,0.0,0.0,0.0,0.0,0.0,0.0,0.0
7.346,0.217,-0.142,0.968,0.854,1.159,7.805,0.0,0.0,0.0,0.0,0.0,0.0,0.0,0.0
7.356,0.203,-0.144,0.949,-2.805,2.683,8.171,0.0,0.0,0.0,0.0,0.0,0.0,0.0,0.0
7.367,0.18725000000000003,-0.14625,0.93275,-5.976,3.902,8.415,0.0,0.0,0.0,0.0,0.0,0.0,0.0,0.0
7.375,0.1715,-0.1485,0.9165,-7.439,3.841,8.11,0.0,0.0,0.0,0.0,0.0,0.0,0.0,0.0
7.386,0.15575,-0.15075,0.90025,-7.256,3.598,7.195,0.0,0.0,0.0,0.0,0.0,0.0,0.0,0.0
7.396,0.14,-0.153,0.884,-5.915,2.866,6.463,0.0,0.0,0.0,0.0,0.0,0.0,0.0,0.0
7.406,0.133,-0.15,0.88,-3.537,2.5,5.244,0.0,0.0,0.0,0.0,0.0,0.0,0.0,0.0
7.417,0.1285,-0.1555,0.893,-0.854,2.012,3.78,0.0,0.0,0.0,0.0,0.0,0.0,0.0,0.0
7.427,0.124,-0.161,0.906,1.341,1.89,2.805,0.0,0.0,0.0,0.0,0.0,0.0,0.0,0.0
7.437,0.129,-0.161,0.918,3.049,2.317,2.439,0.0,0.0,0.0,0.0,0.0,0.0,0.0,0.0
7.446,0.135,-0.162,0.931,3.171,2.744,2.317,0.0,0.0,0.0,0.0,0.0,0.0,0.0,0.0
7.456,0.14,-0.164,0.938,2.378,3.049,2.256,0.0,0.0,0.0,0.0,0.0,0.0,0.0,0.0
7.466,0.147,-0.169,0.935,1.402,3.476,2.195,0.0,0.0,0.0,0.0,0.0,0.0,0.0,0.0
7.477,0.1485,-0.1695,0.9255,0.854,3.049,2.073,0.0,0.0,0.0,0.0,0.0,0.0,0.0,0.0
7.487,0.15,-0.17,0.916,1.098,2.805,1.707,0.0,0.0,0.0,0.0,0.0,0.0,0.0,0.0
7.497,0.148,-0.171,0.91,1.402,2.317,1.159,0.0,0.0,0.0,0.0,0.0,0.0,0.0,0.0
7.506,0.1495,-0.172,0.9095,2.378,1.524,0.976,0.0,0.0,0.0,0.0,0.0,0.0,0.0,0.0
7.516,0.151,-0.173,0.909,3.11,1.22,0.305,0.0,0.0,0.0,0.0,0.0,0.0,0.0,0.0
7.526,0.151,-0.174,0.917,5.122,0.61,-0.549,0.0,0.0,0.0,0.0,0.0,0.0,0.0,0.0
7.537,0.149,-0.17149999999999999,0.9235,6.585,0.488,-1.22,0.0,0.0,0.0,0.0,0.0,0.0,0.0,0.0
7.547,0.147,-0.169,0.93,5.488,0.61,-2.195,0.0,0.0,0.0,0.0,0.0,0.0,0.0,0.0
7.557,0.146,-0.165,0.934,3.415,0.366,-3.293,0.0,0.0,0.0,0.0,0.0,0.0,0.0,0.0
7.567,0.139,-0.165,0.94,2.012,-0.549,-3.72,0.0,0.0,0.0,0.0,0.0,0.0,0.0,0.0
7.576,0.128,-0.1615,0.9339999999999999,-1.098,-1.768,-4.329,0.0,0.0,0.0,0.0,0.0,0.0,0.0,0.0
