Timestamp,Acc x (g),Acc y (g),Acc z (g),Gyro x (deg/s),Gyro y (deg/s),Gyro z (deg/s),Beccheggio/Pitch (deg/s),Rollio/Roll (deg/s),Imbardata/Yaw (deg/s),Mag x (microTesla),Mag y (microTesla),Mag z (microTesla),Pressione (milliBar),Altitudine (m)
0.0,0.266,-0.131,0.938,0.0,1.28,0.183,0.0,0.0,0.0,0.0,0.0,0.0,0.0,0.0
0.01,0.266,-0.131,0.946,0.122,1.22,-0.244,0.0,0.0,0.0,0.0,0.0,0.0,0.0,0.0
0.019,0.0,0.0,0.0,0.061,0.854,0.061,0.0,0.0,0.0,0.0,0.0,0.0,0.0,0.0
0.02,0.267,-0.132,0.941,0.0,0.0,0.0,0.0,0.0,0.0,0.0,0.0,0.0,0.0,0.0
0.029,0.268,-0.131,0.941,-0.061,0.915,0.061,0.0,0.0,0.0,0.0,0.0,0.0,0.0,0.0
0.039,0.268,-0.13,0.94,0.0,0.0,0.0,0.0,0.0,0.0,0.0,0.0,0.0,0.0,0.0
0.04,0.0,0.0,0.0,0.061,0.915,0.0,0.0,0.0,0.0,0.0,0.0,0.0,0.0,0.0
0.05,0.267,-0.13,0.941,0.0,0.854,0.061,0.0,0.0,0.0,0.0,0.0,0.0,0.0,0.0
0.06,0.266,-0.131,0.946,-0.122,0.976,0.061,0.0,0.0,0.0,0.0,0.0,0.0,0.0,0.0
0.07,0.266,-0.131,0.941,0.0,0.0,0.0,0.0,0.0,0.0,0.0,0.0,0.0,0.0,0.0
0.071,0.0,0.0,0.0,0.0,0.915,0.061,0.0,0.0,0.0,0.0,0.0,0.0,0.0,0.0
0.081,0.268,-0.131,0.943,0.061,0.976,0.061,0.0,0.0,0.0,0.0,0.0,0.0,0.0,0.0
0.089,0.268,-0.129,0.941,0.0,0.0,0.0,0.0,0.0,0.0,0.0,0.0,0.0,0.0,0.0
0.09,0.0,0.0,0.0,0.061,0.915,0.061,0.0,0.0,0.0,0.0,0.0,0.0,0.0,0.0
0.1,0.268,-0.129,0.941,0.061,0.915,0.183,0.0,0.0,0.0,0.0,0.0,0.0,0.0,0.0
0.11,0.266,-0.131,0.94,0.0,0.915,0.122,0.0,0.0,0.0,0.0,0.0,0.0,0.0,0.0
0.12,0.268,-0.131,0.946,0.0,0.915,0.061,0.0,0.0,0.0,0.0,0.0,0.0,0.0,0.0
0.13,0.266,-0.131,0.944,0.0,0.0,0.0,0.0,0.0,0.0,0.0,0.0,0.0,0.0,0.0
0.131,0.0,0.0,0.0,0.0,0.976,0.061,0.0,0.0,0.0,0.0,0.0,0.0,0.0,0.0
0.141,0.269,-0.131,0.944,-0.061,0.976,0.122,0.0,0.0,0.0,0.0,0.0,0.0,0.0,0.0
0.15,0.0,0.0,0.0,-0.122,0.732,0.061,0.0,0.0,0.0,0.0,0.0,0.0,0.0,0.0
0.151,0.268,-0.13,0.942,0.0,0.0,0.0,0.0,0.0,0.0,0.0,0.0,0.0,0.0,0.0
0.16,0.265,-0.13,0.943,-0.061,0.854,0.122,0.0,0.0,0.0,0.0,0.0,0.0,0.0,0.0
0.17,0.267,-0.13,0.942,-0.061,0.854,0.122,0.0,0.0,0.0,0.0,0.0,0.0,0.0,0.0
0.18,0.266,-0.132,0.942,-0.122,0.854,0.061,0.0,0.0,0.0,0.0,0.0,0.0,0.0,0.0
0.19,0.269,-0.13,0.941,0.0,0.0,0.0,0.0,0.0,0.0,0.0,0.0,0.0,0.0,0.0
0.191,0.0,0.0,0.0,-0.183,0.915,0.061,0.0,0.0,0.0,0.0,0.0,0.0,0.0,0.0
0.201,0.268,-0.131,0.944,-0.244,0.915,0.0,0.0,0.0,0.0,0.0,0.0,0.0,0.0,0.0
0.211,0.266,-0.131,0.941,-0.122,0.915,0.061,0.0,0.0,0.0,0.0,0.0,0.0,0.0,0.0
0.22,0.0,0.0,0.0,0.0,0.915,0.0,0.0,0.0,0.0,0.0,0.0,0.0,0.0,0.0
0.221,0.267,-0.13,0.94,0.0,0.0,0.0,0.0,0.0,0.0,0.0,0.0,0.0,0.0,0.0
0.23,0.269,-0.131,0.94,0.0,0.793,0.122,0.0,0.0,0.0,0.0,0.0,0.0,0.0,0.0
0.24,0.268,-0.131,0.942,-0.061,0.854,0.122,0.0,0.0,0.0,0.0,0.0,0.0,0.0,0.0
0.25,0.266,-0.13,0.944,0.0,0.0,0.0,0.0,0.0,0.0,0.0,0.0,0.0,0.0,0.0
0.251,0.0,0.0,0.0,-0.183,0.915,0.122,0.0,0.0,0.0,0.0,0.0,0.0,0.0,0.0
0.261,0.268,-0.13,0.946,-0.122,0.915,0.122,0.0,0.0,0.0,0.0,0.0,0.0,0.0,0.0
0.271,0.268,-0.13,0.94,-0.122,0.915,0.122,0.0,0.0,0.0,0.0,0.0,0.0,0.0,0.0
0.281,0.269,-0.131,0.941,-0.183,0.915,0.183,0.0,0.0,0.0,0.0,0.0,0.0,0.0,0.0
0.29,0.0,0.0,0.0,-0.122,0.976,0.183,0.0,0.0,0.0,0.0,0.0,0.0,0.0,0.0
0.291,0.268,-0.132,0.94,0.0,0.0,0.0,0.0,0.0,0.0,0.0,0.0,0.0,0.0,0.0
0.3,0.267,-0.133,0.942,-0.122,0.915,0.183,0.0,0.0,0.0,0.0,0.0,0.0,0.0,0.0
0.31,0.27,-0.133,0.942,0.0,0.0,0.0,0.0,0.0,0.0,0.0,0.0,0.0,0.0,0.0
0.311,0.0,0.0,0.0,-0.061,0.915,0.122,0.0,0.0,0.0,0.0,0.0,0.0,0.0,0.0
0.321,0.267,-0.131,0.941,-0.061,0.915,0.061,0.0,0.0,0.0,0.0,0.0,0.0,0.0,0.0
0.331,0.267,-0.132,0.944,-0.122,0.793,0.183,0.0,0.0,0.0,0.0,0.0,0.0,0.0,0.0
0.341,0.269,-0.131,0.942,0.0,0.854,0.122,0.0,0.0,0.0,0.0,0.0,0.0,0.0,0.0
0.351,0.271,-0.132,0.942,0.0,0.0,0.0,0.0,0.0,0.0,0.0,0.0,0.0,0.0,0.0
0.352,0.0,0.0,0.0,0.061,0.915,0.061,0.0,0.0,0.0,0.0,0.0,0.0,0.0,0.0
0.361,0.0,0.0,0.0,-0.061,0.915,0.061,0.0,0.0,0.0,0.0,0.0,0.0,0.0,0.0
0.362,0.268,-0.132,0.945,0.0,0.0,0.0,0.0,0.0,0.0,0.0,0.0,0.0,0.0,0.0
0.371,0.268,-0.128,0.944,-0.061,0.915,0.122,0.0,0.0,0.0,0.0,0.0,0.0,0.0,0.0
0.381,0.267,-0.131,0.941,0.0,0.915,0.122,0.0,0.0,0.0,0.0,0.0,0.0,0.0,0.0
0.391,0.267,-0.13,0.942,0.0,0.915,0.122,0.0,0.0,0.0,0.0,0.0,0.0,0.0,0.0
0.401,0.266,-0.13,0.941,0.0,0.0,0.0,0.0,0.0,0.0,0.0,0.0,0.0,0.0,0.0
0.402,0.0,0.0,0.0,0.0,0.854,0.122,0.0,0.0,0.0,0.0,0.0,0.0,0.0,0.0
0.412,0.266,-0.132,0.943,0.061,0.854,0.183,0.0,0.0,0.0,0.0,0.0,0.0,0.0,0.0
0.421,0.0,0.0,0.0,0.0,0.915,0.061,0.0,0.0,0.0,0.0,0.0,0.0,0.0,0.0
0.422,0.267,-0.132,0.945,0.0,0.0,0.0,0.0,0.0,0.0,0.0,0.0,0.0,0.0,0.0
0.431,0.269,-0.133,0.942,0.0,0.976,0.122,0.0,0.0,0.0,0.0,0.0,0.0,0.0,0.0
0.441,0.265,-0.131,0.943,0.061,0.915,0.061,0.0,0.0,0.0,0.0,0.0,0.0,0.0,0.0
0.451,0.267,-0.13,0.943,0.0,0.854,0.122,0.0,0.0,0.0,0.0,0.0,0.0,0.0,0.0
0.461,0.267,-0.129,0.941,0.0,0.0,0.0,0.0,0.0,0.0,0.0,0.0,0.0,0.0,0.0
0.462,0.0,0.0,0.0,0.0,0.976,0.122,0.0,0.0,0.0,0.0,0.0,0.0,0.0,0.0
0.472,0.268,-0.132,0.942,0.061,0.915,0.061,0.0,0.0,0.0,0.0,0.0,0.0,0.0,0.0
0.482,0.264,-0.132,0.94,0.0,0.854,0.122,0.0,0.0,0.0,0.0,0.0,0.0,0.0,0.0
0.491,0.0,0.0,0.0,-0.061,0.915,0.122,0.0,0.0,0.0,0.0,0.0,0.0,0.0,0.0
0.492,0.264,-0.132,0.943,0.0,0.0,0.0,0.0,0.0,0.0,0.0,0.0,0.0,0.0,0.0
0.501,0.268,-0.131,0.942,0.061,0.976,0.061,0.0,0.0,0.0,0.0,0.0,0.0,0.0,0.0
0.511,0.266,-0.129,0.944,0.122,0.915,0.061,0.0,0.0,0.0,0.0,0.0,0.0,0.0,0.0
0.521,0.266,-0.13,0.945,0.0,0.0,0.0,0.0,0.0,0.0,0.0,0.0,0.0,0.0,0.0
0.522,0.0,0.0,0.0,0.122,0.976,0.061,0.0,0.0,0.0,0.0,0.0,0.0,0.0,0.0
0.532,0.267,-0.13,0.942,-0.061,0.915,0.061,0.0,0.0,0.0,0.0,0.0,0.0,0.0,0.0
0.542,0.267,-0.13,0.943,0.0,0.915,0.061,0.0,0.0,0.0,0.0,0.0,0.0,0.0,0.0
0.552,0.269,-0.131,0.943,0.061,0.915,0.061,0.0,0.0,0.0,0.0,0.0,0.0,0.0,0.0
0.561,0.0,0.0,0.0,-0.061,0.915,0.061,0.0,0.0,0.0,0.0,0.0,0.0,0.0,0.0
0.562,0.266,-0.13,0.94,0.0,0.0,0.0,0.0,0.0,0.0,0.0,0.0,0.0,0.0,0.0
0.571,0.265,-0.131,0.943,-0.061,0.854,0.061,0.0,0.0,0.0,0.0,0.0,0.0,0.0,0.0
0.581,0.266,-0.131,0.943,0.0,0.0,0.0,0.0,0.0,0.0,0.0,0.0,0.0,0.0,0.0
0.582,0.0,0.0,0.0,0.061,0.976,0.061,0.0,0.0,0.0,0.0,0.0,0.0,0.0,0.0
0.592,0.269,-0.13,0.942,0.0,0.976,0.061,0.0,0.0,0.0,0.0,0.0,0.0,0.0,0.0
0.602,0.265,-0.133,0.941,0.122,0.915,0.061,0.0,0.0,0.0,0.0,0.0,0.0,0.0,0.0
0.612,0.266,-0.132,0.944,0.122,0.854,0.122,0.0,0.0,0.0,0.0,0.0,0.0,0.0,0.0
0.621,0.0,0.0,0.0,0.122,0.854,0.061,0.0,0.0,0.0,0.0,0.0,0.0,0.0,0.0
0.622,0.267,-0.134,0.944,0.0,0.0,0.0,0.0,0.0,0.0,0.0,0.0,0.0,0.0,0.0
0.631,0.269,-0.131,0.941,0.0,0.0,0.0,0.0,0.0,0.0,0.0,0.0,0.0,0.0,0.0
0.632,0.0,0.0,0.0,0.244,0.976,0.122,0.0,0.0,0.0,0.0,0.0,0.0,0.0,0.0
0.642,0.269,-0.131,0.941,0.122,0.915,0.122,0.0,0.0,0.0,0.0,0.0,0.0,0.0,0.0
0.652,0.269,-0.131,0.946,0.061,0.915,0.122,0.0,0.0,0.0,0.0,0.0,0.0,0.0,0.0
0.662,0.267,-0.131,0.944,0.122,0.915,0.0,0.0,0.0,0.0,0.0,0.0,0.0,0.0,0.0
0.672,0.264,-0.128,0.942,0.0,0.0,0.0,0.0,0.0,0.0,0.0,0.0,0.0,0.0,0.0
0.673,0.0,0.0,0.0,0.061,0.915,0.061,0.0,0.0,0.0,0.0,0.0,0.0,0.0,0.0
0.683,0.267,-0.128,0.944,0.122,1.037,0.183,0.0,0.0,0.0,0.0,0.0,0.0,0.0,0.0
0.692,0.0,0.0,0.0,0.183,0.915,0.183,0.0,0.0,0.0,0.0,0.0,0.0,0.0,0.0
0.693,0.271,-0.13,0.941,0.0,0.0,0.0,0.0,0.0,0.0,0.0,0.0,0.0,0.0,0.0
0.702,0.269,-0.131,0.942,0.061,0.915,0.122,0.0,0.0,0.0,0.0,0.0,0.0,0.0,0.0
0.712,0.267,-0.131,0.944,0.061,0.976,0.122,0.0,0.0,0.0,0.0,0.0,0.0,0.0,0.0
0.722,0.267,-0.131,0.942,0.061,0.915,0.061,0.0,0.0,0.0,0.0,0.0,0.0,0.0,0.0
0.732,0.268,-0.131,0.942,0.0,0.0,0.0,0.0,0.0,0.0,0.0,0.0,0.0,0.0,0.0
0.733,0.0,0.0,0.0,0.122,0.854,0.122,0.0,0.0,0.0,0.0,0.0,0.0,0.0,0.0
0.743,0.269,-0.132,0.942,0.122,0.915,0.122,0.0,0.0,0.0,0.0,0.0,0.0,0.0,0.0
0.753,0.268,-0.131,0.942,-0.061,0.915,0.061,0.0,0.0,0.0,0.0,0.0,0.0,0.0,0.0
0.762,0.0,0.0,0.0,0.061,0.915,0.183,0.0,0.0,0.0,0.0,0.0,0.0,0.0,0.0
0.763,0.265,-0.13,0.947,0.0,0.0,0.0,0.0,0.0,0.0,0.0,0.0,0.0,0.0,0.0
0.772,0.267,-0.129,0.944,0.061,0.854,0.183,0.0,0.0,0.0,0.0,0.0,0.0,0.0,0.0
0.782,0.268,-0.132,0.941,0.0,0.854,0.061,0.0,0.0,0.0,0.0,0.0,0.0,0.0,0.0
0.792,0.267,-0.129,0.941,0.0,0.0,0.0,0.0,0.0,0.0,0.0,0.0,0.0,0.0,0.0
0.793,0.0,0.0,0.0,0.0,0.915,0.061,0.0,0.0,0.0,0.0,0.0,0.0,0.0,0.0
0.803,0.267,-0.13,0.944,0.0,0.915,0.0,0.0,0.0,0.0,0.0,0.0,0.0,0.0,0.0
0.813,0.271,-0.129,0.943,-0.122,0.915,0.122,0.0,0.0,0.0,0.0,0.0,0.0,0.0,0.0
0.823,0.269,-0.13,0.945,0.0,0.915,0.122,0.0,0.0,0.0,0.0,0.0,0.0,0.0,0.0
0.832,0.0,0.0,0.0,-0.061,0.854,0.122,0.0,0.0,0.0,0.0,0.0,0.0,0.0,0.0
0.833,0.267,-0.13,0.946,0.0,0.0,0.0,0.0,0.0,0.0,0.0,0.0,0.0,0.0,0.0
0.842,0.266,-0.131,0.943,-0.061,0.976,0.183,0.0,0.0,0.0,0.0,0.0,0.0,0.0,0.0
0.852,0.267,-0.13,0.945,0.0,0.0,0.0,0.0,0.0,0.0,0.0,0.0,0.0,0.0,0.0
0.853,0.0,0.0,0.0,-0.183,0.976,0.122,0.0,0.0,0.0,0.0,0.0,0.0,0.0,0.0
0.863,0.268,-0.131,0.94,-0.122,0.915,0.122,0.0,0.0,0.0,0.0,0.0,0.0,0.0,0.0
0.873,0.266,-0.131,0.941,-0.122,0.976,0.183,0.0,0.0,0.0,0.0,0.0,0.0,0.0,0.0
0.883,0.264,-0.13,0.943,-0.122,0.976,0.122,0.0,0.0,0.0,0.0,0.0,0.0,0.0,0.0
0.892,0.0,0.0,0.0,-0.061,0.854,0.122,0.0,0.0,0.0,0.0,0.0,0.0,0.0,0.0
0.893,0.263,-0.132,0.943,0.0,0.0,0.0,0.0,0.0,0.0,0.0,0.0,0.0,0.0,0.0
0.902,0.267,-0.134,0.941,0.0,0.0,0.0,0.0,0.0,0.0,0.0,0.0,0.0,0.0,0.0
0.903,0.0,0.0,0.0,0.0,0.915,0.122,0.0,0.0,0.0,0.0,0.0,0.0,0.0,0.0
0.913,0.266,-0.133,0.941,-0.061,0.915,0.061,0.0,0.0,0.0,0.0,0.0,0.0,0.0,0.0
0.923,0.266,-0.132,0.941,0.0,0.915,0.122,0.0,0.0,0.0,0.0,0.0,0.0,0.0,0.0
0.933,0.269,-0.13,0.944,0.061,0.915,0.061,0.0,0.0,0.0,0.0,0.0,0.0,0.0,0.0
0.943,0.268,-0.133,0.942,0.0,0.0,0.0,0.0,0.0,0.0,0.0,0.0,0.0,0.0,0.0
0.944,0.0,0.0,0.0,0.122,0.854,0.0,0.0,0.0,0.0,0.0,0.0,0.0,0.0,0.0
0.954,0.267,-0.13,0.947,0.0,0.793,0.061,0.0,0.0,0.0,0.0,0.0,0.0,0.0,0.0
0.963,0.0,0.0,0.0,-0.061,0.976,0.183,0.0,0.0,0.0,0.0,0.0,0.0,0.0,0.0
0.964,0.27,-0.128,0.945,0.0,0.0,0.0,0.0,0.0,0.0,0.0,0.0,0.0,0.0,0.0
0.973,0.267,-0.131,0.939,-0.061,0.915,0.122,0.0,0.0,0.0,0.0,0.0,0.0,0.0,0.0
0.983,0.267,-0.13,0.942,0.0,0.854,0.061,0.0,0.0,0.0,0.0,0.0,0.0,0.0,0.0
0.993,0.269,-0.132,0.943,0.0,0.915,0.061,0.0,0.0,0.0,0.0,0.0,0.0,0.0,0.0
1.003,0.267,-0.133,0.944,0.0,0.0,0.0,0.0,0.0,0.0,0.0,0.0,0.0,0.0,0.0
1.004,0.0,0.0,0.0,0.061,0.854,0.0,0.0,0.0,0.0,0.0,0.0,0.0,0.0,0.0
1.014,0.267,-0.132,0.944,0.061,0.976,0.0,0.0,0.0,0.0,0.0,0.0,0.0,0.0,0.0
1.024,0.267,-0.132,0.943,0.183,0.976,0.0,0.0,0.0,0.0,0.0,0.0,0.0,0.0,0.0
1.033,0.0,0.0,0.0,0.061,0.976,0.122,0.0,0.0,0.0,0.0,0.0,0.0,0.0,0.0
1.034,0.268,-0.132,0.943,0.0,0.0,0.0,0.0,0.0,0.0,0.0,0.0,0.0,0.0,0.0
1.043,0.267,-0.131,0.944,0.0,0.854,0.183,0.0,0.0,0.0,0.0,0.0,0.0,0.0,0.0
1.053,0.266,-0.13,0.944,-0.122,0.915,0.122,0.0,0.0,0.0,0.0,0.0,0.0,0.0,0.0
1.063,0.266,-0.13,0.945,0.0,0.0,0.0,0.0,0.0,0.0,0.0,0.0,0.0,0.0,0.0
1.064,0.0,0.0,0.0,-0.122,0.976,0.061,0.0,0.0,0.0,0.0,0.0,0.0,0.0,0.0
1.074,0.266,-0.13,0.94,-0.061,0.854,0.061,0.0,0.0,0.0,0.0,0.0,0.0,0.0,0.0
1.084,0.267,-0.13,0.942,-0.183,0.854,0.061,0.0,0.0,0.0,0.0,0.0,0.0,0.0,0.0
1.094,0.266,-0.13,0.944,-0.122,0.915,0.061,0.0,0.0,0.0,0.0,0.0,0.0,0.0,0.0
1.103,0.0,0.0,0.0,-0.122,0.854,0.061,0.0,0.0,0.0,0.0,0.0,0.0,0.0,0.0
1.104,0.266,-0.13,0.944,0.0,0.0,0.0,0.0,0.0,0.0,0.0,0.0,0.0,0.0,0.0
1.113,0.268,-0.132,0.943,-0.244,0.793,0.0,0.0,0.0,0.0,0.0,0.0,0.0,0.0,0.0
1.123,0.268,-0.132,0.945,0.0,0.0,0.0,0.0,0.0,0.0,0.0,0.0,0.0,0.0,0.0
1.124,0.0,0.0,0.0,-0.122,0.915,0.061,0.0,0.0,0.0,0.0,0.0,0.0,0.0,0.0
1.134,0.268,-0.129,0.943,-0.122,0.854,0.122,0.0,0.0,0.0,0.0,0.0,0.0,0.0,0.0
1.144,0.27,-0.129,0.94,-0.061,0.854,0.061,0.0,0.0,0.0,0.0,0.0,0.0,0.0,0.0
1.154,0.266,-0.131,0.943,0.0,0.976,0.061,0.0,0.0,0.0,0.0,0.0,0.0,0.0,0.0
1.163,0.0,0.0,0.0,0.0,0.915,0.061,0.0,0.0,0.0,0.0,0.0,0.0,0.0,0.0
1.164,0.267,-0.131,0.944,0.0,0.0,0.0,0.0,0.0,0.0,0.0,0.0,0.0,0.0,0.0
1.173,0.267,-0.132,0.943,0.0,0.0,0.0,0.0,0.0,0.0,0.0,0.0,0.0,0.0,0.0
1.174,0.0,0.0,0.0,0.0,0.915,0.061,0.0,0.0,0.0,0.0,0.0,0.0,0.0,0.0
1.184,0.269,-0.128,0.941,0.0,0.915,0.122,0.0,0.0,0.0,0.0,0.0,0.0,0.0,0.0
1.194,0.267,-0.131,0.943,-0.061,0.915,0.061,0.0,0.0,0.0,0.0,0.0,0.0,0.0,0.0
1.204,0.266,-0.131,0.944,0.0,0.915,0.122,0.0,0.0,0.0,0.0,0.0,0.0,0.0,0.0
1.214,0.267,-0.131,0.944,0.0,0.0,0.0,0.0,0.0,0.0,0.0,0.0,0.0,0.0,0.0
1.215,0.0,0.0,0.0,0.0,0.915,0.183,0.0,0.0,0.0,0.0,0.0,0.0,0.0,0.0
1.225,0.264,-0.133,0.94,0.061,0.915,0.061,0.0,0.0,0.0,0.0,0.0,0.0,0.0,0.0
1.234,0.0,0.0,0.0,0.0,0.854,0.122,0.0,0.0,0.0,0.0,0.0,0.0,0.0,0.0
1.235,0.263,-0.132,0.941,0.0,0.0,0.0,0.0,0.0,0.0,0.0,0.0,0.0,0.0,0.0
1.244,0.27,-0.129,0.947,0.061,0.915,0.061,0.0,0.0,0.0,0.0,0.0,0.0,0.0,0.0
1.254,0.265,-0.132,0.944,0.122,0.915,0.061,0.0,0.0,0.0,0.0,0.0,0.0,0.0,0.0
1.264,0.268,-0.131,0.943,-0.061,1.037,0.183,0.0,0.0,0.0,0.0,0.0,0.0,0.0,0.0
1.274,0.267,-0.132,0.944,0.0,0.0,0.0,0.0,0.0,0.0,0.0,0.0,0.0,0.0,0.0
1.275,0.0,0.0,0.0,0.061,0.976,0.122,0.0,0.0,0.0,0.0,0.0,0.0,0.0,0.0
1.285,0.263,-0.132,0.943,0.122,0.976,0.122,0.0,0.0,0.0,0.0,0.0,0.0,0.0,0.0
1.295,0.266,-0.131,0.947,0.0,0.915,0.122,0.0,0.0,0.0,0.0,0.0,0.0,0.0,0.0
1.304,0.0,0.0,0.0,0.061,0.915,0.061,0.0,0.0,0.0,0.0,0.0,0.0,0.0,0.0
1.305,0.266,-0.132,0.944,0.0,0.0,0.0,0.0,0.0,0.0,0.0,0.0,0.0,0.0,0.0
1.314,0.268,-0.131,0.944,0.061,0.915,0.061,0.0,0.0,0.0,0.0,0.0,0.0,0.0,0.0
1.324,0.268,-0.131,0.944,0.061,0.854,0.0,0.0,0.0,0.0,0.0,0.0,0.0,0.0,0.0
1.334,0.265,-0.131,0.939,0.0,0.0,0.0,0.0,0.0,0.0,0.0,0.0,0.0,0.0,0.0
1.335,0.0,0.0,0.0,0.183,0.915,0.061,0.0,0.0,0.0,0.0,0.0,0.0,0.0,0.0
1.345,0.266,-0.131,0.944,0.061,0.854,0.122,0.0,0.0,0.0,0.0,0.0,0.0,0.0,0.0
1.355,0.267,-0.133,0.944,0.0,0.854,0.061,0.0,0.0,0.0,0.0,0.0,0.0,0.0,0.0
1.365,0.265,-0.133,0.943,-0.061,0.854,0.183,0.0,0.0,0.0,0.0,0.0,0.0,0.0,0.0
1.374,0.0,0.0,0.0,-0.122,0.854,0.061,0.0,0.0,0.0,0.0,0.0,0.0,0.0,0.0
1.375,0.267,-0.129,0.942,0.0,0.0,0.0,0.0,0.0,0.0,0.0,0.0,0.0,0.0,0.0
1.384,0.268,-0.13,0.946,0.061,0.915,0.061,0.0,0.0,0.0,0.0,0.0,0.0,0.0,0.0
1.394,0.266,-0.129,0.945,0.0,0.0,0.0,0.0,0.0,0.0,0.0,0.0,0.0,0.0,0.0
1.395,0.0,0.0,0.0,0.0,0.915,0.061,0.0,0.0,0.0,0.0,0.0,0.0,0.0,0.0
1.405,0.266,-0.132,0.942,-0.061,0.915,0.0,0.0,0.0,0.0,0.0,0.0,0.0,0.0,0.0
1.415,0.267,-0.132,0.945,0.0,0.915,0.061,0.0,0.0,0.0,0.0,0.0,0.0,0.0,0.0
1.425,0.268,-0.131,0.944,0.0,0.915,0.061,0.0,0.0,0.0,0.0,0.0,0.0,0.0,0.0
1.434,0.0,0.0,0.0,-0.122,0.915,0.061,0.0,0.0,0.0,0.0,0.0,0.0,0.0,0.0
1.435,0.269,-0.132,0.942,0.0,0.0,0.0,0.0,0.0,0.0,0.0,0.0,0.0,0.0,0.0
1.444,0.267,-0.133,0.942,0.0,0.0,0.0,0.0,0.0,0.0,0.0,0.0,0.0,0.0,0.0
1.445,0.0,0.0,0.0,-0.183,0.854,0.0,0.0,0.0,0.0,0.0,0.0,0.0,0.0,0.0
1.455,0.268,-0.132,0.943,-0.122,0.915,0.061,0.0,0.0,0.0,0.0,0.0,0.0,0.0,0.0
1.465,0.268,-0.133,0.943,-0.061,0.915,0.061,0.0,0.0,0.0,0.0,0.0,0.0,0.0,0.0
1.475,0.266,-0.13,0.945,-0.061,0.854,0.061,0.0,0.0,0.0,0.0,0.0,0.0,0.0,0.0
1.485,0.266,-0.131,0.943,0.0,0.0,0.0,0.0,0.0,0.0,0.0,0.0,0.0,0.0,0.0
1.486,0.0,0.0,0.0,-0.061,0.854,0.061,0.0,0.0,0.0,0.0,0.0,0.0,0.0,0.0
1.496,0.267,-0.13,0.942,-0.122,0.854,0.122,0.0,0.0,0.0,0.0,0.0,0.0,0.0,0.0
1.505,0.0,0.0,0.0,-0.061,0.915,0.183,0.0,0.0,0.0,0.0,0.0,0.0,0.0,0.0
1.506,0.268,-0.13,0.944,0.0,0.0,0.0,0.0,0.0,0.0,0.0,0.0,0.0,0.0,0.0
1.515,0.266,-0.131,0.944,0.061,0.915,0.122,0.0,0.0,0.0,0.0,0.0,0.0,0.0,0.0
1.525,0.266,-0.13,0.943,-0.061,0.915,0.122,0.0,0.0,0.0,0.0,0.0,0.0,0.0,0.0
1.535,0.267,-0.133,0.945,-0.061,0.915,0.061,0.0,0.0,0.0,0.0,0.0,0.0,0.0,0.0
1.545,0.267,-0.13,0.943,0.0,0.0,0.0,0.0,0.0,0.0,0.0,0.0,0.0,0.0,0.0
1.546,0.0,0.0,0.0,-0.122,0.854,0.061,0.0,0.0,0.0,0.0,0.0,0.0,0.0,0.0
1.556,0.268,-0.131,0.945,0.0,0.793,0.061,0.0,0.0,0.0,0.0,0.0,0.0,0.0,0.0
1.566,0.269,-0.131,0.945,-0.061,0.854,0.122,0.0,0.0,0.0,0.0,0.0,0.0,0.0,0.0
1.575,0.0,0.0,0.0,-0.061,0.854,0.061,0.0,0.0,0.0,0.0,0.0,0.0,0.0,0.0
1.576,0.268,-0.13,0.943,0.0,0.0,0.0,0.0,0.0,0.0,0.0,0.0,0.0,0.0,0.0
1.585,0.268,-0.132,0.945,-0.061,0.976,0.061,0.0,0.0,0.0,0.0,0.0,0.0,0.0,0.0
1.595,0.266,-0.132,0.94,-0.122,0.915,0.0,0.0,0.0,0.0,0.0,0.0,0.0,0.0,0.0
1.605,0.268,-0.131,0.941,0.0,0.0,0.0,0.0,0.0,0.0,0.0,0.0,0.0,0.0,0.0
1.606,0.0,0.0,0.0,-0.061,0.915,0.0,0.0,0.0,0.0,0.0,0.0,0.0,0.0,0.0
1.616,0.268,-0.131,0.944,0.0,0.915,0.061,0.0,0.0,0.0,0.0,0.0,0.0,0.0,0.0
1.626,0.269,-0.131,0.946,0.0,0.915,0.122,0.0,0.0,0.0,0.0,0.0,0.0,0.0,0.0
1.636,0.266,-0.131,0.943,0.0,0.915,0.0,0.0,0.0,0.0,0.0,0.0,0.0,0.0,0.0
1.645,0.0,0.0,0.0,-0.061,0.915,0.061,0.0,0.0,0.0,0.0,0.0,0.0,0.0,0.0
1.646,0.265,-0.132,0.943,0.0,0.0,0.0,0.0,0.0,0.0,0.0,0.0,0.0,0.0,0.0
1.655,0.266,-0.131,0.945,-0.061,0.854,0.183,0.0,0.0,0.0,0.0,0.0,0.0,0.0,0.0
1.665,0.268,-0.131,0.942,0.0,0.0,0.0,0.0,0.0,0.0,0.0,0.0,0.0,0.0,0.0
1.666,0.0,0.0,0.0,-0.061,0.915,0.122,0.0,0.0,0.0,0.0,0.0,0.0,0.0,0.0
1.676,0.268,-0.131,0.943,0.0,0.915,0.061,0.0,0.0,0.0,0.0,0.0,0.0,0.0,0.0
1.686,0.268,-0.13,0.946,0.0,1.037,0.122,0.0,0.0,0.0,0.0,0.0,0.0,0.0,0.0
1.696,0.268,-0.131,0.941,-0.061,1.037,0.122,0.0,0.0,0.0,0.0,0.0,0.0,0.0,0.0
1.706,0.265,-0.132,0.942,0.0,0.0,0.0,0.0,0.0,0.0,0.0,0.0,0.0,0.0,0.0
1.707,0.0,0.0,0.0,0.061,1.037,0.061,0.0,0.0,0.0,0.0,0.0,0.0,0.0,0.0
1.716,0.0,0.0,0.0,0.061,1.037,0.061,0.0,0.0,0.0,0.0,0.0,0.0,0.0,0.0
1.717,0.267,-0.132,0.942,0.0,0.0,0.0,0.0,0.0,0.0,0.0,0.0,0.0,0.0,0.0
1.726,0.267,-0.13,0.941,-0.061,0.976,0.061,0.0,0.0,0.0,0.0,0.0,0.0,0.0,0.0
1.736,0.266,-0.131,0.943,0.061,0.976,0.122,0.0,0.0,0.0,0.0,0.0,0.0,0.0,0.0
1.746,0.263,-0.132,0.943,0.183,0.976,0.183,0.0,0.0,0.0,0.0,0.0,0.0,0.0,0.0
1.756,0.267,-0.131,0.941,0.0,0.0,0.0,0.0,0.0,0.0,0.0,0.0,0.0,0.0,0.0
1.757,0.0,0.0,0.0,0.0,0.915,0.061,0.0,0.0,0.0,0.0,0.0,0.0,0.0,0.0
1.767,0.267,-0.131,0.944,0.0,0.915,0.122,0.0,0.0,0.0,0.0,0.0,0.0,0.0,0.0
1.776,0.0,0.0,0.0,0.0,0.854,0.061,0.0,0.0,0.0,0.0,0.0,0.0,0.0,0.0
1.777,0.265,-0.131,0.944,0.0,0.0,0.0,0.0,0.0,0.0,0.0,0.0,0.0,0.0,0.0
1.786,0.271,-0.13,0.945,0.0,0.976,0.061,0.0,0.0,0.0,0.0,0.0,0.0,0.0,0.0
1.796,0.267,-0.131,0.943,-0.061,0.915,0.061,0.0,0.0,0.0,0.0,0.0,0.0,0.0,0.0
1.806,0.267,-0.131,0.944,0.061,0.854,0.183,0.0,0.0,0.0,0.0,0.0,0.0,0.0,0.0
1.816,0.268,-0.129,0.946,0.0,0.0,0.0,0.0,0.0,0.0,0.0,0.0,0.0,0.0,0.0
1.817,0.0,0.0,0.0,0.122,0.915,0.183,0.0,0.0,0.0,0.0,0.0,0.0,0.0,0.0
1.827,0.268,-0.132,0.942,0.061,0.915,0.122,0.0,0.0,0.0,0.0,0.0,0.0,0.0,0.0
1.837,0.266,-0.133,0.946,0.122,0.915,0.183,0.0,0.0,0.0,0.0,0.0,0.0,0.0,0.0
1.846,0.0,0.0,0.0,0.0,0.976,0.183,0.0,0.0,0.0,0.0,0.0,0.0,0.0,0.0
1.847,0.266,-0.131,0.946,0.0,0.0,0.0,0.0,0.0,0.0,0.0,0.0,0.0,0.0,0.0
1.856,0.268,-0.129,0.945,0.0,1.037,0.061,0.0,0.0,0.0,0.0,0.0,0.0,0.0,0.0
1.866,0.269,-0.134,0.945,0.0,0.976,0.061,0.0,0.0,0.0,0.0,0.0,0.0,0.0,0.0
1.876,0.268,-0.132,0.944,0.0,0.0,0.0,0.0,0.0,0.0,0.0,0.0,0.0,0.0,0.0
1.877,0.0,0.0,0.0,0.0,0.976,0.122,0.0,0.0,0.0,0.0,0.0,0.0,0.0,0.0
1.887,0.267,-0.131,0.943,0.122,1.037,0.183,0.0,0.0,0.0,0.0,0.0,0.0,0.0,0.0
1.897,0.268,-0.131,0.942,0.122,0.976,0.183,0.0,0.0,0.0,0.0,0.0,0.0,0.0,0.0
1.907,0.265,-0.129,0.942,0.0,0.976,0.122,0.0,0.0,0.0,0.0,0.0,0.0,0.0,0.0
1.916,0.267,-0.132,0.947,0.183,1.037,0.122,0.0,0.0,0.0,0.0,0.0,0.0,0.0,0.0
1.926,0.268,-0.134,0.943,0.244,0.976,0.0,0.0,0.0,0.0,0.0,0.0,0.0,0.0,0.0
1.936,0.27,-0.13,0.947,0.0,0.0,0.0,0.0,0.0,0.0,0.0,0.0,0.0,0.0,0.0
1.937,0.0,0.0,0.0,0.061,0.976,0.122,0.0,0.0,0.0,0.0,0.0,0.0,0.0,0.0
1.947,0.267,-0.133,0.945,0.366,0.915,0.122,0.0,0.0,0.0,0.0,0.0,0.0,0.0,0.0
1.957,0.265,-0.131,0.94,0.305,0.854,0.061,0.0,0.0,0.0,0.0,0.0,0.0,0.0,0.0
1.967,0.271,-0.13,0.95,0.061,0.976,0.061,0.0,0.0,0.0,0.0,0.0,0.0,0.0,0.0
1.976,0.0,0.0,0.0,0.061,0.976,0.122,0.0,0.0,0.0,0.0,0.0,0.0,0.0,0.0
1.977,0.267,-0.132,0.943,0.0,0.0,0.0,0.0,0.0,0.0,0.0,0.0,0.0,0.0,0.0
1.986,0.267,-0.129,0.943,0.0,0.0,0.0,0.0,0.0,0.0,0.0,0.0,0.0,0.0,0.0
1.987,0.0,0.0,0.0,0.122,0.915,0.122,0.0,0.0,0.0,0.0,0.0,0.0,0.0,0.0
1.997,0.267,-0.129,0.944,0.061,0.915,0.061,0.0,0.0,0.0,0.0,0.0,0.0,0.0,0.0
2.007,0.265,-0.133,0.942,0.183,0.854,0.0,0.0,0.0,0.0,0.0,0.0,0.0,0.0,0.0
2.017,0.269,-0.129,0.944,0.183,0.915,0.0,0.0,0.0,0.0,0.0,0.0,0.0,0.0,0.0
2.027,0.267,-0.129,0.945,0.0,0.0,0.0,0.0,0.0,0.0,0.0,0.0,0.0,0.0,0.0
2.028,0.0,0.0,0.0,0.183,1.037,0.061,0.0,0.0,0.0,0.0,0.0,0.0,0.0,0.0
2.038,0.269,-0.129,0.946,0.183,1.037,0.061,0.0,0.0,0.0,0.0,0.0,0.0,0.0,0.0
2.047,0.0,0.0,0.0,0.183,0.976,0.061,0.0,0.0,0.0,0.0,0.0,0.0,0.0,0.0
2.048,0.266,-0.131,0.945,0.0,0.0,0.0,0.0,0.0,0.0,0.0,0.0,0.0,0.0,0.0
2.057,0.266,-0.131,0.946,0.061,0.915,0.061,0.0,0.0,0.0,0.0,0.0,0.0,0.0,0.0
2.067,0.271,-0.13,0.944,0.0,0.915,0.122,0.0,0.0,0.0,0.0,0.0,0.0,0.0,0.0
2.077,0.268,-0.13,0.944,0.0,0.976,0.122,0.0,0.0,0.0,0.0,0.0,0.0,0.0,0.0
2.087,0.267,-0.131,0.942,0.0,0.0,0.0,0.0,0.0,0.0,0.0,0.0,0.0,0.0,0.0
2.088,0.0,0.0,0.0,0.061,0.915,0.122,0.0,0.0,0.0,0.0,0.0,0.0,0.0,0.0
2.098,0.268,-0.131,0.943,0.061,0.854,0.061,0.0,0.0,0.0,0.0,0.0,0.0,0.0,0.0
2.108,0.266,-0.132,0.942,0.061,0.976,0.061,0.0,0.0,0.0,0.0,0.0,0.0,0.0,0.0
2.117,0.0,0.0,0.0,0.061,0.854,0.0,0.0,0.0,0.0,0.0,0.0,0.0,0.0,0.0
2.118,0.267,-0.132,0.941,0.0,0.0,0.0,0.0,0.0,0.0,0.0,0.0,0.0,0.0,0.0
2.127,0.265,-0.13,0.941,0.061,0.854,0.0,0.0,0.0,0.0,0.0,0.0,0.0,0.0,0.0
2.137,0.268,-0.129,0.946,0.122,0.976,0.0,0.0,0.0,0.0,0.0,0.0,0.0,0.0,0.0
2.147,0.268,-0.128,0.946,0.0,0.0,0.0,0.0,0.0,0.0,0.0,0.0,0.0,0.0,0.0
2.148,0.0,0.0,0.0,0.061,0.976,0.061,0.0,0.0,0.0,0.0,0.0,0.0,0.0,0.0
2.158,0.266,-0.13,0.942,0.122,0.915,0.0,0.0,0.0,0.0,0.0,0.0,0.0,0.0,0.0
2.168,0.267,-0.13,0.946,0.122,0.915,0.061,0.0,0.0,0.0,0.0,0.0,0.0,0.0,0.0
2.178,0.268,-0.13,0.946,0.122,0.915,0.061,0.0,0.0,0.0,0.0,0.0,0.0,0.0,0.0
2.187,0.0,0.0,0.0,0.122,0.854,0.061,0.0,0.0,0.0,0.0,0.0,0.0,0.0,0.0
2.188,0.269,-0.13,0.943,0.0,0.0,0.0,0.0,0.0,0.0,0.0,0.0,0.0,0.0,0.0
2.197,0.267,-0.129,0.944,0.061,0.915,0.061,0.0,0.0,0.0,0.0,0.0,0.0,0.0,0.0
2.207,0.268,-0.131,0.944,0.0,0.0,0.0,0.0,0.0,0.0,0.0,0.0,0.0,0.0,0.0
2.208,0.0,0.0,0.0,0.244,0.854,0.061,0.0,0.0,0.0,0.0,0.0,0.0,0.0,0.0
2.218,0.268,-0.131,0.943,0.244,0.854,0.0,0.0,0.0,0.0,0.0,0.0,0.0,0.0,0.0
2.228,0.266,-0.132,0.943,0.305,0.915,0.0,0.0,0.0,0.0,0.0,0.0,0.0,0.0,0.0
2.238,0.266,-0.132,0.946,0.122,0.915,0.061,0.0,0.0,0.0,0.0,0.0,0.0,0.0,0.0
2.247,0.0,0.0,0.0,0.122,0.854,0.061,0.0,0.0,0.0,0.0,0.0,0.0,0.0,0.0
2.248,0.269,-0.13,0.947,0.0,0.0,0.0,0.0,0.0,0.0,0.0,0.0,0.0,0.0,0.0
2.257,0.269,-0.131,0.942,0.0,0.0,0.0,0.0,0.0,0.0,0.0,0.0,0.0,0.0,0.0
2.258,0.0,0.0,0.0,0.061,0.915,0.061,0.0,0.0,0.0,0.0,0.0,0.0,0.0,0.0
2.268,0.268,-0.13,0.943,0.122,0.915,0.061,0.0,0.0,0.0,0.0,0.0,0.0,0.0,0.0
2.278,0.266,-0.129,0.944,0.0,0.854,0.122,0.0,0.0,0.0,0.0,0.0,0.0,0.0,0.0
2.288,0.267,-0.129,0.944,-0.061,0.854,0.0,0.0,0.0,0.0,0.0,0.0,0.0,0.0,0.0
2.298,0.269,-0.13,0.947,0.0,0.0,0.0,0.0,0.0,0.0,0.0,0.0,0.0,0.0,0.0
2.299,0.0,0.0,0.0,-0.061,0.854,0.061,0.0,0.0,0.0,0.0,0.0,0.0,0.0,0.0
2.309,0.265,-0.131,0.944,-0.061,0.793,0.061,0.0,0.0,0.0,0.0,0.0,0.0,0.0,0.0
2.318,0.0,0.0,0.0,0.0,0.976,0.122,0.0,0.0,0.0,0.0,0.0,0.0,0.0,0.0
2.319,0.267,-0.131,0.945,0.0,0.0,0.0,0.0,0.0,0.0,0.0,0.0,0.0,0.0,0.0
2.328,0.27,-0.133,0.945,-0.061,0.915,0.061,0.0,0.0,0.0,0.0,0.0,0.0,0.0,0.0
2.338,0.264,-0.13,0.945,0.061,0.976,0.061,0.0,0.0,0.0,0.0,0.0,0.0,0.0,0.0
2.348,0.267,-0.13,0.945,0.0,0.976,0.122,0.0,0.0,0.0,0.0,0.0,0.0,0.0,0.0
2.358,0.268,-0.13,0.944,0.0,0.0,0.0,0.0,0.0,0.0,0.0,0.0,0.0,0.0,0.0
2.359,0.0,0.0,0.0,-0.061,0.915,0.061,0.0,0.0,0.0,0.0,0.0,0.0,0.0,0.0
2.369,0.269,-0.129,0.945,0.0,0.915,0.061,0.0,0.0,0.0,0.0,0.0,0.0,0.0,0.0
2.379,0.268,-0.129,0.942,0.061,1.037,0.122,0.0,0.0,0.0,0.0,0.0,0.0,0.0,0.0
2.388,0.269,-0.126,0.943,0.061,0.976,0.061,0.0,0.0,0.0,0.0,0.0,0.0,0.0,0.0
2.398,0.267,-0.127,0.945,-0.061,0.915,0.061,0.0,0.0,0.0,0.0,0.0,0.0,0.0,0.0
2.408,0.266,-0.13,0.943,0.0,0.854,0.183,0.0,0.0,0.0,0.0,0.0,0.0,0.0,0.0
2.418,0.269,-0.131,0.943,0.0,0.0,0.0,0.0,0.0,0.0,0.0,0.0,0.0,0.0,0.0
2.419,0.0,0.0,0.0,0.061,0.915,0.061,0.0,0.0,0.0,0.0,0.0,0.0,0.0,0.0
2.429,0.27,-0.129,0.944,0.061,0.915,0.061,0.0,0.0,0.0,0.0,0.0,0.0,0.0,0.0
2.439,0.27,-0.129,0.944,0.0,0.976,0.061,0.0,0.0,0.0,0.0,0.0,0.0,0.0,0.0
2.449,0.268,-0.13,0.941,0.061,0.854,0.122,0.0,0.0,0.0,0.0,0.0,0.0,0.0,0.0
2.458,0.268,-0.129,0.943,0.0,0.854,0.183,0.0,0.0,0.0,0.0,0.0,0.0,0.0,0.0
2.468,0.267,-0.128,0.944,0.0,0.854,0.0,0.0,0.0,0.0,0.0,0.0,0.0,0.0,0.0
2.478,0.266,-0.13,0.945,0.0,0.0,0.0,0.0,0.0,0.0,0.0,0.0,0.0,0.0,0.0
2.479,0.0,0.0,0.0,0.061,0.915,0.0,0.0,0.0,0.0,0.0,0.0,0.0,0.0,0.0
2.489,0.267,-0.131,0.944,0.061,0.915,0.061,0.0,0.0,0.0,0.0,0.0,0.0,0.0,0.0
2.499,0.267,-0.129,0.944,0.0,0.915,0.061,0.0,0.0,0.0,0.0,0.0,0.0,0.0,0.0
2.509,0.267,-0.131,0.944,0.061,0.915,0.061,0.0,0.0,0.0,0.0,0.0,0.0,0.0,0.0
2.518,0.0,0.0,0.0,0.0,0.915,0.061,0.0,0.0,0.0,0.0,0.0,0.0,0.0,0.0
2.519,0.269,-0.13,0.945,0.0,0.0,0.0,0.0,0.0,0.0,0.0,0.0,0.0,0.0,0.0
2.528,0.268,-0.128,0.944,0.0,0.0,0.0,0.0,0.0,0.0,0.0,0.0,0.0,0.0,0.0
2.529,0.0,0.0,0.0,0.061,0.915,0.061,0.0,0.0,0.0,0.0,0.0,0.0,0.0,0.0
2.539,0.265,-0.13,0.945,0.061,0.854,0.061,0.0,0.0,0.0,0.0,0.0,0.0,0.0,0.0
2.549,0.269,-0.129,0.944,0.0,0.854,0.061,0.0,0.0,0.0,0.0,0.0,0.0,0.0,0.0
2.559,0.266,-0.129,0.942,0.0,0.976,0.122,0.0,0.0,0.0,0.0,0.0,0.0,0.0,0.0
2.569,0.266,-0.129,0.942,0.0,0.0,0.0,0.0,0.0,0.0,0.0,0.0,0.0,0.0,0.0
2.57,0.0,0.0,0.0,0.0,0.976,0.0,0.0,0.0,0.0,0.0,0.0,0.0,0.0,0.0
2.58,0.269,-0.128,0.943,0.061,0.976,0.0,0.0,0.0,0.0,0.0,0.0,0.0,0.0,0.0
2.589,0.0,0.0,0.0,-0.061,0.976,0.122,0.0,0.0,0.0,0.0,0.0,0.0,0.0,0.0
2.59,0.267,-0.13,0.947,0.0,0.0,0.0,0.0,0.0,0.0,0.0,0.0,0.0,0.0,0.0
2.599,0.268,-0.129,0.947,0.061,0.976,0.0,0.0,0.0,0.0,0.0,0.0,0.0,0.0,0.0
2.609,0.268,-0.13,0.943,0.122,0.915,0.061,0.0,0.0,0.0,0.0,0.0,0.0,0.0,0.0
2.619,0.268,-0.129,0.943,0.122,0.976,0.061,0.0,0.0,0.0,0.0,0.0,0.0,0.0,0.0
2.629,0.267,-0.129,0.944,0.0,0.0,0.0,0.0,0.0,0.0,0.0,0.0,0.0,0.0,0.0
2.63,0.0,0.0,0.0,0.061,0.976,0.122,0.0,0.0,0.0,0.0,0.0,0.0,0.0,0.0
2.64,0.265,-0.131,0.942,0.061,0.976,0.122,0.0,0.0,0.0,0.0,0.0,0.0,0.0,0.0
2.649,0.0,0.0,0.0,0.0,0.915,0.122,0.0,0.0,0.0,0.0,0.0,0.0,0.0,0.0
2.65,0.269,-0.13,0.943,0.0,0.0,0.0,0.0,0.0,0.0,0.0,0.0,0.0,0.0,0.0
2.659,0.266,-0.129,0.945,0.0,0.854,0.061,0.0,0.0,0.0,0.0,0.0,0.0,0.0,0.0
2.669,0.267,-0.131,0.944,0.122,0.915,0.061,0.0,0.0,0.0,0.0,0.0,0.0,0.0,0.0
2.679,0.265,-0.13,0.943,0.0,0.915,0.061,0.0,0.0,0.0,0.0,0.0,0.0,0.0,0.0
2.689,0.266,-0.13,0.944,0.0,0.0,0.0,0.0,0.0,0.0,0.0,0.0,0.0,0.0,0.0
2.69,0.0,0.0,0.0,0.0,0.976,0.061,0.0,0.0,0.0,0.0,0.0,0.0,0.0,0.0
2.7,0.268,-0.13,0.944,0.122,1.037,0.061,0.0,0.0,0.0,0.0,0.0,0.0,0.0,0.0
2.71,0.268,-0.129,0.943,0.122,0.915,0.061,0.0,0.0,0.0,0.0,0.0,0.0,0.0,0.0
2.719,0.0,0.0,0.0,0.0,0.854,0.122,0.0,0.0,0.0,0.0,0.0,0.0,0.0,0.0
2.72,0.267,-0.13,0.942,0.0,0.0,0.0,0.0,0.0,0.0,0.0,0.0,0.0,0.0,0.0
2.729,0.269,-0.129,0.945,0.061,0.915,0.122,0.0,0.0,0.0,0.0,0.0,0.0,0.0,0.0
2.739,0.267,-0.13,0.944,0.122,0.915,0.061,0.0,0.0,0.0,0.0,0.0,0.0,0.0,0.0
2.749,0.266,-0.13,0.944,0.0,0.0,0.0,0.0,0.0,0.0,0.0,0.0,0.0,0.0,0.0
2.75,0.0,0.0,0.0,0.122,0.854,0.122,0.0,0.0,0.0,0.0,0.0,0.0,0.0,0.0
2.76,0.269,-0.132,0.945,0.061,0.915,0.0,0.0,0.0,0.0,0.0,0.0,0.0,0.0,0.0
2.77,0.266,-0.133,0.941,0.122,0.915,-0.061,0.0,0.0,0.0,0.0,0.0,0.0,0.0,0.0
2.78,0.266,-0.132,0.947,0.183,0.976,0.061,0.0,0.0,0.0,0.0,0.0,0.0,0.0,0.0
2.789,0.0,0.0,0.0,0.061,0.854,0.0,0.0,0.0,0.0,0.0,0.0,0.0,0.0,0.0
2.79,0.267,-0.13,0.944,0.0,0.0,0.0,0.0,0.0,0.0,0.0,0.0,0.0,0.0,0.0
2.799,0.267,-0.13,0.941,0.0,0.0,0.0,0.0,0.0,0.0,0.0,0.0,0.0,0.0,0.0
2.8,0.0,0.0,0.0,0.122,0.854,0.0,0.0,0.0,0.0,0.0,0.0,0.0,0.0,0.0
2.81,0.268,-0.129,0.947,0.122,0.915,0.061,0.0,0.0,0.0,0.0,0.0,0.0,0.0,0.0
2.82,0.267,-0.129,0.947,0.061,0.976,0.122,0.0,0.0,0.0,0.0,0.0,0.0,0.0,0.0
2.83,0.264,-0.132,0.942,0.0,1.037,0.183,0.0,0.0,0.0,0.0,0.0,0.0,0.0,0.0
2.84,0.268,-0.13,0.942,0.0,0.0,0.0,0.0,0.0,0.0,0.0,0.0,0.0,0.0,0.0
2.841,0.0,0.0,0.0,0.0,0.976,0.061,0.0,0.0,0.0,0.0,0.0,0.0,0.0,0.0
2.851,0.266,-0.128,0.943,0.0,0.976,0.0,0.0,0.0,0.0,0.0,0.0,0.0,0.0,0.0
2.86,0.0,0.0,0.0,0.061,1.037,0.122,0.0,0.0,0.0,0.0,0.0,0.0,0.0,0.0
2.861,0.267,-0.13,0.943,0.0,0.0,0.0,0.0,0.0,0.0,0.0,0.0,0.0,0.0,0.0
2.87,0.268,-0.13,0.943,0.061,0.976,0.122,0.0,0.0,0.0,0.0,0.0,0.0,0.0,0.0
2.88,0.265,-0.13,0.941,0.0,0.976,0.122,0.0,0.0,0.0,0.0,0.0,0.0,0.0,0.0
2.89,0.269,-0.127,0.943,-0.061,0.915,0.122,0.0,0.0,0.0,0.0,0.0,0.0,0.0,0.0
2.9,0.266,-0.129,0.944,0.0,0.0,0.0,0.0,0.0,0.0,0.0,0.0,0.0,0.0,0.0
2.901,0.0,0.0,0.0,0.0,0.854,0.122,0.0,0.0,0.0,0.0,0.0,0.0,0.0,0.0
2.911,0.267,-0.13,0.942,0.0,0.915,0.061,0.0,0.0,0.0,0.0,0.0,0.0,0.0,0.0
2.92,0.0,0.0,0.0,0.0,0.915,0.0,0.0,0.0,0.0,0.0,0.0,0.0,0.0,0.0
2.921,0.266,-0.129,0.943,0.0,0.0,0.0,0.0,0.0,0.0,0.0,0.0,0.0,0.0,0.0
2.93,0.269,-0.132,0.947,-0.183,0.976,0.183,0.0,0.0,0.0,0.0,0.0,0.0,0.0,0.0
2.94,0.269,-0.125,0.945,-0.122,0.915,0.244,0.0,0.0,0.0,0.0,0.0,0.0,0.0,0.0
2.95,0.266,-0.132,0.942,0.0,0.915,0.061,0.0,0.0,0.0,0.0,0.0,0.0,0.0,0.0
2.96,0.268,-0.128,0.945,0.0,0.0,0.0,0.0,0.0,0.0,0.0,0.0,0.0,0.0,0.0
2.961,0.0,0.0,0.0,0.0,0.976,0.061,0.0,0.0,0.0,0.0,0.0,0.0,0.0,0.0
2.971,0.268,-0.13,0.941,0.061,0.976,0.122,0.0,0.0,0.0,0.0,0.0,0.0,0.0,0.0
2.981,0.268,-0.129,0.945,-0.061,0.854,0.122,0.0,0.0,0.0,0.0,0.0,0.0,0.0,0.0
2.99,0.0,0.0,0.0,0.0,0.976,0.061,0.0,0.0,0.0,0.0,0.0,0.0,0.0,0.0
2.991,0.267,-0.129,0.943,0.0,0.0,0.0,0.0,0.0,0.0,0.0,0.0,0.0,0.0,0.0
3.0,0.268,-0.13,0.944,0.122,0.976,0.061,0.0,0.0,0.0,0.0,0.0,0.0,0.0,0.0
3.01,0.269,-0.13,0.943,0.061,1.037,0.061,0.0,0.0,0.0,0.0,0.0,0.0,0.0,0.0
3.02,0.266,-0.129,0.945,0.0,0.0,0.0,0.0,0.0,0.0,0.0,0.0,0.0,0.0,0.0
3.021,0.0,0.0,0.0,0.061,0.976,0.061,0.0,0.0,0.0,0.0,0.0,0.0,0.0,0.0
3.031,0.268,-0.129,0.944,0.122,0.915,0.061,0.0,0.0,0.0,0.0,0.0,0.0,0.0,0.0
3.041,0.268,-0.128,0.944,0.061,0.915,0.183,0.0,0.0,0.0,0.0,0.0,0.0,0.0,0.0
3.051,0.267,-0.129,0.944,0.061,0.854,0.122,0.0,0.0,0.0,0.0,0.0,0.0,0.0,0.0
3.06,0.0,0.0,0.0,0.061,0.915,0.061,0.0,0.0,0.0,0.0,0.0,0.0,0.0,0.0
3.061,0.267,-0.131,0.945,0.0,0.0,0.0,0.0,0.0,0.0,0.0,0.0,0.0,0.0,0.0
3.07,0.27,-0.13,0.944,0.0,0.0,0.0,0.0,0.0,0.0,0.0,0.0,0.0,0.0,0.0
3.071,0.0,0.0,0.0,0.122,0.854,0.122,0.0,0.0,0.0,0.0,0.0,0.0,0.0,0.0
3.081,0.265,-0.128,0.941,0.183,0.915,0.061,0.0,0.0,0.0,0.0,0.0,0.0,0.0,0.0
3.091,0.265,-0.13,0.943,0.122,0.915,-0.061,0.0,0.0,0.0,0.0,0.0,0.0,0.0,0.0
3.101,0.266,-0.129,0.945,0.122,0.976,0.0,0.0,0.0,0.0,0.0,0.0,0.0,0.0,0.0
3.111,0.268,-0.127,0.943,0.0,0.0,0.0,0.0,0.0,0.0,0.0,0.0,0.0,0.0,0.0
3.112,0.0,0.0,0.0,0.122,0.854,0.061,0.0,0.0,0.0,0.0,0.0,0.0,0.0,0.0
3.12,0.0,0.0,0.0,0.061,0.854,0.061,0.0,0.0,0.0,0.0,0.0,0.0,0.0,0.0
3.122,0.27,-0.129,0.944,0.0,0.0,0.0,0.0,0.0,0.0,0.0,0.0,0.0,0.0,0.0
3.13,0.269,-0.13,0.944,0.0,0.0,0.0,0.0,0.0,0.0,0.0,0.0,0.0,0.0,0.0
3.131,0.0,0.0,0.0,0.061,0.854,0.061,0.0,0.0,0.0,0.0,0.0,0.0,0.0,0.0
3.141,0.269,-0.129,0.942,0.061,0.854,0.122,0.0,0.0,0.0,0.0,0.0,0.0,0.0,0.0
3.151,0.268,-0.13,0.944,0.0,0.976,0.122,0.0,0.0,0.0,0.0,0.0,0.0,0.0,0.0
3.161,0.266,-0.128,0.945,0.061,0.915,0.061,0.0,0.0,0.0,0.0,0.0,0.0,0.0,0.0
3.171,0.268,-0.13,0.944,0.0,0.0,0.0,0.0,0.0,0.0,0.0,0.0,0.0,0.0,0.0
3.172,0.0,0.0,0.0,0.0,0.915,0.061,0.0,0.0,0.0,0.0,0.0,0.0,0.0,0.0
3.182,0.267,-0.131,0.946,0.0,0.793,0.061,0.0,0.0,0.0,0.0,0.0,0.0,0.0,0.0
3.191,0.0,0.0,0.0,0.0,0.854,0.061,0.0,0.0,0.0,0.0,0.0,0.0,0.0,0.0
3.192,0.266,-0.129,0.947,0.0,0.0,0.0,0.0,0.0,0.0,0.0,0.0,0.0,0.0,0.0
3.201,0.267,-0.13,0.943,0.0,0.976,0.122,0.0,0.0,0.0,0.0,0.0,0.0,0.0,0.0
3.211,0.269,-0.131,0.943,0.061,0.915,0.061,0.0,0.0,0.0,0.0,0.0,0.0,0.0,0.0
3.221,0.268,-0.129,0.943,0.0,0.976,0.061,0.0,0.0,0.0,0.0,0.0,0.0,0.0,0.0
3.231,0.269,-0.128,0.945,0.0,0.0,0.0,0.0,0.0,0.0,0.0,0.0,0.0,0.0,0.0
3.232,0.0,0.0,0.0,0.0,0.976,0.061,0.0,0.0,0.0,0.0,0.0,0.0,0.0,0.0
3.242,0.266,-0.129,0.943,0.0,0.976,0.061,0.0,0.0,0.0,0.0,0.0,0.0,0.0,0.0
3.252,0.267,-0.129,0.943,0.0,0.915,0.061,0.0,0.0,0.0,0.0,0.0,0.0,0.0,0.0
3.261,0.268,-0.128,0.943,0.0,0.915,0.061,0.0,0.0,0.0,0.0,0.0,0.0,0.0,0.0
3.271,0.269,-0.128,0.944,-0.061,0.976,0.061,0.0,0.0,0.0,0.0,0.0,0.0,0.0,0.0
3.281,0.265,-0.129,0.943,0.0,0.915,0.061,0.0,0.0,0.0,0.0,0.0,0.0,0.0,0.0
3.291,0.267,-0.131,0.943,0.0,0.0,0.0,0.0,0.0,0.0,0.0,0.0,0.0,0.0,0.0
3.292,0.0,0.0,0.0,0.061,0.854,0.061,0.0,0.0,0.0,0.0,0.0,0.0,0.0,0.0
3.302,0.267,-0.13,0.945,0.0,0.915,0.061,0.0,0.0,0.0,0.0,0.0,0.0,0.0,0.0
3.312,0.266,-0.129,0.943,-0.061,0.915,0.061,0.0,0.0,0.0,0.0,0.0,0.0,0.0,0.0
3.322,0.266,-0.129,0.943,0.0,0.854,0.061,0.0,0.0,0.0,0.0,0.0,0.0,0.0,0.0
3.331,0.27,-0.127,0.944,0.0,0.854,0.122,0.0,0.0,0.0,0.0,0.0,0.0,0.0,0.0
3.341,0.269,-0.128,0.942,-0.061,0.854,0.122,0.0,0.0,0.0,0.0,0.0,0.0,0.0,0.0
3.351,0.268,-0.13,0.944,0.0,0.0,0.0,0.0,0.0,0.0,0.0,0.0,0.0,0.0,0.0
3.352,0.0,0.0,0.0,0.061,0.854,0.061,0.0,0.0,0.0,0.0,0.0,0.0,0.0,0.0
3.362,0.267,-0.129,0.944,0.061,0.854,0.122,0.0,0.0,0.0,0.0,0.0,0.0,0.0,0.0
3.372,0.266,-0.13,0.943,0.061,0.915,0.061,0.0,0.0,0.0,0.0,0.0,0.0,0.0,0.0
3.382,0.268,-0.129,0.944,0.0,0.0,0.0,0.0,0.0,0.0,0.0,0.0,0.0,0.0,0.0
3.383,0.0,0.0,0.0,0.061,0.915,0.061,0.0,0.0,0.0,0.0,0.0,0.0,0.0,0.0
3.391,0.0,0.0,0.0,-0.061,0.915,0.122,0.0,0.0,0.0,0.0,0.0,0.0,0.0,0.0
3.393,0.267,-0.129,0.943,0.0,0.0,0.0,0.0,0.0,0.0,0.0,0.0,0.0,0.0,0.0
3.401,0.268,-0.129,0.943,0.0,0.0,0.0,0.0,0.0,0.0,0.0,0.0,0.0,0.0,0.0
3.402,0.0,0.0,0.0,-0.122,0.915,0.122,0.0,0.0,0.0,0.0,0.0,0.0,0.0,0.0
3.412,0.267,-0.129,0.947,-0.122,0.976,0.061,0.0,0.0,0.0,0.0,0.0,0.0,0.0,0.0
3.422,0.269,-0.133,0.945,0.0,1.037,0.061,0.0,0.0,0.0,0.0,0.0,0.0,0.0,0.0
3.432,0.27,-0.13,0.945,0.0,0.976,0.183,0.0,0.0,0.0,0.0,0.0,0.0,0.0,0.0
3.442,0.267,-0.13,0.944,0.0,0.0,0.0,0.0,0.0,0.0,0.0,0.0,0.0,0.0,0.0
3.443,0.0,0.0,0.0,0.061,0.915,0.183,0.0,0.0,0.0,0.0,0.0,0.0,0.0,0.0
3.453,0.267,-0.129,0.941,0.0,0.915,0.183,0.0,0.0,0.0,0.0,0.0,0.0,0.0,0.0
3.462,0.0,0.0,0.0,0.0,0.854,0.122,0.0,0.0,0.0,0.0,0.0,0.0,0.0,0.0
3.463,0.266,-0.129,0.943,0.0,0.0,0.0,0.0,0.0,0.0,0.0,0.0,0.0,0.0,0.0
3.472,0.268,-0.129,0.946,0.061,0.976,0.122,0.0,0.0,0.0,0.0,0.0,0.0,0.0,0.0
3.482,0.268,-0.129,0.945,0.061,0.915,0.122,0.0,0.0,0.0,0.0,0.0,0.0,0.0,0.0
3.492,0.266,-0.13,0.944,0.0,0.854,0.183,0.0,0.0,0.0,0.0,0.0,0.0,0.0,0.0
3.502,0.267,-0.129,0.943,0.0,0.0,0.0,0.0,0.0,0.0,0.0,0.0,0.0,0.0,0.0
3.503,0.0,0.0,0.0,0.061,0.854,0.122,0.0,0.0,0.0,0.0,0.0,0.0,0.0,0.0
3.513,0.266,-0.128,0.945,0.061,0.915,0.061,0.0,0.0,0.0,0.0,0.0,0.0,0.0,0.0
3.522,0.0,0.0,0.0,0.061,0.915,0.122,0.0,0.0,0.0,0.0,0.0,0.0,0.0,0.0
3.523,0.267,-0.13,0.944,0.0,0.0,0.0,0.0,0.0,0.0,0.0,0.0,0.0,0.0,0.0
3.532,0.267,-0.128,0.944,0.122,0.915,0.122,0.0,0.0,0.0,0.0,0.0,0.0,0.0,0.0
3.542,0.267,-0.129,0.943,0.061,0.915,0.122,0.0,0.0,0.0,0.0,0.0,0.0,0.0,0.0
3.552,0.268,-0.13,0.94,0.0,0.915,0.122,0.0,0.0,0.0,0.0,0.0,0.0,0.0,0.0
3.562,0.266,-0.13,0.945,0.0,0.0,0.0,0.0,0.0,0.0,0.0,0.0,0.0,0.0,0.0
3.563,0.0,0.0,0.0,0.061,0.976,0.061,0.0,0.0,0.0,0.0,0.0,0.0,0.0,0.0
3.573,0.268,-0.129,0.942,0.122,0.915,0.061,0.0,0.0,0.0,0.0,0.0,0.0,0.0,0.0
3.583,0.269,-0.131,0.944,0.122,0.854,0.183,0.0,0.0,0.0,0.0,0.0,0.0,0.0,0.0
3.592,0.0,0.0,0.0,0.0,0.915,0.061,0.0,0.0,0.0,0.0,0.0,0.0,0.0,0.0
3.593,0.266,-0.127,0.943,0.0,0.0,0.0,0.0,0.0,0.0,0.0,0.0,0.0,0.0,0.0
3.602,0.266,-0.127,0.943,0.061,0.915,0.183,0.0,0.0,0.0,0.0,0.0,0.0,0.0,0.0
3.612,0.269,-0.129,0.946,0.183,0.793,0.122,0.0,0.0,0.0,0.0,0.0,0.0,0.0,0.0
3.622,0.268,-0.131,0.944,0.0,0.0,0.0,0.0,0.0,0.0,0.0,0.0,0.0,0.0,0.0
3.623,0.0,0.0,0.0,0.183,0.854,0.061,0.0,0.0,0.0,0.0,0.0,0.0,0.0,0.0
3.633,0.266,-0.128,0.943,0.061,0.915,0.0,0.0,0.0,0.0,0.0,0.0,0.0,0.0,0.0
3.643,0.265,-0.129,0.947,0.061,0.915,0.061,0.0,0.0,0.0,0.0,0.0,0.0,0.0,0.0
3.653,0.267,-0.13,0.945,0.0,0.0,0.0,0.0,0.0,0.0,0.0,0.0,0.0,0.0,0.0
3.654,0.0,0.0,0.0,0.0,0.915,0.061,0.0,0.0,0.0,0.0,0.0,0.0,0.0,0.0
3.662,0.0,0.0,0.0,0.0,0.976,0.0,0.0,0.0,0.0,0.0,0.0,0.0,0.0,0.0
3.664,0.267,-0.129,0.944,0.0,0.0,0.0,0.0,0.0,0.0,0.0,0.0,0.0,0.0,0.0
3.672,0.267,-0.129,0.944,0.0,0.0,0.0,0.0,0.0,0.0,0.0,0.0,0.0,0.0,0.0
3.673,0.0,0.0,0.0,-0.061,0.915,0.061,0.0,0.0,0.0,0.0,0.0,0.0,0.0,0.0
3.683,0.265,-0.129,0.945,0.061,0.915,0.061,0.0,0.0,0.0,0.0,0.0,0.0,0.0,0.0
3.693,0.264,-0.129,0.944,0.122,0.915,0.122,0.0,0.0,0.0,0.0,0.0,0.0,0.0,0.0
3.703,0.267,-0.129,0.943,0.061,0.854,0.061,0.0,0.0,0.0,0.0,0.0,0.0,0.0,0.0
3.713,0.27,-0.128,0.945,0.0,0.0,0.0,0.0,0.0,0.0,0.0,0.0,0.0,0.0,0.0
3.714,0.0,0.0,0.0,0.061,0.915,0.122,0.0,0.0,0.0,0.0,0.0,0.0,0.0,0.0
3.724,0.266,-0.128,0.946,0.061,0.976,0.122,0.0,0.0,0.0,0.0,0.0,0.0,0.0,0.0
3.733,0.0,0.0,0.0,0.0,0.915,0.122,0.0,0.0,0.0,0.0,0.0,0.0,0.0,0.0
3.734,0.266,-0.131,0.947,0.0,0.0,0.0,0.0,0.0,0.0,0.0,0.0,0.0,0.0,0.0
3.743,0.267,-0.129,0.947,0.0,0.915,0.061,0.0,0.0,0.0,0.0,0.0,0.0,0.0,0.0
3.753,0.266,-0.13,0.943,-0.122,0.854,0.122,0.0,0.0,0.0,0.0,0.0,0.0,0.0,0.0
3.763,0.266,-0.13,0.945,0.0,0.793,0.183,0.0,0.0,0.0,0.0,0.0,0.0,0.0,0.0
3.773,0.267,-0.128,0.944,0.0,0.0,0.0,0.0,0.0,0.0,0.0,0.0,0.0,0.0,0.0
3.774,0.0,0.0,0.0,-0.061,0.976,0.061,0.0,0.0,0.0,0.0,0.0,0.0,0.0,0.0
3.784,0.268,-0.128,0.944,0.0,0.976,0.061,0.0,0.0,0.0,0.0,0.0,0.0,0.0,0.0
3.793,0.0,0.0,0.0,0.0,0.915,0.122,0.0,0.0,0.0,0.0,0.0,0.0,0.0,0.0
3.794,0.267,-0.129,0.944,0.0,0.0,0.0,0.0,0.0,0.0,0.0,0.0,0.0,0.0,0.0
3.803,0.267,-0.128,0.944,0.0,0.915,0.061,0.0,0.0,0.0,0.0,0.0,0.0,0.0,0.0
3.813,0.266,-0.129,0.942,-0.061,0.854,0.061,0.0,0.0,0.0,0.0,0.0,0.0,0.0,0.0
3.823,0.268,-0.129,0.946,0.0,0.976,0.122,0.0,0.0,0.0,0.0,0.0,0.0,0.0,0.0
3.833,0.27,-0.129,0.945,0.0,0.0,0.0,0.0,0.0,0.0,0.0,0.0,0.0,0.0,0.0
3.834,0.0,0.0,0.0,0.0,0.915,0.122,0.0,0.0,0.0,0.0,0.0,0.0,0.0,0.0
3.844,0.27,-0.131,0.943,-0.061,0.854,0.122,0.0,0.0,0.0,0.0,0.0,0.0,0.0,0.0
3.854,0.268,-0.129,0.944,-0.061,0.854,0.061,0.0,0.0,0.0,0.0,0.0,0.0,0.0,0.0
3.863,0.0,0.0,0.0,-0.122,0.854,0.061,0.0,0.0,0.0,0.0,0.0,0.0,0.0,0.0
3.864,0.266,-0.129,0.947,0.0,0.0,0.0,0.0,0.0,0.0,0.0,0.0,0.0,0.0,0.0
3.873,0.269,-0.13,0.945,-0.061,0.854,0.061,0.0,0.0,0.0,0.0,0.0,0.0,0.0,0.0
3.883,0.27,-0.13,0.944,0.061,0.976,0.0,0.0,0.0,0.0,0.0,0.0,0.0,0.0,0.0
3.893,0.268,-0.128,0.944,0.0,0.0,0.0,0.0,0.0,0.0,0.0,0.0,0.0,0.0,0.0
3.894,0.0,0.0,0.0,0.0,0.915,0.122,0.0,0.0,0.0,0.0,0.0,0.0,0.0,0.0
3.904,0.266,-0.128,0.942,-0.183,0.854,0.122,0.0,0.0,0.0,0.0,0.0,0.0,0.0,0.0
3.914,0.265,-0.129,0.942,-0.183,0.915,0.183,0.0,0.0,0.0,0.0,0.0,0.0,0.0,0.0
3.924,0.267,-0.13,0.945,0.0,0.0,0.0,0.0,0.0,0.0,0.0,0.0,0.0,0.0,0.0
3.925,0.0,0.0,0.0,-0.122,0.915,0.122,0.0,0.0,0.0,0.0,0.0,0.0,0.0,0.0
3.933,0.267,-0.129,0.941,-0.122,0.793,0.122,0.0,0.0,0.0,0.0,0.0,0.0,0.0,0.0
3.943,0.267,-0.13,0.943,0.0,0.0,0.0,0.0,0.0,0.0,0.0,0.0,0.0,0.0,0.0
3.944,0.0,0.0,0.0,-0.061,0.854,0.0,0.0,0.0,0.0,0.0,0.0,0.0,0.0,0.0
3.954,0.267,-0.128,0.944,-0.061,0.915,0.0,0.0,0.0,0.0,0.0,0.0,0.0,0.0,0.0
3.964,0.268,-0.129,0.943,-0.122,0.793,0.122,0.0,0.0,0.0,0.0,0.0,0.0,0.0,0.0
3.974,0.266,-0.128,0.942,-0.061,0.915,0.122,0.0,0.0,0.0,0.0,0.0,0.0,0.0,0.0
3.984,0.268,-0.127,0.945,0.0,0.0,0.0,0.0,0.0,0.0,0.0,0.0,0.0,0.0,0.0
3.985,0.0,0.0,0.0,-0.061,0.976,0.122,0.0,0.0,0.0,0.0,0.0,0.0,0.0,0.0
3.993,0.0,0.0,0.0,-0.122,0.915,0.122,0.0,0.0,0.0,0.0,0.0,0.0,0.0,0.0
3.995,0.268,-0.126,0.945,0.0,0.0,0.0,0.0,0.0,0.0,0.0,0.0,0.0,0.0,0.0
4.003,0.267,-0.129,0.942,0.0,0.0,0.0,0.0,0.0,0.0,0.0,0.0,0.0,0.0,0.0
4.004,0.0,0.0,0.0,-0.061,0.915,0.0,0.0,0.0,0.0,0.0,0.0,0.0,0.0,0.0
4.014,0.27,-0.129,0.946,-0.061,0.915,0.061,0.0,0.0,0.0,0.0,0.0,0.0,0.0,0.0
4.024,0.271,-0.13,0.946,-0.183,0.976,0.183,0.0,0.0,0.0,0.0,0.0,0.0,0.0,0.0
4.034,0.267,-0.13,0.943,-0.244,1.037,0.122,0.0,0.0,0.0,0.0,0.0,0.0,0.0,0.0
4.044,0.265,-0.128,0.941,0.0,0.0,0.0,0.0,0.0,0.0,0.0,0.0,0.0,0.0,0.0
4.045,0.0,0.0,0.0,-0.122,0.976,0.061,0.0,0.0,0.0,0.0,0.0,0.0,0.0,0.0
4.055,0.269,-0.129,0.944,-0.183,0.976,0.061,0.0,0.0,0.0,0.0,0.0,0.0,0.0,0.0
4.064,0.0,0.0,0.0,-0.183,0.915,0.061,0.0,0.0,0.0,0.0,0.0,0.0,0.0,0.0
4.065,0.269,-0.131,0.944,0.0,0.0,0.0,0.0,0.0,0.0,0.0,0.0,0.0,0.0,0.0
4.074,0.266,-0.13,0.943,-0.122,0.915,0.122,0.0,0.0,0.0,0.0,0.0,0.0,0.0,0.0
4.084,0.264,-0.128,0.945,-0.183,0.915,0.183,0.0,0.0,0.0,0.0,0.0,0.0,0.0,0.0
4.094,0.266,-0.129,0.942,-0.061,0.854,0.122,0.0,0.0,0.0,0.0,0.0,0.0,0.0,0.0
4.104,0.267,-0.129,0.944,0.0,0.0,0.0,0.0,0.0,0.0,0.0,0.0,0.0,0.0,0.0
4.105,0.0,0.0,0.0,-0.122,0.854,0.122,0.0,0.0,0.0,0.0,0.0,0.0,0.0,0.0
4.115,0.267,-0.13,0.948,-0.122,0.854,0.183,0.0,0.0,0.0,0.0,0.0,0.0,0.0,0.0
4.125,0.268,-0.129,0.947,-0.122,0.915,0.122,0.0,0.0,0.0,0.0,0.0,0.0,0.0,0.0
4.134,0.0,0.0,0.0,-0.061,0.976,0.061,0.0,0.0,0.0,0.0,0.0,0.0,0.0,0.0
4.135,0.266,-0.133,0.943,0.0,0.0,0.0,0.0,0.0,0.0,0.0,0.0,0.0,0.0,0.0
4.144,0.267,-0.131,0.941,0.0,0.915,0.061,0.0,0.0,0.0,0.0,0.0,0.0,0.0,0.0
4.154,0.266,-0.128,0.942,0.0,0.854,0.061,0.0,0.0,0.0,0.0,0.0,0.0,0.0,0.0
4.164,0.265,-0.129,0.943,0.0,0.0,0.0,0.0,0.0,0.0,0.0,0.0,0.0,0.0,0.0
4.165,0.0,0.0,0.0,0.0,0.976,0.183,0.0,0.0,0.0,0.0,0.0,0.0,0.0,0.0
4.175,0.268,-0.129,0.943,-0.122,0.915,0.122,0.0,0.0,0.0,0.0,0.0,0.0,0.0,0.0
4.185,0.265,-0.128,0.942,-0.061,0.915,0.122,0.0,0.0,0.0,0.0,0.0,0.0,0.0,0.0
4.194,0.0,0.0,0.0,-0.122,0.976,0.122,0.0,0.0,0.0,0.0,0.0,0.0,0.0,0.0
4.195,0.268,-0.128,0.946,0.0,0.0,0.0,0.0,0.0,0.0,0.0,0.0,0.0,0.0,0.0
4.204,0.268,-0.13,0.944,-0.061,0.915,0.122,0.0,0.0,0.0,0.0,0.0,0.0,0.0,0.0
4.214,0.265,-0.13,0.945,0.0,0.0,0.0,0.0,0.0,0.0,0.0,0.0,0.0,0.0,0.0
4.215,0.0,0.0,0.0,-0.122,0.915,0.122,0.0,0.0,0.0,0.0,0.0,0.0,0.0,0.0
4.225,0.265,-0.129,0.941,-0.061,0.915,0.061,0.0,0.0,0.0,0.0,0.0,0.0,0.0,0.0
4.235,0.266,-0.131,0.944,-0.061,0.854,0.122,0.0,0.0,0.0,0.0,0.0,0.0,0.0,0.0
4.245,0.269,-0.132,0.946,0.0,0.976,0.0,0.0,0.0,0.0,0.0,0.0,0.0,0.0,0.0
4.255,0.266,-0.132,0.943,0.0,0.0,0.0,0.0,0.0,0.0,0.0,0.0,0.0,0.0,0.0
4.256,0.0,0.0,0.0,0.0,0.976,0.0,0.0,0.0,0.0,0.0,0.0,0.0,0.0,0.0
4.264,0.0,0.0,0.0,0.061,0.976,0.061,0.0,0.0,0.0,0.0,0.0,0.0,0.0,0.0
4.266,0.268,-0.13,0.945,0.0,0.0,0.0,0.0,0.0,0.0,0.0,0.0,0.0,0.0,0.0
4.274,0.269,-0.13,0.944,0.0,0.0,0.0,0.0,0.0,0.0,0.0,0.0,0.0,0.0,0.0
4.275,0.0,0.0,0.0,0.122,0.854,0.061,0.0,0.0,0.0,0.0,0.0,0.0,0.0,0.0
4.285,0.267,-0.129,0.942,-0.061,0.854,0.061,0.0,0.0,0.0,0.0,0.0,0.0,0.0,0.0
4.295,0.268,-0.128,0.943,-0.122,0.976,0.061,0.0,0.0,0.0,0.0,0.0,0.0,0.0,0.0
4.305,0.268,-0.129,0.944,0.061,0.915,0.183,0.0,0.0,0.0,0.0,0.0,0.0,0.0,0.0
4.315,0.265,-0.131,0.943,0.0,0.0,0.0,0.0,0.0,0.0,0.0,0.0,0.0,0.0,0.0
4.316,0.0,0.0,0.0,0.122,0.915,0.122,0.0,0.0,0.0,0.0,0.0,0.0,0.0,0.0
4.326,0.265,-0.131,0.945,0.122,0.915,0.061,0.0,0.0,0.0,0.0,0.0,0.0,0.0,0.0
4.335,0.0,0.0,0.0,0.183,0.793,0.0,0.0,0.0,0.0,0.0,0.0,0.0,0.0,0.0
4.336,0.269,-0.131,0.941,0.0,0.0,0.0,0.0,0.0,0.0,0.0,0.0,0.0,0.0,0.0
4.345,0.268,-0.131,0.944,0.244,0.915,0.061,0.0,0.0,0.0,0.0,0.0,0.0,0.0,0.0
4.355,0.265,-0.128,0.947,0.183,0.854,0.061,0.0,0.0,0.0,0.0,0.0,0.0,0.0,0.0
4.365,0.267,-0.131,0.943,0.183,0.915,0.0,0.0,0.0,0.0,0.0,0.0,0.0,0.0,0.0
4.375,0.268,-0.13,0.948,0.0,0.0,0.0,0.0,0.0,0.0,0.0,0.0,0.0,0.0,0.0
4.376,0.0,0.0,0.0,0.061,0.915,0.061,0.0,0.0,0.0,0.0,0.0,0.0,0.0,0.0
4.386,0.268,-0.129,0.943,0.0,0.976,0.122,0.0,0.0,0.0,0.0,0.0,0.0,0.0,0.0
4.396,0.268,-0.13,0.942,0.0,0.976,0.061,0.0,0.0,0.0,0.0,0.0,0.0,0.0,0.0
4.405,0.0,0.0,0.0,0.061,0.976,0.061,0.0,0.0,0.0,0.0,0.0,0.0,0.0,0.0
4.406,0.269,-0.13,0.945,0.0,0.0,0.0,0.0,0.0,0.0,0.0,0.0,0.0,0.0,0.0
4.415,0.268,-0.13,0.945,0.061,0.976,0.0,0.0,0.0,0.0,0.0,0.0,0.0,0.0,0.0
4.425,0.267,-0.127,0.944,0.0,0.915,0.061,0.0,0.0,0.0,0.0,0.0,0.0,0.0,0.0
4.435,0.267,-0.129,0.943,0.0,0.0,0.0,0.0,0.0,0.0,0.0,0.0,0.0,0.0,0.0
4.436,0.0,0.0,0.0,0.061,0.915,0.061,0.0,0.0,0.0,0.0,0.0,0.0,0.0,0.0
4.446,0.268,-0.128,0.944,0.061,0.915,0.122,0.0,0.0,0.0,0.0,0.0,0.0,0.0,0.0
4.456,0.271,-0.128,0.944,0.061,0.854,0.0,0.0,0.0,0.0,0.0,0.0,0.0,0.0,0.0
4.465,0.0,0.0,0.0,0.0,0.976,0.0,0.0,0.0,0.0,0.0,0.0,0.0,0.0,0.0
4.466,0.266,-0.133,0.945,0.0,0.0,0.0,0.0,0.0,0.0,0.0,0.0,0.0,0.0,0.0
4.475,0.266,-0.13,0.946,0.061,0.976,0.061,0.0,0.0,0.0,0.0,0.0,0.0,0.0,0.0
4.485,0.265,-0.129,0.943,0.0,0.0,0.0,0.0,0.0,0.0,0.0,0.0,0.0,0.0,0.0
4.486,0.0,0.0,0.0,0.122,0.976,0.061,0.0,0.0,0.0,0.0,0.0,0.0,0.0,0.0
4.496,0.267,-0.128,0.945,0.061,0.915,0.122,0.0,0.0,0.0,0.0,0.0,0.0,0.0,0.0
4.506,0.27,-0.129,0.942,0.0,0.915,0.0,0.0,0.0,0.0,0.0,0.0,0.0,0.0,0.0
4.516,0.267,-0.13,0.946,0.061,0.854,0.061,0.0,0.0,0.0,0.0,0.0,0.0,0.0,0.0
4.526,0.268,-0.13,0.943,0.0,0.0,0.0,0.0,0.0,0.0,0.0,0.0,0.0,0.0,0.0
4.527,0.0,0.0,0.0,0.061,0.915,0.061,0.0,0.0,0.0,0.0,0.0,0.0,0.0,0.0
4.535,0.0,0.0,0.0,0.122,1.037,0.122,0.0,0.0,0.0,0.0,0.0,0.0,0.0,0.0
4.537,0.27,-0.13,0.944,0.0,0.0,0.0,0.0,0.0,0.0,0.0,0.0,0.0,0.0,0.0
4.545,0.267,-0.13,0.941,0.0,0.0,0.0,0.0,0.0,0.0,0.0,0.0,0.0,0.0,0.0
4.546,0.0,0.0,0.0,0.122,0.915,0.122,0.0,0.0,0.0,0.0,0.0,0.0,0.0,0.0
4.556,0.267,-0.129,0.945,0.122,0.915,0.0,0.0,0.0,0.0,0.0,0.0,0.0,0.0,0.0
4.566,0.268,-0.128,0.944,0.183,0.915,0.061,0.0,0.0,0.0,0.0,0.0,0.0,0.0,0.0
4.576,0.266,-0.13,0.943,0.183,0.915,0.122,0.0,0.0,0.0,0.0,0.0,0.0,0.0,0.0
4.586,0.266,-0.129,0.944,0.0,0.0,0.0,0.0,0.0,0.0,0.0,0.0,0.0,0.0,0.0
4.587,0.0,0.0,0.0,0.061,0.854,0.061,0.0,0.0,0.0,0.0,0.0,0.0,0.0,0.0
4.597,0.266,-0.126,0.947,0.061,0.976,0.061,0.0,0.0,0.0,0.0,0.0,0.0,0.0,0.0
4.605,0.267,-0.128,0.944,0.0,0.0,0.0,0.0,0.0,0.0,0.0,0.0,0.0,0.0,0.0
4.606,0.0,0.0,0.0,0.061,1.098,0.122,0.0,0.0,0.0,0.0,0.0,0.0,0.0,0.0
4.616,0.267,-0.129,0.941,0.061,0.976,0.061,0.0,0.0,0.0,0.0,0.0,0.0,0.0,0.0
4.626,0.266,-0.129,0.945,0.061,0.915,0.122,0.0,0.0,0.0,0.0,0.0,0.0,0.0,0.0
4.636,0.267,-0.13,0.944,0.061,0.976,0.061,0.0,0.0,0.0,0.0,0.0,0.0,0.0,0.0
4.646,0.268,-0.131,0.944,0.0,0.0,0.0,0.0,0.0,0.0,0.0,0.0,0.0,0.0,0.0
4.647,0.0,0.0,0.0,0.0,1.037,0.061,0.0,0.0,0.0,0.0,0.0,0.0,0.0,0.0
4.657,0.266,-0.13,0.943,0.183,0.976,0.122,0.0,0.0,0.0,0.0,0.0,0.0,0.0,0.0
4.666,0.0,0.0,0.0,0.061,0.915,0.061,0.0,0.0,0.0,0.0,0.0,0.0,0.0,0.0
4.667,0.267,-0.128,0.945,0.0,0.0,0.0,0.0,0.0,0.0,0.0,0.0,0.0,0.0,0.0
4.676,0.266,-0.129,0.946,0.122,0.976,0.061,0.0,0.0,0.0,0.0,0.0,0.0,0.0,0.0
4.686,0.266,-0.131,0.942,0.061,0.915,0.061,0.0,0.0,0.0,0.0,0.0,0.0,0.0,0.0
4.696,0.266,-0.129,0.942,0.122,0.854,0.061,0.0,0.0,0.0,0.0,0.0,0.0,0.0,0.0
4.706,0.266,-0.13,0.945,0.0,0.0,0.0,0.0,0.0,0.0,0.0,0.0,0.0,0.0,0.0
4.707,0.0,0.0,0.0,0.122,0.915,0.061,0.0,0.0,0.0,0.0,0.0,0.0,0.0,0.0
4.717,0.268,-0.129,0.946,0.061,0.915,0.061,0.0,0.0,0.0,0.0,0.0,0.0,0.0,0.0
4.727,0.267,-0.131,0.945,0.061,0.976,0.061,0.0,0.0,0.0,0.0,0.0,0.0,0.0,0.0
4.736,0.0,0.0,0.0,0.061,0.915,0.061,0.0,0.0,0.0,0.0,0.0,0.0,0.0,0.0
4.737,0.266,-0.129,0.942,0.0,0.0,0.0,0.0,0.0,0.0,0.0,0.0,0.0,0.0,0.0
4.746,0.267,-0.127,0.942,0.061,0.915,0.0,0.0,0.0,0.0,0.0,0.0,0.0,0.0,0.0
4.756,0.268,-0.13,0.944,0.0,0.0,0.0,0.0,0.0,0.0,0.0,0.0,0.0,0.0,0.0
4.757,0.0,0.0,0.0,0.061,0.915,0.061,0.0,0.0,0.0,0.0,0.0,0.0,0.0,0.0
4.767,0.267,-0.128,0.945,0.244,0.915,0.122,0.0,0.0,0.0,0.0,0.0,0.0,0.0,0.0
4.777,0.267,-0.129,0.946,0.122,0.915,0.061,0.0,0.0,0.0,0.0,0.0,0.0,0.0,0.0
4.787,0.269,-0.129,0.946,0.061,0.915,0.122,0.0,0.0,0.0,0.0,0.0,0.0,0.0,0.0
4.797,0.268,-0.13,0.945,0.0,0.0,0.0,0.0,0.0,0.0,0.0,0.0,0.0,0.0,0.0
4.798,0.0,0.0,0.0,0.0,0.854,0.061,0.0,0.0,0.0,0.0,0.0,0.0,0.0,0.0
4.806,0.0,0.0,0.0,-0.061,0.854,0.061,0.0,0.0,0.0,0.0,0.0,0.0,0.0,0.0
4.808,0.268,-0.13,0.943,0.0,0.0,0.0,0.0,0.0,0.0,0.0,0.0,0.0,0.0,0.0
4.816,0.265,-0.13,0.944,0.0,0.0,0.0,0.0,0.0,0.0,0.0,0.0,0.0,0.0,0.0
4.817,0.0,0.0,0.0,0.061,0.976,0.122,0.0,0.0,0.0,0.0,0.0,0.0,0.0,0.0
4.827,0.267,-0.13,0.945,0.061,0.915,0.061,0.0,0.0,0.0,0.0,0.0,0.0,0.0,0.0
4.837,0.267,-0.132,0.946,0.0,0.915,0.122,0.0,0.0,0.0,0.0,0.0,0.0,0.0,0.0
4.847,0.27,-0.13,0.942,0.061,0.976,0.061,0.0,0.0,0.0,0.0,0.0,0.0,0.0,0.0
4.857,0.269,-0.127,0.947,0.0,0.0,0.0,0.0,0.0,0.0,0.0,0.0,0.0,0.0,0.0
4.858,0.0,0.0,0.0,0.061,0.976,0.122,0.0,0.0,0.0,0.0,0.0,0.0,0.0,0.0
4.866,0.0,0.0,0.0,0.122,0.915,0.122,0.0,0.0,0.0,0.0,0.0,0.0,0.0,0.0
4.868,0.265,-0.13,0.944,0.0,0.0,0.0,0.0,0.0,0.0,0.0,0.0,0.0,0.0,0.0
4.876,0.269,-0.129,0.942,0.0,0.0,0.0,0.0,0.0,0.0,0.0,0.0,0.0,0.0,0.0
4.877,0.0,0.0,0.0,0.061,0.915,0.183,0.0,0.0,0.0,0.0,0.0,0.0,0.0,0.0
4.887,0.268,-0.128,0.943,0.0,0.976,0.122,0.0,0.0,0.0,0.0,0.0,0.0,0.0,0.0
4.897,0.265,-0.129,0.942,0.122,0.976,0.0,0.0,0.0,0.0,0.0,0.0,0.0,0.0,0.0
4.907,0.265,-0.13,0.943,0.183,0.976,0.061,0.0,0.0,0.0,0.0,0.0,0.0,0.0,0.0
4.917,0.268,-0.128,0.946,0.0,0.0,0.0,0.0,0.0,0.0,0.0,0.0,0.0,0.0,0.0
4.918,0.0,0.0,0.0,0.061,0.915,0.0,0.0,0.0,0.0,0.0,0.0,0.0,0.0,0.0
4.928,0.266,-0.128,0.944,0.061,0.793,0.0,0.0,0.0,0.0,0.0,0.0,0.0,0.0,0.0
4.937,0.0,0.0,0.0,0.183,0.854,0.061,0.0,0.0,0.0,0.0,0.0,0.0,0.0,0.0
4.938,0.268,-0.128,0.942,0.0,0.0,0.0,0.0,0.0,0.0,0.0,0.0,0.0,0.0,0.0
4.947,0.267,-0.129,0.944,0.244,0.976,0.0,0.0,0.0,0.0,0.0,0.0,0.0,0.0,0.0
4.957,0.265,-0.128,0.942,0.183,0.976,0.061,0.0,0.0,0.0,0.0,0.0,0.0,0.0,0.0
4.967,0.268,-0.13,0.941,0.183,0.976,0.061,0.0,0.0,0.0,0.0,0.0,0.0,0.0,0.0
4.977,0.266,-0.131,0.945,0.0,0.0,0.0,0.0,0.0,0.0,0.0,0.0,0.0,0.0,0.0
4.978,0.0,0.0,0.0,0.122,0.976,0.061,0.0,0.0,0.0,0.0,0.0,0.0,0.0,0.0
4.988,0.266,-0.129,0.946,0.061,0.915,0.061,0.0,0.0,0.0,0.0,0.0,0.0,0.0,0.0
4.998,0.268,-0.13,0.946,0.122,0.915,0.122,0.0,0.0,0.0,0.0,0.0,0.0,0.0,0.0
5.007,0.0,0.0,0.0,0.122,0.976,0.061,0.0,0.0,0.0,0.0,0.0,0.0,0.0,0.0
5.008,0.267,-0.131,0.945,0.0,0.0,0.0,0.0,0.0,0.0,0.0,0.0,0.0,0.0,0.0
5.017,0.269,-0.129,0.945,0.122,0.976,0.061,0.0,0.0,0.0,0.0,0.0,0.0,0.0,0.0
5.027,0.265,-0.129,0.945,0.0,0.0,0.0,0.0,0.0,0.0,0.0,0.0,0.0,0.0,0.0
5.028,0.0,0.0,0.0,0.061,0.915,0.061,0.0,0.0,0.0,0.0,0.0,0.0,0.0,0.0
5.038,0.266,-0.129,0.943,0.0,0.976,0.122,0.0,0.0,0.0,0.0,0.0,0.0,0.0,0.0
5.048,0.268,-0.128,0.941,0.0,1.037,0.061,0.0,0.0,0.0,0.0,0.0,0.0,0.0,0.0
5.058,0.27,-0.128,0.943,0.0,0.976,0.061,0.0,0.0,0.0,0.0,0.0,0.0,0.0,0.0
5.067,0.0,0.0,0.0,0.0,0.976,0.183,0.0,0.0,0.0,0.0,0.0,0.0,0.0,0.0
5.068,0.268,-0.129,0.942,0.0,0.0,0.0,0.0,0.0,0.0,0.0,0.0,0.0,0.0,0.0
5.077,0.266,-0.13,0.942,0.0,0.976,0.122,0.0,0.0,0.0,0.0,0.0,0.0,0.0,0.0
5.087,0.265,-0.128,0.943,0.0,0.0,0.0,0.0,0.0,0.0,0.0,0.0,0.0,0.0,0.0
5.088,0.0,0.0,0.0,-0.122,0.854,0.122,0.0,0.0,0.0,0.0,0.0,0.0,0.0,0.0
5.098,0.267,-0.127,0.945,-0.122,0.915,0.061,0.0,0.0,0.0,0.0,0.0,0.0,0.0,0.0
5.108,0.266,-0.128,0.943,-0.183,0.915,0.122,0.0,0.0,0.0,0.0,0.0,0.0,0.0,0.0
5.118,0.266,-0.128,0.943,0.0,0.854,0.122,0.0,0.0,0.0,0.0,0.0,0.0,0.0,0.0
5.128,0.267,-0.129,0.944,0.0,0.0,0.0,0.0,0.0,0.0,0.0,0.0,0.0,0.0,0.0
5.129,0.0,0.0,0.0,0.061,0.915,0.122,0.0,0.0,0.0,0.0,0.0,0.0,0.0,0.0
5.137,0.0,0.0,0.0,-0.061,0.915,0.061,0.0,0.0,0.0,0.0,0.0,0.0,0.0,0.0
5.139,0.27,-0.129,0.945,0.0,0.0,0.0,0.0,0.0,0.0,0.0,0.0,0.0,0.0,0.0
5.147,0.266,-0.129,0.945,0.0,0.0,0.0,0.0,0.0,0.0,0.0,0.0,0.0,0.0,0.0
5.148,0.0,0.0,0.0,-0.061,0.976,0.061,0.0,0.0,0.0,0.0,0.0,0.0,0.0,0.0
5.158,0.269,-0.127,0.944,0.0,0.976,0.061,0.0,0.0,0.0,0.0,0.0,0.0,0.0,0.0
5.168,0.268,-0.13,0.946,-0.061,0.976,0.0,0.0,0.0,0.0,0.0,0.0,0.0,0.0,0.0
5.178,0.265,-0.129,0.945,-0.061,0.854,0.0,0.0,0.0,0.0,0.0,0.0,0.0,0.0,0.0
5.188,0.265,-0.129,0.944,0.0,0.0,0.0,0.0,0.0,0.0,0.0,0.0,0.0,0.0,0.0
5.189,0.0,0.0,0.0,0.0,0.854,0.122,0.0,0.0,0.0,0.0,0.0,0.0,0.0,0.0
5.199,0.269,-0.131,0.943,0.061,0.915,0.061,0.0,0.0,0.0,0.0,0.0,0.0,0.0,0.0
5.208,0.0,0.0,0.0,-0.061,1.037,0.061,0.0,0.0,0.0,0.0,0.0,0.0,0.0,0.0
5.209,0.268,-0.131,0.947,0.0,0.0,0.0,0.0,0.0,0.0,0.0,0.0,0.0,0.0,0.0
5.218,0.269,-0.129,0.946,0.0,0.976,0.061,0.0,0.0,0.0,0.0,0.0,0.0,0.0,0.0
5.228,0.265,-0.129,0.944,0.0,0.854,0.061,0.0,0.0,0.0,0.0,0.0,0.0,0.0,0.0
5.238,0.267,-0.13,0.944,-0.061,0.854,0.183,0.0,0.0,0.0,0.0,0.0,0.0,0.0,0.0
5.248,0.266,-0.13,0.942,0.0,0.0,0.0,0.0,0.0,0.0,0.0,0.0,0.0,0.0,0.0
5.249,0.0,0.0,0.0,0.061,0.976,0.122,0.0,0.0,0.0,0.0,0.0,0.0,0.0,0.0
5.259,0.27,-0.131,0.942,0.061,0.854,0.0,0.0,0.0,0.0,0.0,0.0,0.0,0.0,0.0
5.269,0.267,-0.129,0.943,0.061,0.793,0.0,0.0,0.0,0.0,0.0,0.0,0.0,0.0,0.0
5.278,0.268,-0.129,0.943,0.183,0.915,0.061,0.0,0.0,0.0,0.0,0.0,0.0,0.0,0.0
5.288,0.269,-0.128,0.941,0.244,0.854,0.061,0.0,0.0,0.0,0.0,0.0,0.0,0.0,0.0
5.298,0.267,-0.129,0.942,0.0,0.0,0.0,0.0,0.0,0.0,0.0,0.0,0.0,0.0,0.0
5.299,0.0,0.0,0.0,0.305,0.854,0.122,0.0,0.0,0.0,0.0,0.0,0.0,0.0,0.0
5.309,0.267,-0.129,0.945,0.183,0.854,0.0,0.0,0.0,0.0,0.0,0.0,0.0,0.0,0.0
5.319,0.267,-0.125,0.943,0.061,0.915,0.061,0.0,0.0,0.0,0.0,0.0,0.0,0.0,0.0
5.329,0.266,-0.128,0.943,0.061,0.915,0.061,0.0,0.0,0.0,0.0,0.0,0.0,0.0,0.0
5.338,0.0,0.0,0.0,0.0,0.854,0.061,0.0,0.0,0.0,0.0,0.0,0.0,0.0,0.0
5.339,0.268,-0.13,0.945,0.0,0.0,0.0,0.0,0.0,0.0,0.0,0.0,0.0,0.0,0.0
5.348,0.267,-0.129,0.943,0.122,0.915,0.061,0.0,0.0,0.0,0.0,0.0,0.0,0.0,0.0
5.358,0.267,-0.128,0.945,0.0,0.0,0.0,0.0,0.0,0.0,0.0,0.0,0.0,0.0,0.0
5.359,0.0,0.0,0.0,0.061,0.915,0.061,0.0,0.0,0.0,0.0,0.0,0.0,0.0,0.0
5.369,0.268,-0.129,0.944,0.0,0.976,0.061,0.0,0.0,0.0,0.0,0.0,0.0,0.0,0.0
5.379,0.268,-0.127,0.943,0.0,0.915,0.0,0.0,0.0,0.0,0.0,0.0,0.0,0.0,0.0
5.389,0.267,-0.127,0.945,-0.061,0.976,0.061,0.0,0.0,0.0,0.0,0.0,0.0,0.0,0.0
5.399,0.268,-0.129,0.944,0.0,0.0,0.0,0.0,0.0,0.0,0.0,0.0,0.0,0.0,0.0
5.4,0.0,0.0,0.0,0.061,1.037,0.122,0.0,0.0,0.0,0.0,0.0,0.0,0.0,0.0
5.408,0.0,0.0,0.0,0.122,0.915,0.122,0.0,0.0,0.0,0.0,0.0,0.0,0.0,0.0
5.41,0.269,-0.128,0.942,0.0,0.0,0.0,0.0,0.0,0.0,0.0,0.0,0.0,0.0,0.0
5.418,0.268,-0.129,0.942,0.0,0.0,0.0,0.0,0.0,0.0,0.0,0.0,0.0,0.0,0.0
5.419,0.0,0.0,0.0,0.061,0.915,0.122,0.0,0.0,0.0,0.0,0.0,0.0,0.0,0.0
5.429,0.268,-0.128,0.945,0.061,0.854,-0.061,0.0,0.0,0.0,0.0,0.0,0.0,0.0,0.0
5.439,0.268,-0.128,0.943,0.122,0.915,0.0,0.0,0.0,0.0,0.0,0.0,0.0,0.0,0.0
5.449,0.27,-0.128,0.943,0.061,0.854,0.0,0.0,0.0,0.0,0.0,0.0,0.0,0.0,0.0
5.459,0.269,-0.128,0.944,0.0,0.0,0.0,0.0,0.0,0.0,0.0,0.0,0.0,0.0,0.0
5.46,0.0,0.0,0.0,0.0,0.732,0.183,0.0,0.0,0.0,0.0,0.0,0.0,0.0,0.0
5.47,0.268,-0.129,0.944,0.061,0.854,0.061,0.0,0.0,0.0,0.0,0.0,0.0,0.0,0.0
5.478,0.267,-0.129,0.942,0.0,0.0,0.0,0.0,0.0,0.0,0.0,0.0,0.0,0.0,0.0
5.479,0.0,0.0,0.0,0.061,0.915,0.061,0.0,0.0,0.0,0.0,0.0,0.0,0.0,0.0
5.489,0.269,-0.128,0.945,0.061,0.854,0.0,0.0,0.0,0.0,0.0,0.0,0.0,0.0,0.0
5.499,0.266,-0.127,0.942,0.122,0.915,0.0,0.0,0.0,0.0,0.0,0.0,0.0,0.0,0.0
5.509,0.263,-0.127,0.94,0.0,0.854,0.061,0.0,0.0,0.0,0.0,0.0,0.0,0.0,0.0
5.519,0.266,-0.126,0.945,0.0,0.0,0.0,0.0,0.0,0.0,0.0,0.0,0.0,0.0,0.0
5.52,0.0,0.0,0.0,0.0,0.854,0.122,0.0,0.0,0.0,0.0,0.0,0.0,0.0,0.0
5.53,0.268,-0.127,0.944,-0.061,0.854,0.0,0.0,0.0,0.0,0.0,0.0,0.0,0.0,0.0
5.54,0.267,-0.128,0.944,-0.061,0.976,0.061,0.0,0.0,0.0,0.0,0.0,0.0,0.0,0.0
5.549,0.267,-0.126,0.945,-0.061,0.854,0.061,0.0,0.0,0.0,0.0,0.0,0.0,0.0,0.0
5.559,0.267,-0.127,0.943,0.0,0.854,0.061,0.0,0.0,0.0,0.0,0.0,0.0,0.0,0.0
5.569,0.265,-0.128,0.942,0.0,0.0,0.0,0.0,0.0,0.0,0.0,0.0,0.0,0.0,0.0
5.57,0.0,0.0,0.0,0.061,0.915,0.0,0.0,0.0,0.0,0.0,0.0,0.0,0.0,0.0
5.58,0.267,-0.128,0.944,0.0,0.915,0.061,0.0,0.0,0.0,0.0,0.0,0.0,0.0,0.0
5.59,0.267,-0.127,0.943,0.061,0.854,0.122,0.0,0.0,0.0,0.0,0.0,0.0,0.0,0.0
5.6,0.265,-0.129,0.942,0.122,0.793,0.122,0.0,0.0,0.0,0.0,0.0,0.0,0.0,0.0
5.609,0.0,0.0,0.0,0.0,0.915,0.122,0.0,0.0,0.0,0.0,0.0,0.0,0.0,0.0
5.61,0.264,-0.128,0.941,0.0,0.0,0.0,0.0,0.0,0.0,0.0,0.0,0.0,0.0,0.0
5.619,0.266,-0.127,0.944,-0.061,0.854,0.061,0.0,0.0,0.0,0.0,0.0,0.0,0.0,0.0
5.629,0.269,-0.128,0.945,0.0,0.0,0.0,0.0,0.0,0.0,0.0,0.0,0.0,0.0,0.0
5.63,0.0,0.0,0.0,0.061,0.793,0.061,0.0,0.0,0.0,0.0,0.0,0.0,0.0,0.0
5.64,0.267,-0.128,0.945,0.061,0.854,0.0,0.0,0.0,0.0,0.0,0.0,0.0,0.0,0.0
5.65,0.268,-0.126,0.944,0.0,0.915,0.061,0.0,0.0,0.0,0.0,0.0,0.0,0.0,0.0
5.66,0.267,-0.128,0.945,0.0,0.915,0.0,0.0,0.0,0.0,0.0,0.0,0.0,0.0,0.0
5.67,0.266,-0.128,0.944,0.0,0.0,0.0,0.0,0.0,0.0,0.0,0.0,0.0,0.0,0.0
5.671,0.0,0.0,0.0,0.0,0.915,0.061,0.0,0.0,0.0,0.0,0.0,0.0,0.0,0.0
5.679,0.0,0.0,0.0,0.061,0.915,0.122,0.0,0.0,0.0,0.0,0.0,0.0,0.0,0.0
5.681,0.267,-0.129,0.944,0.0,0.0,0.0,0.0,0.0,0.0,0.0,0.0,0.0,0.0,0.0
5.689,0.266,-0.129,0.948,0.0,0.0,0.0,0.0,0.0,0.0,0.0,0.0,0.0,0.0,0.0
5.69,0.0,0.0,0.0,0.0,0.976,0.061,0.0,0.0,0.0,0.0,0.0,0.0,0.0,0.0
5.7,0.265,-0.127,0.946,0.0,0.915,0.122,0.0,0.0,0.0,0.0,0.0,0.0,0.0,0.0
5.71,0.266,-0.128,0.944,-0.122,0.793,0.061,0.0,0.0,0.0,0.0,0.0,0.0,0.0,0.0
5.72,0.267,-0.128,0.943,0.0,0.915,0.061,0.0,0.0,0.0,0.0,0.0,0.0,0.0,0.0
5.73,0.267,-0.129,0.944,0.0,0.0,0.0,0.0,0.0,0.0,0.0,0.0,0.0,0.0,0.0
5.731,0.0,0.0,0.0,0.0,0.915,0.061,0.0,0.0,0.0,0.0,0.0,0.0,0.0,0.0
5.739,0.0,0.0,0.0,0.061,0.915,0.0,0.0,0.0,0.0,0.0,0.0,0.0,0.0,0.0
5.741,0.267,-0.129,0.945,0.0,0.0,0.0,0.0,0.0,0.0,0.0,0.0,0.0,0.0,0.0
5.749,0.268,-0.13,0.944,0.0,0.0,0.0,0.0,0.0,0.0,0.0,0.0,0.0,0.0,0.0
5.75,0.0,0.0,0.0,0.061,0.854,0.061,0.0,0.0,0.0,0.0,0.0,0.0,0.0,0.0
5.76,0.267,-0.128,0.945,0.0,0.976,0.061,0.0,0.0,0.0,0.0,0.0,0.0,0.0,0.0
5.77,0.268,-0.128,0.946,0.061,0.915,0.0,0.0,0.0,0.0,0.0,0.0,0.0,0.0,0.0
5.78,0.268,-0.127,0.943,0.061,0.793,0.0,0.0,0.0,0.0,0.0,0.0,0.0,0.0,0.0
5.79,0.266,-0.128,0.945,0.0,0.0,0.0,0.0,0.0,0.0,0.0,0.0,0.0,0.0,0.0
5.791,0.0,0.0,0.0,-0.061,0.915,0.0,0.0,0.0,0.0,0.0,0.0,0.0,0.0,0.0
5.801,0.267,-0.129,0.946,-0.061,0.915,0.061,0.0,0.0,0.0,0.0,0.0,0.0,0.0,0.0
5.81,0.0,0.0,0.0,-0.061,0.854,0.122,0.0,0.0,0.0,0.0,0.0,0.0,0.0,0.0
5.811,0.268,-0.128,0.945,0.0,0.0,0.0,0.0,0.0,0.0,0.0,0.0,0.0,0.0,0.0
5.82,0.268,-0.127,0.945,0.0,0.915,0.061,0.0,0.0,0.0,0.0,0.0,0.0,0.0,0.0
5.83,0.266,-0.129,0.942,0.122,0.854,-0.061,0.0,0.0,0.0,0.0,0.0,0.0,0.0,0.0
5.84,0.268,-0.129,0.942,0.0,0.0,0.0,0.0,0.0,0.0,0.0,0.0,0.0,0.0,0.0
5.841,0.0,0.0,0.0,0.0,0.854,-0.061,0.0,0.0,0.0,0.0,0.0,0.0,0.0,0.0
5.851,0.27,-0.127,0.945,-0.061,0.854,0.061,0.0,0.0,0.0,0.0,0.0,0.0,0.0,0.0
5.861,0.266,-0.13,0.943,-0.061,0.976,0.061,0.0,0.0,0.0,0.0,0.0,0.0,0.0,0.0
5.871,0.267,-0.127,0.946,0.0,0.915,0.061,0.0,0.0,0.0,0.0,0.0,0.0,0.0,0.0
5.88,0.0,0.0,0.0,0.122,0.854,0.0,0.0,0.0,0.0,0.0,0.0,0.0,0.0,0.0
5.881,0.265,-0.129,0.941,0.0,0.0,0.0,0.0,0.0,0.0,0.0,0.0,0.0,0.0,0.0
5.89,0.266,-0.126,0.945,-0.061,0.854,0.061,0.0,0.0,0.0,0.0,0.0,0.0,0.0,0.0
5.9,0.268,-0.126,0.946,0.0,0.0,0.0,0.0,0.0,0.0,0.0,0.0,0.0,0.0,0.0
5.901,0.0,0.0,0.0,-0.183,0.854,0.122,0.0,0.0,0.0,0.0,0.0,0.0,0.0,0.0
5.911,0.268,-0.125,0.947,-0.183,0.976,0.061,0.0,0.0,0.0,0.0,0.0,0.0,0.0,0.0
5.921,0.268,-0.127,0.945,-0.122,0.976,0.061,0.0,0.0,0.0,0.0,0.0,0.0,0.0,0.0
5.931,0.267,-0.128,0.942,-0.183,0.976,0.122,0.0,0.0,0.0,0.0,0.0,0.0,0.0,0.0
5.941,0.269,-0.128,0.945,0.0,0.0,0.0,0.0,0.0,0.0,0.0,0.0,0.0,0.0,0.0
5.942,0.0,0.0,0.0,-0.061,0.976,0.122,0.0,0.0,0.0,0.0,0.0,0.0,0.0,0.0
5.95,0.0,0.0,0.0,-0.061,0.915,0.061,0.0,0.0,0.0,0.0,0.0,0.0,0.0,0.0
5.952,0.267,-0.129,0.944,0.0,0.0,0.0,0.0,0.0,0.0,0.0,0.0,0.0,0.0,0.0
5.96,0.265,-0.129,0.944,0.0,0.0,0.0,0.0,0.0,0.0,0.0,0.0,0.0,0.0,0.0
5.961,0.0,0.0,0.0,0.0,0.854,0.183,0.0,0.0,0.0,0.0,0.0,0.0,0.0,0.0
5.971,0.27,-0.128,0.943,0.0,0.854,0.0,0.0,0.0,0.0,0.0,0.0,0.0,0.0,0.0
5.981,0.267,-0.127,0.944,-0.061,0.915,0.061,0.0,0.0,0.0,0.0,0.0,0.0,0.0,0.0
5.991,0.267,-0.126,0.946,0.0,0.915,0.122,0.0,0.0,0.0,0.0,0.0,0.0,0.0,0.0
6.001,0.267,-0.127,0.942,0.0,0.0,0.0,0.0,0.0,0.0,0.0,0.0,0.0,0.0,0.0
6.002,0.0,0.0,0.0,0.0,0.915,0.122,0.0,0.0,0.0,0.0,0.0,0.0,0.0,0.0
6.01,0.0,0.0,0.0,0.061,0.915,0.061,0.0,0.0,0.0,0.0,0.0,0.0,0.0,0.0
6.012,0.268,-0.128,0.942,0.0,0.0,0.0,0.0,0.0,0.0,0.0,0.0,0.0,0.0,0.0
6.02,0.267,-0.127,0.945,0.0,0.0,0.0,0.0,0.0,0.0,0.0,0.0,0.0,0.0,0.0
6.021,0.0,0.0,0.0,0.061,0.976,0.061,0.0,0.0,0.0,0.0,0.0,0.0,0.0,0.0
6.031,0.266,-0.129,0.941,0.0,0.976,0.061,0.0,0.0,0.0,0.0,0.0,0.0,0.0,0.0
6.041,0.267,-0.131,0.942,0.061,0.915,0.061,0.0,0.0,0.0,0.0,0.0,0.0,0.0,0.0
6.051,0.268,-0.13,0.945,0.061,0.976,0.061,0.0,0.0,0.0,0.0,0.0,0.0,0.0,0.0
6.061,0.267,-0.127,0.942,0.0,0.0,0.0,0.0,0.0,0.0,0.0,0.0,0.0,0.0,0.0
6.062,0.0,0.0,0.0,0.061,0.915,0.061,0.0,0.0,0.0,0.0,0.0,0.0,0.0,0.0
6.072,0.269,-0.127,0.946,-0.061,0.915,0.061,0.0,0.0,0.0,0.0,0.0,0.0,0.0,0.0
6.081,0.0,0.0,0.0,0.0,0.915,0.061,0.0,0.0,0.0,0.0,0.0,0.0,0.0,0.0
6.082,0.265,-0.128,0.946,0.0,0.0,0.0,0.0,0.0,0.0,0.0,0.0,0.0,0.0,0.0
6.091,0.266,-0.13,0.944,0.061,0.915,0.122,0.0,0.0,0.0,0.0,0.0,0.0,0.0,0.0
6.101,0.267,-0.128,0.944,0.183,0.915,0.122,0.0,0.0,0.0,0.0,0.0,0.0,0.0,0.0
6.111,0.266,-0.127,0.945,0.0,0.0,0.0,0.0,0.0,0.0,0.0,0.0,0.0,0.0,0.0
6.112,0.0,0.0,0.0,0.183,0.915,0.122,0.0,0.0,0.0,0.0,0.0,0.0,0.0,0.0
6.122,0.27,-0.128,0.943,0.061,0.915,0.061,0.0,0.0,0.0,0.0,0.0,0.0,0.0,0.0
6.132,0.269,-0.128,0.942,0.0,0.854,0.061,0.0,0.0,0.0,0.0,0.0,0.0,0.0,0.0
6.142,0.267,-0.129,0.943,0.122,0.915,0.061,0.0,0.0,0.0,0.0,0.0,0.0,0.0,0.0
6.151,0.0,0.0,0.0,0.122,0.915,0.061,0.0,0.0,0.0,0.0,0.0,0.0,0.0,0.0
6.152,0.266,-0.13,0.945,0.0,0.0,0.0,0.0,0.0,0.0,0.0,0.0,0.0,0.0,0.0
6.161,0.266,-0.128,0.944,0.061,0.915,0.0,0.0,0.0,0.0,0.0,0.0,0.0,0.0,0.0
6.171,0.268,-0.128,0.944,0.0,0.0,0.0,0.0,0.0,0.0,0.0,0.0,0.0,0.0,0.0
6.172,0.0,0.0,0.0,0.061,0.976,0.122,0.0,0.0,0.0,0.0,0.0,0.0,0.0,0.0
6.182,0.266,-0.128,0.942,-0.061,0.915,0.122,0.0,0.0,0.0,0.0,0.0,0.0,0.0,0.0
6.192,0.266,-0.129,0.944,0.0,0.793,0.061,0.0,0.0,0.0,0.0,0.0,0.0,0.0,0.0
6.202,0.267,-0.127,0.944,0.0,0.854,0.122,0.0,0.0,0.0,0.0,0.0,0.0,0.0,0.0
6.211,0.0,0.0,0.0,0.061,0.854,0.122,0.0,0.0,0.0,0.0,0.0,0.0,0.0,0.0
6.212,0.269,-0.126,0.944,0.0,0.0,0.0,0.0,0.0,0.0,0.0,0.0,0.0,0.0,0.0
6.221,0.267,-0.126,0.945,0.122,0.854,0.061,0.0,0.0,0.0,0.0,0.0,0.0,0.0,0.0
6.231,0.269,-0.131,0.944,0.0,0.0,0.0,0.0,0.0,0.0,0.0,0.0,0.0,0.0,0.0
6.232,0.0,0.0,0.0,0.0,0.854,0.0,0.0,0.0,0.0,0.0,0.0,0.0,0.0,0.0
6.242,0.268,-0.129,0.945,-0.061,0.976,0.061,0.0,0.0,0.0,0.0,0.0,0.0,0.0,0.0
6.252,0.271,-0.128,0.946,-0.061,1.037,0.122,0.0,0.0,0.0,0.0,0.0,0.0,0.0,0.0
6.262,0.269,-0.128,0.945,0.0,0.976,0.122,0.0,0.0,0.0,0.0,0.0,0.0,0.0,0.0
6.272,0.266,-0.128,0.942,0.0,0.0,0.0,0.0,0.0,0.0,0.0,0.0,0.0,0.0,0.0
6.273,0.0,0.0,0.0,0.0,0.976,0.061,0.0,0.0,0.0,0.0,0.0,0.0,0.0,0.0
