Timestamp,Acc x (g),Acc y (g),Acc z (g),Gyro x (deg/s),Gyro y (deg/s),Gyro z (deg/s),Beccheggio/Pitch (deg/s),Rollio/Roll (deg/s),Imbardata/Yaw (deg/s),Mag x (microTesla),Mag y (microTesla),Mag z (microTesla),Pressione (milliBar),Altitudine (m)
0.0,0.18353972876829025,-0.0691147909859364,0.7158503066980771,-0.06565658366637972,0.4687254373432745,-0.0380045887021418,0.0,0.0,0.0,0.0,0.0,0.0,0.0,0.0
0.01,0.12556008798264018,-0.04592030356135042,0.4604406059115526,0.008054999506239401,0.46850782226723303,0.12142205885351036,0.0,0.0,0.0,0.0,0.0,0.0,0.0,0.0
0.02,0.16364728436751105,-0.061312759098868914,0.6160815335433932,-0.07073396361647843,0.6034224994964766,0.04572255206226854,0.0,0.0,0.0,0.0,0.0,0.0,0.0,0.0
0.03,0.11920490644905869,-0.04419539685342796,0.43395666106305336,0.05153331947777469,0.35682374845901227,0.10092044769139774,0.0,0.0,0.0,0.0,0.0,0.0,0.0,0.0
0.04,0.17005786168799547,-0.06371799540265025,0.6365957307465414,-0.12345147968681121,0.501353822213113,0.08787430517077227,0.0,0.0,0.0,0.0,0.0,0.0,0.0,0.0
0.05,0.14280029963941754,-0.05377767605986696,0.527917691697525,0.12492615533556722,0.5524226730148659,0.19331310849491784,0.0,0.0,0.0,0.0,0.0,0.0,0.0,0.0
0.06,0.17777993471046216,-0.06564862414834707,0.6659378785583385,-0.02851088512993086,0.8027713125946869,0.06778273248837854,0.0,0.0,0.0,0.0,0.0,0.0,0.0,0.0
0.07,0.10988364579482347,-0.04079621881515299,0.40106243742614295,-0.005240669578722734,0.478861140924751,0.17901686828590094,0.0,0.0,0.0,0.0,0.0,0.0,0.0,0.0
0.08,0.16872689764961596,-0.061574935460421476,0.6281149376098336,-0.06240236473510357,0.4588483742228368,0.014596281730617684,0.0,0.0,0.0,0.0,0.0,0.0,0.0,0.0
0.09,0.12251493682861654,-0.04538623602540197,0.45107436942546936,0.09768626268812745,0.6878374035591573,0.15147154454672923,0.0,0.0,0.0,0.0,0.0,0.0,0.0,0.0
0.1,0.21758800266056427,-0.07971592333509894,0.8103887679305513,-0.00045791683681465755,0.5611961609145946,-0.015759627457775677,0.0,0.0,0.0,0.0,0.0,0.0,0.0,0.0
0.11,0.10879308899045258,-0.040406959881472526,0.40813454164208196,0.06315613854240826,0.6636672717320874,0.1119043235152266,0.0,0.0,0.0,0.0,0.0,0.0,0.0,0.0
0.12,0.16422346205285882,-0.060324008617394294,0.6154066894925667,-0.07487145624772588,0.5423285271559353,0.0007490885883139877,0.0,0.0,0.0,0.0,0.0,0.0,0.0,0.0
0.13,0.1124196874478844,-0.04119097072246997,0.4139348337140787,0.09575079699214567,0.48760093158688467,0.11085017582511703,0.0,0.0,0.0,0.0,0.0,0.0,0.0,0.0
0.14,0.16827810068578541,-0.061658507343689654,0.6294863316956069,-0.07689612294199599,0.3590732236927559,-0.042038036583978526,0.0,0.0,0.0,0.0,0.0,0.0,0.0,0.0
0.15,0.1647738212106824,-0.06364730921143609,0.6178390913298923,0.018474977900420835,0.7025230692406704,0.123888409726422,0.0,0.0,0.0,0.0,0.0,0.0,0.0,0.0
0.16,0.21789635404092,-0.0802717244749308,0.8006383498541649,-0.04885828058348436,0.48977410315710634,0.0819156872612242,0.0,0.0,0.0,0.0,0.0,0.0,0.0,0.0
0.17,0.07358180406429844,-0.02605574930304233,0.27005298965079455,0.0521422842203152,0.512062144396498,0.1588119261212029,0.0,0.0,0.0,0.0,0.0,0.0,0.0,0.0
0.18,0.17724787871776723,-0.06555831442531918,0.655696607222844,-0.11570810529206398,0.4016228637074415,-0.05602612681402574,0.0,0.0,0.0,0.0,0.0,0.0,0.0,0.0
0.19,0.16901543042290842,-0.06339471015583838,0.6314054932481802,0.016360633843279213,0.561062189205868,0.2055131029436758,0.0,0.0,0.0,0.0,0.0,0.0,0.0,0.0
0.2,0.18318524018506835,-0.06720646433870855,0.6784569291380156,-0.1049604081564966,0.5353006193803024,-0.0003695791600162083,0.0,0.0,0.0,0.0,0.0,0.0,0.0,0.0
0.21,0.12080228764390034,-0.04442404043779928,0.45358019878877937,-0.0014435703326156574,0.5771020365331786,0.11203993818549449,0.0,0.0,0.0,0.0,0.0,0.0,0.0,0.0
0.22,0.1579207810435066,-0.05722844670285438,0.5823264338712756,-0.13237361116434285,0.28576858445013026,-0.08459723009906878,0.0,0.0,0.0,0.0,0.0,0.0,0.0,0.0
0.23,0.09522927088208817,-0.035372939665878775,0.3554147032992889,-0.1060831299035867,0.567857202023939,0.0931029276630261,0.0,0.0,0.0,0.0,0.0,0.0,0.0,0.0
0.24,0.16031380104209642,-0.06003377662386483,0.5943165585069541,-0.0963132094496262,0.4092907741999668,-0.02153558753769676,0.0,0.0,0.0,0.0,0.0,0.0,0.0,0.0
0.25,0.1880309419004837,-0.06878847428176033,0.6832407092400232,0.030301484752415075,0.5802106616003018,0.13449417781068704,0.0,0.0,0.0,0.0,0.0,0.0,0.0,0.0
0.26,0.16786639978539508,-0.0618508063105192,0.6280296692940064,-0.14229307765425706,0.4595505099393139,0.0024654720943750917,0.0,0.0,0.0,0.0,0.0,0.0,0.0,0.0
0.27,0.1361402225810779,-0.05140385687078938,0.50975503820887,-0.12910444898055318,0.6613366567874915,0.24142458093895808,0.0,0.0,0.0,0.0,0.0,0.0,0.0,0.0
0.28,0.1322541617958307,-0.04903504649248432,0.5073632570129463,-0.18357783256863114,0.24808778355568892,-0.06321556147263364,0.0,0.0,0.0,0.0,0.0,0.0,0.0,0.0
0.29,0.16862444809329333,-0.06357713784440663,0.6196727294059409,-0.08450398083559724,0.6069696580373695,0.1913499527829078,0.0,0.0,0.0,0.0,0.0,0.0,0.0,0.0
0.3,0.20487625238015864,-0.07739371247892995,0.7684420846489006,-0.20887789021305714,0.5872385607160505,0.010702557341214163,0.0,0.0,0.0,0.0,0.0,0.0,0.0,0.0
0.31,0.14169084883895236,-0.053859056744324826,0.5302255697540215,-0.07455467541083928,0.5406097149125341,0.14227717590862934,0.0,0.0,0.0,0.0,0.0,0.0,0.0,0.0
0.32,0.1056814853366779,-0.037855770124780884,0.40028424717398264,-0.15687396861612507,0.446697411190866,-0.03546765155655764,0.0,0.0,0.0,0.0,0.0,0.0,0.0,0.0
0.33,0.14087811317965368,-0.05017206269603129,0.5176448819685856,-0.05116190436683908,0.5358247006454385,0.18035772509364797,0.0,0.0,0.0,0.0,0.0,0.0,0.0,0.0
0.34,0.12868946437435017,-0.04620713829171556,0.4719021154397044,-0.1667996289026613,0.35664394774396513,-0.052043723941074184,0.0,0.0,0.0,0.0,0.0,0.0,0.0,0.0
0.35,0.1818107225128048,-0.06622918982218412,0.677453216894766,0.008671278044106692,0.5519649897017357,0.18299394971356536,0.0,0.0,0.0,0.0,0.0,0.0,0.0,0.0
0.36,0.1436715113297343,-0.05310735898629941,0.5396436078805051,-0.1552015327290493,0.655797844543919,-0.064790752238135,0.0,0.0,0.0,0.0,0.0,0.0,0.0,0.0
0.37,0.17234011518660808,-0.06393683101669748,0.6338624664824761,-0.013764736490682288,0.4720798898213481,0.15106948561822833,0.0,0.0,0.0,0.0,0.0,0.0,0.0,0.0
0.38,0.10845910825562788,-0.037704264715903185,0.3947072226026458,-0.08142128195222685,0.49393812891415906,0.03311615012579471,0.0,0.0,0.0,0.0,0.0,0.0,0.0,0.0
0.39,0.16797248763890776,-0.05932173245976853,0.6215422707664777,0.00542271886272364,0.49460475027942574,0.12156936691705214,0.0,0.0,0.0,0.0,0.0,0.0,0.0,0.0
0.4,0.18901027702541065,-0.07084889479294229,0.7028288325727671,-0.1304235799094236,0.7251240041968721,0.0656443846159205,0.0,0.0,0.0,0.0,0.0,0.0,0.0,0.0
0.41,0.18222287113178437,-0.06772449894040801,0.6774685831724028,-0.001075719928871015,0.5712416502849551,0.1812393385801705,0.0,0.0,0.0,0.0,0.0,0.0,0.0,0.0
0.42,0.08156514653182732,-0.03074916472439269,0.3044650057148105,-0.18347996270774547,0.5046536615295385,0.011956373421345942,0.0,0.0,0.0,0.0,0.0,0.0,0.0,0.0
0.43,0.1791781125685215,-0.06247311098664344,0.650314781445807,0.013948949570571759,0.34450293939289417,0.10654842319071853,0.0,0.0,0.0,0.0,0.0,0.0,0.0,0.0
0.44,0.08853570091051408,-0.034171279507759396,0.3330825551438237,-0.1346897393103207,0.4513858035274898,-0.027379939760130187,0.0,0.0,0.0,0.0,0.0,0.0,0.0,0.0
0.45,0.18820749574401302,-0.07100236561675237,0.7039830423398515,0.08800523202042494,0.3788889061165464,0.1423604895841787,0.0,0.0,0.0,0.0,0.0,0.0,0.0,0.0
0.46,0.13592477928836819,-0.05151813590116917,0.5097719448042897,-0.046537152219915834,0.6935757933909495,0.024935251285112075,0.0,0.0,0.0,0.0,0.0,0.0,0.0,0.0
0.47,0.1865116255693418,-0.07036291099120125,0.6937709738917186,0.10020146363870684,0.4082627491059225,0.0995684268921711,0.0,0.0,0.0,0.0,0.0,0.0,0.0,0.0
0.48,0.08891856537671325,-0.03396748952710053,0.33483444214085073,-0.0011375934541884556,0.5493136435052954,0.0081526821149128,0.0,0.0,0.0,0.0,0.0,0.0,0.0,0.0
0.49,0.16099577166081558,-0.0588988040433128,0.5871755292587552,0.09347388999209719,0.28214342865712394,0.11731614776882791,0.0,0.0,0.0,0.0,0.0,0.0,0.0,0.0
0.5,0.20860234956036616,-0.07801719012650737,0.7682948362047034,0.08880018904696883,0.5749510877624309,-0.03128273822574279,0.0,0.0,0.0,0.0,0.0,0.0,0.0,0.0
0.51,0.20156487246703192,-0.07254820122343951,0.7439199112887113,0.19113158437562128,0.5613571008795842,0.170537092253231,0.0,0.0,0.0,0.0,0.0,0.0,0.0,0.0
0.52,0.10429860566334105,-0.03749304810806241,0.38829335052201347,0.011763853412013503,0.5139919538083682,-0.026414966237441165,0.0,0.0,0.0,0.0,0.0,0.0,0.0,0.0
0.53,0.1706648691254981,-0.061526107978872514,0.6290146903275589,0.10915379425214423,0.2350871317048554,0.09991073797172116,0.0,0.0,0.0,0.0,0.0,0.0,0.0,0.0
0.54,0.1121697619605263,-0.0442607332104532,0.4255964882966976,-0.1107909845479323,0.542144634823454,0.09540364553309577,0.0,0.0,0.0,0.0,0.0,0.0,0.0,0.0
0.55,0.2099431949870035,-0.07845878660264895,0.7793956400113811,0.04097285875423003,0.513075489434154,0.12054632376909954,0.0,0.0,0.0,0.0,0.0,0.0,0.0,0.0
0.56,0.1303039440204601,-0.047504657624234156,0.4872287453293454,-0.1363359393394498,0.5720236697645082,0.01078123602034816,0.0,0.0,0.0,0.0,0.0,0.0,0.0,0.0
0.57,0.15061677939043722,-0.05384504738777055,0.5599489422437757,-0.06106801212510691,0.3528512713972777,0.164542409269418,0.0,0.0,0.0,0.0,0.0,0.0,0.0,0.0
0.58,0.12320082634475055,-0.045218726609856374,0.4649685381649749,-0.10254126561179096,0.47947517846364995,-0.023170683813697836,0.0,0.0,0.0,0.0,0.0,0.0,0.0,0.0
0.59,0.1524383632734446,-0.054937918153159945,0.5687506704511036,0.08040911121631043,0.25189235913359403,0.016740381846764643,0.0,0.0,0.0,0.0,0.0,0.0,0.0,0.0
0.6,0.1666590897161096,-0.06124992911658186,0.6179340575037138,-0.08204472030485588,0.668708290523088,0.07145325333161433,0.0,0.0,0.0,0.0,0.0,0.0,0.0,0.0
0.61,0.21638887313465444,-0.07791031366401834,0.8013974116052118,-0.008503692899294705,0.5022033681800514,0.081141495320574,0.0,0.0,0.0,0.0,0.0,0.0,0.0,0.0
0.62,0.10399592012284706,-0.03764865669549022,0.39136406964278836,-0.08444050941938318,0.6365159072094766,-0.0294509955823471,0.0,0.0,0.0,0.0,0.0,0.0,0.0,0.0
0.63,0.1342104717222113,-0.049509655323593825,0.4994370854197578,0.005641550216190704,0.3517520717957988,0.05846316393603763,0.0,0.0,0.0,0.0,0.0,0.0,0.0,0.0
0.64,0.19085515173242693,-0.0713332184785621,0.7094386294447749,-0.09910853808185496,0.6338061541548079,-0.01230863698023475,0.0,0.0,0.0,0.0,0.0,0.0,0.0,0.0
0.65,0.1688923041844131,-0.061622361253290237,0.62726142349608,0.014533468572087307,0.5359095029423678,0.11643575961696195,0.0,0.0,0.0,0.0,0.0,0.0,0.0,0.0
0.66,0.1466775529785499,-0.05551596860337441,0.5432262766358248,-0.11554495336563733,0.6989375156082256,0.09297767640201998,0.0,0.0,0.0,0.0,0.0,0.0,0.0,0.0
0.67,0.1341986802981931,-0.049163627356859065,0.505752881405183,0.04324355686603019,0.2590735590679499,0.13759541870841274,0.0,0.0,0.0,0.0,0.0,0.0,0.0,0.0
0.68,0.1243873122888062,-0.04667607586400959,0.46832702655177055,-0.17592081046530225,0.5207562586820308,0.019950287500604104,0.0,0.0,0.0,0.0,0.0,0.0,0.0,0.0
0.69,0.11913668779070945,-0.04307811381052895,0.441581461949007,0.04764650602943035,0.297209411477044,0.12040012000407896,0.0,0.0,0.0,0.0,0.0,0.0,0.0,0.0
0.7,0.20309676229586554,-0.07682075979835921,0.7666772853238855,-0.13211022973753714,0.5020010549723092,-0.012041655590174442,0.0,0.0,0.0,0.0,0.0,0.0,0.0,0.0
0.71,0.15628303826127585,-0.05641611031970571,0.5760549191846667,0.029236473189811922,0.4689961782232078,0.14806194444884868,0.0,0.0,0.0,0.0,0.0,0.0,0.0,0.0
0.72,0.162303017880909,-0.05814283227359837,0.6108798988123386,-0.15652117043604996,0.6581918868776301,0.04988242539911855,0.0,0.0,0.0,0.0,0.0,0.0,0.0,0.0
0.73,0.11508194923854234,-0.04204751136197988,0.42336367847414585,0.04399557126950809,0.2832397143701593,0.1047290068098907,-0.0,-0.0,-0.0,-0.0,-0.0,-0.0,-0.0,-0.0
0.74,0.17670109831989583,-0.0645690023435894,0.6538632832154975,-0.17976424458862889,0.5114291742322675,0.0073051137876452244,-0.0,-0.0,-0.0,-0.0,-0.0,-0.0,-0.0,-0.0
0.75,0.1816757265266377,-0.06817322814343052,0.6776488572565338,-0.057863714153399526,0.6742964432942737,0.15551196715647966,-0.0,-0.0,-0.0,-0.0,-0.0,-0.0,-0.0,-0.0
0.76,0.18493414192163388,-0.06987788449260489,0.697229039620089,-0.12318096295632135,0.5205132029034734,-0.0074970080157089475,-0.0,-0.0,-0.0,-0.0,-0.0,-0.0,-0.0,-0.0
0.77,0.07992880120435757,-0.0282664642841526,0.2976433097244552,0.002655899253624171,0.39134381994557516,0.13186575601841888,-0.0,-0.0,-0.0,-0.0,-0.0,-0.0,-0.0,-0.0
0.78,0.16055163925527918,-0.0581571787872541,0.5947111686428734,-0.17454635025914217,0.4393104065499954,-0.008210738910027115,-0.0,-0.0,-0.0,-0.0,-0.0,-0.0,-0.0,-0.0
0.79,0.10107128930023813,-0.037029232676365625,0.36755139252345453,0.002125621093050671,0.4016614831410958,0.10405965696470967,-0.0,-0.0,-0.0,-0.0,-0.0,-0.0,-0.0,-0.0
0.8,0.19839645359955388,-0.07111033255778755,0.7422247366269349,-0.18432780694361403,0.49383169541949257,-0.059076619186485435,-0.0,-0.0,-0.0,-0.0,-0.0,-0.0,-0.0,-0.0
0.81,0.12583451297549503,-0.04676585205988795,0.47005281357499196,-0.06060383902445978,0.6604563649210232,0.17759976850168824,-0.0,-0.0,-0.0,-0.0,-0.0,-0.0,-0.0,-0.0
0.82,0.19616465346544967,-0.07217419269485013,0.738684370182136,-0.14078207519579353,0.32550003815738443,0.011847877992228934,-0.0,-0.0,-0.0,-0.0,-0.0,-0.0,-0.0,-0.0
0.83,0.07790394280489063,-0.029309188734753484,0.2884276851292006,-0.09326923482580292,0.5496291456386057,0.22178834363540878,-0.0,-0.0,-0.0,-0.0,-0.0,-0.0,-0.0,-0.0
0.84,0.1757930147410256,-0.06285618000077264,0.6540505030274274,-0.13697896665202525,0.45246965916750115,-0.010131741788298796,-0.0,-0.0,-0.0,-0.0,-0.0,-0.0,-0.0,-0.0
0.85,0.1712850592825664,-0.06114958224218979,0.6376993566700742,-0.0430138453434921,0.5307495144847568,0.1286410266426243,-0.0,-0.0,-0.0,-0.0,-0.0,-0.0,-0.0,-0.0
0.86,0.17421520738020768,-0.0642079907580219,0.6469405667813805,-0.08024475722571818,0.4707885695372275,-0.06309638405865356,-0.0,-0.0,-0.0,-0.0,-0.0,-0.0,-0.0,-0.0
0.87,0.10142479041483518,-0.03691367195155167,0.3685475830138468,-0.026861124475953322,0.5679674865254823,0.15015334182158804,-0.0,-0.0,-0.0,-0.0,-0.0,-0.0,-0.0,-0.0
0.88,0.145096622382328,-0.053038108883552995,0.532853134526431,-0.1058766459175147,0.3814549591856636,0.0011937226154774916,-0.0,-0.0,-0.0,-0.0,-0.0,-0.0,-0.0,-0.0
0.89,0.14781656928858009,-0.05498641664222971,0.5431049400226426,0.11657837248724143,0.4401258502141262,0.14504787191049326,-0.0,-0.0,-0.0,-0.0,-0.0,-0.0,-0.0,-0.0
0.9,0.16840667031723627,-0.06317284085817301,0.6271759929803855,-0.14881656125393553,0.39824227542558643,-0.0019871868502816608,-0.0,-0.0,-0.0,-0.0,-0.0,-0.0,-0.0,-0.0
0.91,0.14583000997580928,-0.05549007998335788,0.5417606001715018,0.008560955263463028,0.5731456324812917,0.1256362861461008,-0.0,-0.0,-0.0,-0.0,-0.0,-0.0,-0.0,-0.0
0.92,0.19108371525294726,-0.07139345026147403,0.7093243870689754,-0.11791074720879074,0.4771397169305446,-0.026323125939353084,-0.0,-0.0,-0.0,-0.0,-0.0,-0.0,-0.0,-0.0
0.93,0.1321258630675046,-0.04975937050042954,0.4893742834440507,-0.02409823049283378,0.4732460462352638,0.12446642341699708,-0.0,-0.0,-0.0,-0.0,-0.0,-0.0,-0.0,-0.0
0.94,0.1511981094186683,-0.05331754617997259,0.5628334686031694,-0.11078499498089131,0.3891403048402568,-0.07025521513654504,-0.0,-0.0,-0.0,-0.0,-0.0,-0.0,-0.0,-0.0
0.95,0.18663520587141183,-0.0692377124465747,0.6972322133023795,-0.04355958216738519,0.545973434476973,0.15099787448538154,-0.0,-0.0,-0.0,-0.0,-0.0,-0.0,-0.0,-0.0
0.96,0.1675477782793438,-0.06229048284397948,0.6278236732617242,-0.16397918015089513,0.466072776512559,-0.10105700285751311,-0.0,-0.0,-0.0,-0.0,-0.0,-0.0,-0.0,-0.0
0.97,0.13429343039697308,-0.04855799694454326,0.49533136074514,-0.014178881412866435,0.6180918817969292,0.08325540942864386,-0.0,-0.0,-0.0,-0.0,-0.0,-0.0,-0.0,-0.0
0.98,0.1433336576231565,-0.052852462554320766,0.5384918637934225,-0.003755511232641833,0.25014543298999176,0.0027925845865177075,-0.0,-0.0,-0.0,-0.0,-0.0,-0.0,-0.0,-0.0
0.99,0.13688271022633816,-0.04859693679741813,0.5017220985917409,0.018408622815965614,0.5217659681776383,0.09784240429203724,-0.0,-0.0,-0.0,-0.0,-0.0,-0.0,-0.0,-0.0
1.0,0.1785913634182846,-0.06537797977604332,0.6599689860947306,-0.09323828037419025,0.46628627070552114,0.030171278954761432,-0.0,-0.0,-0.0,-0.0,-0.0,-0.0,-0.0,-0.0
1.01,0.17231126840024258,-0.06376806453456868,0.6361423770265802,0.013882790466950175,0.5937561175068806,0.21724912388733922,-0.0,-0.0,-0.0,-0.0,-0.0,-0.0,-0.0,-0.0
1.02,0.12335085968763966,-0.04657457411259979,0.4588266079304328,-0.11843174812153942,0.38410549493160334,0.00577296500222372,-0.0,-0.0,-0.0,-0.0,-0.0,-0.0,-0.0,-0.0
1.03,0.15054628163220493,-0.05609105430789633,0.556076358001845,0.03160868986053908,0.601576761853838,0.24216531188245177,0.0,0.0,0.0,0.0,0.0,0.0,0.0,0.0
1.04,0.12779042380793268,-0.046591871832994736,0.47107093606802747,-0.12190141490402157,0.3147159701026424,-0.06375746299363054,0.0,0.0,0.0,0.0,0.0,0.0,0.0,0.0
1.05,0.1754465209205509,-0.06361460208816756,0.6523617957594304,-0.10171693876119486,0.6596062588663177,0.2187344929858468,0.0,0.0,0.0,0.0,0.0,0.0,0.0,0.0
1.06,0.19601971788739025,-0.07134314616882258,0.7383475341596667,-0.13614846171090292,0.700849885672594,0.016620209212162843,0.0,0.0,0.0,0.0,0.0,0.0,0.0,0.0
1.07,0.15462365929939148,-0.054476289934745264,0.5685536353197017,0.0007648073984943279,0.5874707795828064,0.17905977896124708,0.0,0.0,0.0,0.0,0.0,0.0,0.0,0.0
1.08,0.0886051670208149,-0.03398153758713609,0.33839879485576474,-0.05408671192753137,0.5129092594825605,0.027791877251819357,0.0,0.0,0.0,0.0,0.0,0.0,0.0,0.0
1.09,0.210876552312918,-0.07460383048893951,0.7764714024291296,-0.05498475433499538,0.5252579137457218,0.1844337803482161,0.0,0.0,0.0,0.0,0.0,0.0,0.0,0.0
1.1,0.15714261469858995,-0.05779847465162768,0.5798356774386659,-0.05744157183180087,0.5288551909991561,0.04242832933358209,0.0,0.0,0.0,0.0,0.0,0.0,0.0,0.0
1.11,0.17331592392176678,-0.06284775432954179,0.6409385885894199,0.05061526387446023,0.6661241107460384,0.23375134350654478,0.0,0.0,0.0,0.0,0.0,0.0,0.0,0.0
1.12,0.11409137317529751,-0.04265416796505067,0.42626188170870005,-0.05811296795450179,0.437812086133932,-0.022919446777866538,0.0,0.0,0.0,0.0,0.0,0.0,0.0,0.0
1.13,0.15398591338507223,-0.057782749625861766,0.5695154475678239,0.010318268647830727,0.40403088952395433,0.13786927926984327,0.0,0.0,0.0,0.0,0.0,0.0,0.0,0.0
1.14,0.08734283894601164,-0.031909575311290767,0.32208413223624005,-0.06541781980898151,0.5836652756088377,0.040771517656527735,0.0,0.0,0.0,0.0,0.0,0.0,0.0,0.0
1.15,0.21468952809067188,-0.07792983494738895,0.7877547193289657,0.08154791020308662,0.4837637214337996,0.13677530280525108,0.0,0.0,0.0,0.0,0.0,0.0,0.0,0.0
1.16,0.14954792082922883,-0.05541583909147084,0.5618004543481099,-0.09615165336405182,0.6487703229267672,0.04625897697883461,0.0,0.0,0.0,0.0,0.0,0.0,0.0,0.0
1.17,0.18076428009336157,-0.06583817712516492,0.6656295792031512,0.06533848633057697,0.6061459267255347,0.16047682327563104,0.0,0.0,0.0,0.0,0.0,0.0,0.0,0.0
1.18,0.10650664173152494,-0.03937082134198611,0.39297755968703174,-0.07797816911084657,0.4783166179717152,0.0024869881033985366,0.0,0.0,0.0,0.0,0.0,0.0,0.0,0.0
1.19,0.1745448174499393,-0.06343569228267631,0.6426329258567663,0.05906978404274576,0.354613437028638,0.12794859370058387,0.0,0.0,0.0,0.0,0.0,0.0,0.0,0.0
1.2,0.16514095655344793,-0.06179702576474122,0.6202811258835789,-0.07708623010311723,0.9020560280975287,0.1453790233395302,0.0,0.0,0.0,0.0,0.0,0.0,0.0,0.0
1.21,0.21425873063898207,-0.07939758673797673,0.7927041629526637,-0.04366698341866327,0.5100350072678901,0.1525923020811495,0.0,0.0,0.0,0.0,0.0,0.0,0.0,0.0
1.22,0.07984213532845807,-0.029174130397971235,0.29686426195229937,-0.09982616819178342,0.6029542975485506,0.05160368798743689,0.0,0.0,0.0,0.0,0.0,0.0,0.0,0.0
1.23,0.1567185768298449,-0.056017711279808,0.5836599494137926,0.07758161502906295,0.36632552918719125,0.14878359838890712,0.0,0.0,0.0,0.0,0.0,0.0,0.0,0.0
1.24,0.09769570531876727,-0.03618858899044338,0.36832124210765554,-0.037663474633514514,0.4606435701533628,0.02435866918432563,0.0,0.0,0.0,0.0,0.0,0.0,0.0,0.0
1.25,0.18873966909879988,-0.06836690817535693,0.6955990083114665,0.10344637965008197,0.33014340072174897,0.17235690839420117,0.0,0.0,0.0,0.0,0.0,0.0,0.0,0.0
1.26,0.13877176021827045,-0.04914779957474496,0.5086236837613844,-0.17471839281962184,0.8992002713770835,0.163709998683944,0.0,0.0,0.0,0.0,0.0,0.0,0.0,0.0
1.27,0.18893995334620664,-0.0675089506127208,0.6983119149790129,0.05886491226575565,0.2646725776724916,0.19230898887066963,0.0,0.0,0.0,0.0,0.0,0.0,0.0,0.0
1.28,0.106564287283781,-0.038101227625025186,0.3989991829351623,-0.1901020368810493,0.6496916707605954,0.13820834215847191,0.0,0.0,0.0,0.0,0.0,0.0,0.0,0.0
1.29,0.1376707404116931,-0.05188627541530477,0.507346481554526,-0.09607070367411248,0.3251661770101831,0.21348953165143766,0.0,0.0,0.0,0.0,0.0,0.0,0.0,0.0
1.3,0.185681551212275,-0.06963847748014816,0.6957012679224763,-0.33589936590467334,0.6393537289060974,0.11218727517658209,0.0,0.0,0.0,0.0,0.0,0.0,0.0,0.0
1.31,0.21428785762355598,-0.07739364316841116,0.7749906310171124,-0.20780050023057392,0.6156531667678031,0.22494256604963492,0.0,0.0,0.0,0.0,0.0,0.0,0.0,0.0
1.32,0.10995554104396789,-0.038879966993047535,0.40508214848029817,-0.3344957186985656,0.5711957202432696,0.08115046430030681,0.0,0.0,0.0,0.0,0.0,0.0,0.0,0.0
1.33,0.13379581979121438,-0.04764201916396527,0.4927461598818188,-0.18958616620411353,0.45026680292914845,0.2208395365295125,0.0,0.0,0.0,0.0,0.0,0.0,0.0,0.0
1.34,0.1577085181181344,-0.05862054522906158,0.5940627610148381,-0.23258909703199684,0.5838433688771426,0.12162046340885256,0.0,0.0,0.0,0.0,0.0,0.0,0.0,0.0
1.35,0.15292801887944218,-0.056667169552050214,0.5622829167337916,-0.16933648240733915,0.38072855364588426,0.20037802036778696,0.0,0.0,0.0,0.0,0.0,0.0,0.0,0.0
1.36,0.17647327716565073,-0.06439980243108759,0.6583601291995675,-0.45865671359907945,0.7487792040907195,0.1366227261270452,0.0,0.0,0.0,0.0,0.0,0.0,0.0,0.0
1.37,0.16403685736607368,-0.06090309481171002,0.6091288501069263,-0.16917506405185737,0.42032515380660557,0.23232233408810074,0.0,0.0,0.0,0.0,0.0,0.0,0.0,0.0
1.38,0.11159740354283715,-0.03947709391579516,0.4158254172903415,-0.4245506070101082,0.7446784149632616,0.1286570203986397,0.0,0.0,0.0,0.0,0.0,0.0,0.0,0.0
1.39,0.130009913217047,-0.047971864714762016,0.48086836835913016,-0.11281203941250231,0.32858196074296026,0.21900496199376088,0.0,0.0,0.0,0.0,0.0,0.0,0.0,0.0
1.4,0.16197510775677326,-0.059204362936444065,0.6069020270635533,-0.4496678065383075,0.5988459881890955,0.0522621006002569,0.0,0.0,0.0,0.0,0.0,0.0,0.0,0.0
1.41,0.14851505629307046,-0.0564022739155096,0.5531491825986319,-0.4086606785328717,0.5944781918943971,0.2560296965580262,0.0,0.0,0.0,0.0,0.0,0.0,0.0,0.0
1.42,0.1707623720310202,-0.06491356149093204,0.6478297823343692,-0.6487600100752539,0.6516666202961117,0.03583212450684858,0.0,0.0,0.0,0.0,0.0,0.0,0.0,0.0
1.43,0.11702989746198372,-0.04088928143752118,0.42096211740991907,-0.1727528649695232,0.3780394678270243,0.19286957914445405,0.0,0.0,0.0,0.0,0.0,0.0,0.0,0.0
1.44,0.16215637930168522,-0.060725906060443716,0.6101438946814906,-0.4008035529828352,0.48851765960369803,0.05774968626876793,0.0,0.0,0.0,0.0,0.0,0.0,0.0,0.0
1.45,0.12572497136053026,-0.04807554871587481,0.4660008039409895,-0.3931725371239562,0.5764623872775726,0.202593222946373,0.0,0.0,0.0,0.0,0.0,0.0,0.0,0.0
1.46,0.2154117568749588,-0.07602637639234788,0.7984362850889207,-0.5676671665843591,0.6380828101071431,0.09431264556046624,0.0,0.0,0.0,0.0,0.0,0.0,0.0,0.0
1.47,0.11379103021598984,-0.04134168693400191,0.4217323805857545,-0.47701018769039855,0.5587409660396692,0.25763666295229876,0.0,0.0,0.0,0.0,0.0,0.0,0.0,0.0
1.48,0.15873453071737786,-0.06323511969137596,0.6015820341476642,-0.6456439071590394,0.6726393287398502,0.04319670881456743,0.0,0.0,0.0,0.0,0.0,0.0,0.0,0.0
1.49,0.11549170204311236,-0.04207431498565982,0.4240545696634306,-0.4018163633337031,0.4888991884414754,0.21936153332503083,0.0,0.0,0.0,0.0,0.0,0.0,0.0,0.0
1.5,0.16696537730525537,-0.06118037339148064,0.6246652992543769,-0.4118372143736983,0.4193382731452511,0.05230877472317264,0.0,0.0,0.0,0.0,0.0,0.0,0.0,0.0
1.51,0.1703549157396074,-0.060079423358665826,0.6334225964458101,-0.569823166367872,0.7826478711646399,0.25736189530417586,0.0,0.0,0.0,0.0,0.0,0.0,0.0,0.0
1.52,0.20975947671013975,-0.08045665172360313,0.7897345074563764,-0.557366349773647,0.6451916313771139,0.14705463185633896,0.0,0.0,0.0,0.0,0.0,0.0,0.0,0.0
1.53,0.07616940312983697,-0.02673834725212239,0.283936470173962,-0.48849169644285634,0.41887044471644425,0.18748267172973268,0.0,0.0,0.0,0.0,0.0,0.0,0.0,0.0
1.54,0.17225688287830693,-0.06348951454091466,0.6473215223712442,-0.38484405194181315,0.4280667694128209,0.01001078007005729,0.0,0.0,0.0,0.0,0.0,0.0,0.0,0.0
1.55,0.17326641809222396,-0.06427078995690232,0.6429110949814337,-0.5314189687691738,0.5603312021201478,0.13459371228137196,0.0,0.0,0.0,0.0,0.0,0.0,0.0,0.0
1.56,0.17884033937566146,-0.06857352560389189,0.667787103293717,-0.5517106658811511,0.5870031227824043,0.06588642224995965,0.0,0.0,0.0,0.0,0.0,0.0,0.0,0.0
1.57,0.12630757566143733,-0.046289457812610964,0.4605800700031656,-0.6691334860957235,0.6267944166537057,0.21240137995958672,0.0,0.0,0.0,0.0,0.0,0.0,0.0,0.0
1.58,0.15208678410066961,-0.05737426847236295,0.5717345767454273,-0.369920721481344,0.4480518669227378,0.02594120719229556,0.0,0.0,0.0,0.0,0.0,0.0,0.0,0.0
1.59,0.09818920634498997,-0.037828274224823495,0.3639874802876705,-0.5846152815360595,0.5652084827006811,0.17246660374530012,0.0,0.0,0.0,0.0,0.0,0.0,0.0,0.0
1.6,0.15533259009162326,-0.05820788261387698,0.5845627928645979,-0.5745816868699092,0.4843678469651265,0.025314087310517982,0.0,0.0,0.0,0.0,0.0,0.0,0.0,0.0
1.61,0.18918864870323623,-0.06923291344564367,0.6937341361904835,-0.6273130525794984,0.5101445766236421,0.21302936831176092,0.0,0.0,0.0,0.0,0.0,0.0,0.0,0.0
1.62,0.16343985266592587,-0.05948070837488348,0.6192957348281038,-0.7119693355364651,0.6292922126104319,0.1153512545546638,0.0,0.0,0.0,0.0,0.0,0.0,0.0,0.0
1.63,0.13731476931168082,-0.05013665286761864,0.5098114143469101,-0.7404187285044057,0.7208926096491567,0.18737543581260516,-0.0,-0.0,-0.0,-0.0,-0.0,-0.0,-0.0,-0.0
1.64,0.13875379353293854,-0.05134402314164235,0.5194739562602554,-0.3878258500354119,0.3764184784477327,0.0222909379403535,-0.0,-0.0,-0.0,-0.0,-0.0,-0.0,-0.0,-0.0
1.65,0.14510742295045742,-0.05468912902774746,0.5262837062485768,-0.6299134622701944,0.6084552556493725,0.2390195534278535,-0.0,-0.0,-0.0,-0.0,-0.0,-0.0,-0.0,-0.0
1.66,0.16711554029130046,-0.061198363375978476,0.6252051659413393,-0.624535025867145,0.48629341698539236,0.10292233447448723,-0.0,-0.0,-0.0,-0.0,-0.0,-0.0,-0.0,-0.0
1.67,0.1850112081173935,-0.06882344219415112,0.6872890975844159,-0.7329768118358414,0.5328663280798418,0.26255577668803226,-0.0,-0.0,-0.0,-0.0,-0.0,-0.0,-0.0,-0.0
1.68,0.08425919496601085,-0.03440736236058823,0.3195865657424182,-0.5870608906966445,0.5550852485819187,0.09235893604506576,-0.0,-0.0,-0.0,-0.0,-0.0,-0.0,-0.0,-0.0
1.69,0.14992832814754417,-0.05559753287116371,0.5617428936828016,-0.6113584358636821,0.3427894053133088,0.18773592902287017,-0.0,-0.0,-0.0,-0.0,-0.0,-0.0,-0.0,-0.0
1.7,0.10989202116387756,-0.04207656327887286,0.41739118946353154,-0.4933041669593814,0.3632297150419413,-0.0038994589840862814,-0.0,-0.0,-0.0,-0.0,-0.0,-0.0,-0.0,-0.0
1.71,0.18219162093341112,-0.0689310934850174,0.6723637972206471,-0.363081341311152,0.5287968165761407,0.22388178142020618,-0.0,-0.0,-0.0,-0.0,-0.0,-0.0,-0.0,-0.0
1.72,0.17309719823390887,-0.06449527282794773,0.6541132928928327,-0.8406050654139406,0.7653920752947472,0.030803863528780895,-0.0,-0.0,-0.0,-0.0,-0.0,-0.0,-0.0,-0.0
1.73,0.19973596391144496,-0.07301160881164769,0.7305097470057975,-0.48774512441361717,0.43134156242807525,0.1256369060112664,-0.0,-0.0,-0.0,-0.0,-0.0,-0.0,-0.0,-0.0
1.74,0.06284322207703372,-0.025775315637470552,0.23788158535180307,-0.5048466634038593,0.6150577766378699,-0.014219892028832844,-0.0,-0.0,-0.0,-0.0,-0.0,-0.0,-0.0,-0.0
1.75,0.20649433412719798,-0.07719460995207729,0.771215506849272,-0.3425939330517246,0.39342784925599744,0.16453130275469516,-0.0,-0.0,-0.0,-0.0,-0.0,-0.0,-0.0,-0.0
1.76,0.15126033566964608,-0.060583118405410974,0.5662209080278638,-0.6001524227996937,0.6840349919286532,0.08386425260557641,-0.0,-0.0,-0.0,-0.0,-0.0,-0.0,-0.0,-0.0
1.77,0.17861193216465626,-0.06589753774972966,0.6555149102215017,-0.2943520315247547,0.3193413140434385,0.06848102984620025,-0.0,-0.0,-0.0,-0.0,-0.0,-0.0,-0.0,-0.0
1.78,0.07909886207766431,-0.02910309037272343,0.3013689768536466,-0.4277784799736126,0.5934091744739384,-0.045287226111012865,-0.0,-0.0,-0.0,-0.0,-0.0,-0.0,-0.0,-0.0
1.79,0.16938180935812486,-0.06807015676027946,0.6339619102824298,-0.11050634705936291,0.25353189876107135,0.04820160076099527,0.0,0.0,0.0,0.0,0.0,0.0,0.0,0.0
1.8,0.09467693650528373,-0.03746360886036725,0.35804407683262557,-0.29666855771813516,0.4900401574698704,-0.016518215730860382,0.0,0.0,0.0,0.0,0.0,0.0,0.0,0.0
1.81,0.17339807070361085,-0.06771945900693034,0.6399768567527782,-0.17607571334300695,0.22510430888804592,0.09312686846601774,0.0,0.0,0.0,0.0,0.0,0.0,0.0,0.0
1.82,0.14512914375099242,-0.05763700790757599,0.5396233234407725,-0.3850925182176142,0.7194441120755247,0.08440537382612663,0.0,0.0,0.0,0.0,0.0,0.0,0.0,0.0
1.83,0.1823584544588801,-0.07050617368316839,0.6713857401069161,-0.08234680602401308,0.38514725919436277,0.11447822166967872,0.0,0.0,0.0,0.0,0.0,0.0,0.0,0.0
1.84,0.11173745910452812,-0.04378183802663527,0.41925465444639487,-0.21259842420501918,0.5745079929634916,0.06612862272163415,0.0,0.0,0.0,0.0,0.0,0.0,0.0,0.0
1.85,0.13065475538558438,-0.05002808949787724,0.48317515115465987,0.006685088815400178,0.24330272337938721,0.19285569335975683,0.0,0.0,0.0,0.0,0.0,0.0,0.0,0.0
1.86,0.2014025609908944,-0.07875442863417007,0.7505393749639834,-0.12359774515512088,0.6608003630973514,0.015879552011127087,0.0,0.0,0.0,0.0,0.0,0.0,0.0,0.0
1.87,0.21523454634535436,-0.08446506267429488,0.8001886025526793,-0.07385551462817411,0.5702963300202493,0.0859569017312177,0.0,0.0,0.0,0.0,0.0,0.0,0.0,0.0
1.88,0.11437151205088315,-0.04474109807169443,0.4253363955128957,-0.08834142488917632,0.6100514700133565,-0.04262379169681196,0.0,0.0,0.0,0.0,0.0,0.0,0.0,0.0
1.89,0.1598392107347,-0.06100797691932342,0.5860255775045029,0.06621319217870297,0.22476789341914324,0.07317134876987132,0.0,0.0,0.0,0.0,0.0,0.0,0.0,0.0
1.9,0.1235069161098992,-0.048309760227595595,0.4616185929104159,-0.03757911324870605,0.5374257360409304,0.030163356686154198,0.0,0.0,0.0,0.0,0.0,0.0,0.0,0.0
1.91,0.1872221981881884,-0.07066108368536024,0.6922458945371534,0.11826889466659647,0.41269436785622404,0.14755456494671637,0.0,0.0,0.0,0.0,0.0,0.0,0.0,0.0
1.92,0.16229527482332215,-0.06351096212159299,0.6046445770050629,0.031154921812618298,0.5743962152748201,0.09305999228551878,0.0,0.0,0.0,0.0,0.0,0.0,0.0,0.0
1.93,0.13234026118855996,-0.05032950052531618,0.48808783570700104,0.16811083053190412,0.36565243929568314,0.13779417765109425,0.0,0.0,0.0,0.0,0.0,0.0,0.0,0.0
1.94,0.14302751691346116,-0.055087412467650615,0.5317858743776153,0.16473733897146214,0.526257410363756,-0.05591832704210048,0.0,0.0,0.0,0.0,0.0,0.0,0.0,0.0
1.95,0.13244206135445213,-0.052379834326283764,0.49420650734470495,0.10967070066556665,0.19107472873084733,0.13556490856914033,0.0,0.0,0.0,0.0,0.0,0.0,0.0,0.0
1.96,0.16683828784929614,-0.06647130662720703,0.6286494022128872,0.17651146726531158,0.6009547902013369,-0.018428757515649742,0.0,0.0,0.0,0.0,0.0,0.0,0.0,0.0
1.97,0.20133746556739796,-0.07874412322999899,0.7573572829967261,0.31670496736331477,0.5537115379703081,0.18467672393891138,0.0,0.0,0.0,0.0,0.0,0.0,0.0,0.0
1.98,0.1449503830209513,-0.057244293998464604,0.5425791291771183,0.0835600429349362,0.5600447396750013,0.039145851002025195,0.0,0.0,0.0,0.0,0.0,0.0,0.0,0.0
1.99,0.09769648707548959,-0.03620837658179085,0.3588373054325892,0.19443627691477566,0.30899401553557587,0.10651168845503448,0.0,0.0,0.0,0.0,0.0,0.0,0.0,0.0
2.0,0.2014344426728909,-0.07829825235063262,0.7535907972551795,0.25373989437187955,0.48449520694547377,0.013014176993204892,0.0,0.0,0.0,0.0,0.0,0.0,0.0,0.0
2.01,0.1608449828862166,-0.06219953450941147,0.6015968276432024,0.33113973256862295,0.45396943226675596,0.026044413480998056,0.0,0.0,0.0,0.0,0.0,0.0,0.0,0.0
2.02,0.16422040524043388,-0.06357096432441786,0.6194599246490309,0.34054645362337904,0.7023383599591881,-0.10099316190999881,0.0,0.0,0.0,0.0,0.0,0.0,0.0,0.0
2.03,0.12315591877177652,-0.04618372398583273,0.44697742360985787,0.3147396680813021,0.37966240678569296,0.09324174976980598,0.0,0.0,0.0,0.0,0.0,0.0,0.0,0.0
2.04,0.148394779161865,-0.05638113744283311,0.5534363126581475,0.20572769719378411,0.4422031565575612,-0.02990761790245961,0.0,0.0,0.0,0.0,0.0,0.0,0.0,0.0
2.05,0.09330675845606079,-0.03554266941575725,0.3408374128149491,0.29308850298282263,0.36257829083823423,0.0727121146902966,0.0,0.0,0.0,0.0,0.0,0.0,0.0,0.0
2.06,0.2089599119516157,-0.08022548284571696,0.7728891625511903,0.23690499414626454,0.6095788303753815,0.012273046079355436,0.0,0.0,0.0,0.0,0.0,0.0,0.0,0.0
2.07,0.15354945661443212,-0.05994269964778766,0.5732969372999737,0.2942823430897423,0.5168404188570564,0.14908515884246326,0.0,0.0,0.0,0.0,0.0,0.0,0.0,0.0
2.08,0.1757668455816688,-0.0673888452533439,0.6525686469679145,0.1624242655062622,0.6503095500195453,0.08714378370051254,0.0,0.0,0.0,0.0,0.0,0.0,0.0,0.0
2.09,0.10915589292818327,-0.041000340610817504,0.40648790734141593,0.21168597895963256,0.3831593142169995,0.1343916755617448,0.0,0.0,0.0,0.0,0.0,0.0,0.0,0.0
2.1,0.16733986765585931,-0.06284513381992628,0.6290096099247918,0.015809320701008784,0.42110347777191653,0.005003689789620384,0.0,0.0,0.0,0.0,0.0,0.0,0.0,0.0
2.11,0.12109456888893011,-0.04570832294131882,0.4424824480315027,0.2082343049390503,0.53055516555942,0.1992201751830539,0.0,0.0,0.0,0.0,0.0,0.0,0.0,0.0
2.12,0.2233871340827561,-0.08462883678617636,0.8299991822870904,0.08162297024048314,0.528371587815337,0.02920528439560634,0.0,0.0,0.0,0.0,0.0,0.0,0.0,0.0
2.13,0.09803949259648181,-0.037543476769475385,0.36926351518005474,0.20115434062385185,0.6040739761648641,0.18303610621817226,0.0,0.0,0.0,0.0,0.0,0.0,0.0,0.0
2.14,0.13943296635595617,-0.05135560457280958,0.5151835585323207,0.09224256053816501,0.3940142995288658,0.0040662515417279315,0.0,0.0,0.0,0.0,0.0,0.0,0.0,0.0
2.15,0.11552347982634686,-0.042316640682905984,0.42374674682327557,0.20532882894107865,0.456569973492392,0.13327151662138276,0.0,0.0,0.0,0.0,0.0,0.0,0.0,0.0
2.16,0.15841788380351757,-0.06060166175352551,0.5928872934992216,0.021784627918472303,0.3155100725680951,-0.042993272804187764,0.0,0.0,0.0,0.0,0.0,0.0,0.0,0.0
2.17,0.162836258030128,-0.06130906374609985,0.6022923161564272,0.23126503354687297,0.6551630016199737,0.17762047696350058,0.0,0.0,0.0,0.0,0.0,0.0,0.0,0.0
2.18,0.21894327405540867,-0.08305704225642023,0.8196633562025811,0.06416081316646069,0.5799646843530261,-0.03449035433797655,0.0,0.0,0.0,0.0,0.0,0.0,0.0,0.0
2.19,0.10131538772346163,-0.037031509013146176,0.3765796596475185,0.16361583214298567,0.568631904800908,0.16453783441484462,-0.0,-0.0,-0.0,-0.0,-0.0,-0.0,-0.0,-0.0
2.2,0.1371522065455958,-0.05285281752637287,0.5112549749967092,0.06530936616162697,0.42280871642448986,0.01248811182633186,-0.0,-0.0,-0.0,-0.0,-0.0,-0.0,-0.0,-0.0
2.21,0.18993718072101426,-0.0707839143462516,0.6981894527458743,0.08651266049046875,0.7175475801364144,0.139270230016465,-0.0,-0.0,-0.0,-0.0,-0.0,-0.0,-0.0,-0.0
2.22,0.20945626960606778,-0.07949837049369869,0.7722234279664071,0.016707034199291388,0.6891561807547598,0.031556583960726484,-0.0,-0.0,-0.0,-0.0,-0.0,-0.0,-0.0,-0.0
2.23,0.11145578107489873,-0.04111685464897441,0.4036806482466713,0.05648072667911792,0.5642563558773371,0.18348670010333795,-0.0,-0.0,-0.0,-0.0,-0.0,-0.0,-0.0,-0.0
2.24,0.13709034278813007,-0.05232999341256785,0.5065784827363974,-0.05424424846037593,0.38035261312160107,0.017364131164191204,-0.0,-0.0,-0.0,-0.0,-0.0,-0.0,-0.0,-0.0
2.25,0.13366911048271377,-0.049640920671864805,0.49354490690989866,0.10088846171437728,0.45628149727186273,0.13046046602649003,-0.0,-0.0,-0.0,-0.0,-0.0,-0.0,-0.0,-0.0
2.26,0.1274018916978018,-0.049224535772393274,0.48003936768467864,-0.044002630647077955,0.4280823269255556,-0.019758307487124826,-0.0,-0.0,-0.0,-0.0,-0.0,-0.0,-0.0,-0.0
2.27,0.1789625177354552,-0.06597828071645336,0.6640602573597494,-0.051911299888308116,0.5866354059615864,0.24154686863853667,-0.0,-0.0,-0.0,-0.0,-0.0,-0.0,-0.0,-0.0
2.28,0.1483507021371336,-0.05614443814223697,0.5558304979549813,-0.1503443887395358,0.602779056121618,0.08398126709415835,-0.0,-0.0,-0.0,-0.0,-0.0,-0.0,-0.0,-0.0
2.29,0.16089176992753212,-0.06127992914450397,0.5891620683924708,0.043535232728592554,0.5364130274105234,0.15677297331589682,-0.0,-0.0,-0.0,-0.0,-0.0,-0.0,-0.0,-0.0
2.3,0.09021836175200586,-0.034455050517175276,0.33830563766207516,-0.16688911139962373,0.5726421110617373,0.00047785789398003625,0.0,0.0,0.0,0.0,0.0,0.0,0.0,0.0
2.31,0.18619880809342926,-0.070089745919755,0.6910969086906277,0.11462153652271143,0.3956329828559268,0.18757547497043436,0.0,0.0,0.0,0.0,0.0,0.0,0.0,0.0
2.32,0.1222381138238943,-0.047492695354272946,0.46266378414793286,-0.10995472649484304,0.660306849955471,0.023052514552752236,0.0,0.0,0.0,0.0,0.0,0.0,0.0,0.0
2.33,0.19719809192442675,-0.07506377648199865,0.7360967263598011,-0.005982282981788767,0.5315745703559556,0.2121803069721754,0.0,0.0,0.0,0.0,0.0,0.0,0.0,0.0
2.34,0.09929903070672323,-0.038503105871987,0.37085922035921354,-0.05775886772562196,0.7556715368743566,0.01867449229181176,0.0,0.0,0.0,0.0,0.0,0.0,0.0,0.0
2.35,0.17725121380485326,-0.06672477730736842,0.6476460074040722,0.01745743968633611,0.2938735502587136,0.14429653244327842,0.0,0.0,0.0,0.0,0.0,0.0,0.0,0.0
2.36,0.11122927956532327,-0.04107903830186053,0.4107213717826021,-0.19446642610368395,0.7491430514427141,0.12473695508660312,0.0,0.0,0.0,0.0,0.0,0.0,0.0,0.0
2.37,0.2157047559785835,-0.08187023627403404,0.8001282726508149,-0.09099831234103409,0.42332967559190476,0.14986894488785418,0.0,0.0,0.0,0.0,0.0,0.0,0.0,0.0
2.38,0.12521623076127356,-0.046891055812281014,0.4686951740981114,-0.23210259158016572,0.7249809140227675,0.04279609788561273,0.0,0.0,0.0,0.0,0.0,0.0,0.0,0.0
2.39,0.158111999483606,-0.058028505638163363,0.5783345504173951,-0.03669461842626002,0.43834947099110655,0.1848781004427,0.0,0.0,0.0,0.0,0.0,0.0,0.0,0.0
2.4,0.12114155986941322,-0.04647591060859871,0.4491679543715911,-0.1942833039430322,0.6635152215503621,0.10755659457351538,0.0,0.0,0.0,0.0,0.0,0.0,0.0,0.0
2.41,0.15493529294099267,-0.06022032415885519,0.5833188774731856,-0.024760170065804624,0.28453733673363507,0.1251593875473192,0.0,0.0,0.0,0.0,0.0,0.0,0.0,0.0
2.42,0.16140534563035958,-0.06104580056960605,0.6064390273397902,-0.24318280509883058,0.8817383946569222,0.08620233396542025,0.0,0.0,0.0,0.0,0.0,0.0,0.0,0.0
2.43,0.22178359670384423,-0.08301581104895987,0.8192445709866445,-0.010301239759710841,0.5614433886183623,0.10654010397675014,0.0,0.0,0.0,0.0,0.0,0.0,0.0,0.0
2.44,0.09714972521057863,-0.03712605516063593,0.37413436786005366,-0.2789319944987352,0.6160210943515703,0.08885234761441228,0.0,0.0,0.0,0.0,0.0,0.0,0.0,0.0
2.45,0.14274500778591961,-0.05308712041738448,0.5151834456278669,-0.16316086460070975,0.3665676571992169,0.15810005570525582,0.0,0.0,0.0,0.0,0.0,0.0,0.0,0.0
2.46,0.18598073696419903,-0.07031821900555968,0.6920610012145397,-0.24533008909613135,0.7325226330643919,-0.010527323315755045,0.0,0.0,0.0,0.0,0.0,0.0,0.0,0.0
2.47,0.1743742543776099,-0.06673706038437614,0.64482040170685,-0.025585520660348665,0.5002075953279137,0.1269556181938583,0.0,0.0,0.0,0.0,0.0,0.0,0.0,0.0
2.48,0.13967033378218072,-0.05539753908557098,0.5266801049994702,-0.24895295906193718,0.7500591580662245,0.1640590615719819,0.0,0.0,0.0,0.0,0.0,0.0,0.0,0.0
2.49,0.14411016283079847,-0.052518191740140975,0.5213126702338068,-0.032825171982971434,0.28910389124513647,0.13152791919930407,0.0,0.0,0.0,0.0,0.0,0.0,0.0,0.0
2.5,0.12172232914796426,-0.04249824190255573,0.45191607484110696,-0.03699207665022031,0.5602176090722375,0.009232502517145781,0.0,0.0,0.0,0.0,0.0,0.0,0.0,0.0
2.51,0.12378724202556993,-0.04618803758280119,0.4559052791178663,0.008819600014736435,0.32037160033816375,0.13906700598200786,0.0,0.0,0.0,0.0,0.0,0.0,0.0,0.0
2.52,0.20157032800249391,-0.07961826012188182,0.7466263871083546,-0.16287119252699236,0.564623925840381,0.049891463859318044,0.0,0.0,0.0,0.0,0.0,0.0,0.0,0.0
2.53,0.1637132008789411,-0.05905137853499909,0.5953231915647189,0.010026351395414948,0.4594308521422675,0.11747177744586737,0.0,0.0,0.0,0.0,0.0,0.0,0.0,0.0
2.54,0.15416262281780901,-0.05726939544348376,0.5849192369071461,-0.14886371841887294,0.6735925830136038,0.07621787016025494,0.0,0.0,0.0,0.0,0.0,0.0,0.0,0.0
2.55,0.1207978532464606,-0.05014919899011507,0.45213302001254235,0.014977121191161518,0.26392684003904976,0.09455040552259529,0.0,0.0,0.0,0.0,0.0,0.0,0.0,0.0
2.56,0.15511763914956908,-0.06211098424182043,0.582926222605888,-0.15012604947234975,0.5572555154701605,0.017343804746370633,0.0,0.0,0.0,0.0,0.0,0.0,0.0,0.0
2.57,0.14059800317482912,-0.05310729081219468,0.5245787223767399,-0.05814075039415358,0.47526839982115376,0.1027337386445481,0.0,0.0,0.0,0.0,0.0,0.0,0.0,0.0
2.58,0.21068219601205118,-0.07967354081095954,0.7879811671370801,-0.10686873027495243,0.544138626193417,0.03560082740837438,0.0,0.0,0.0,0.0,0.0,0.0,0.0,0.0
2.59,0.08465483089035931,-0.031479209931102446,0.31602632684766263,0.022408727019523848,0.4847237894546131,0.12876142221315162,0.0,0.0,0.0,0.0,0.0,0.0,0.0,0.0
2.6,0.14898413775451894,-0.0556190904286155,0.5525656520489367,-0.15826222567052714,0.42564070540711946,-0.00493996319948871,0.0,0.0,0.0,0.0,0.0,0.0,0.0,0.0
2.61,0.11161794076656026,-0.04141658314003232,0.41077536354134986,0.01999723967925443,0.3592653265809391,0.13558492757588705,0.0,0.0,0.0,0.0,0.0,0.0,0.0,0.0
2.62,0.1685215242227676,-0.06402233750387006,0.6291257871399626,-0.10962303077204538,0.41559902369306173,-0.0002458438802239514,0.0,0.0,0.0,0.0,0.0,0.0,0.0,0.0
2.63,0.17738415676485472,-0.06585701427480971,0.6390096742206605,-0.0166782290954208,0.6913346549718142,0.15035551342954767,-0.0,-0.0,-0.0,-0.0,-0.0,-0.0,-0.0,-0.0
2.64,0.20421440013390063,-0.07700354949975566,0.7699256476078274,-0.1333486245908263,0.61803128585576,-0.027665696917197558,-0.0,-0.0,-0.0,-0.0,-0.0,-0.0,-0.0,-0.0
2.65,0.09629433661011,-0.036635807479188806,0.3496648874219173,0.008730346502438492,0.4632626478342717,0.12979807804765187,-0.0,-0.0,-0.0,-0.0,-0.0,-0.0,-0.0,-0.0
2.66,0.16226465613994295,-0.06267476828610544,0.6161633320253727,-0.17524387948559247,0.46992434097555763,0.05021420591577051,-0.0,-0.0,-0.0,-0.0,-0.0,-0.0,-0.0,-0.0
2.67,0.16991892472873735,-0.06419759035707218,0.6337185008870744,-0.22615310116071832,0.6969941679625935,0.28674397918592726,-0.0,-0.0,-0.0,-0.0,-0.0,-0.0,-0.0,-0.0
2.68,0.21210487926318372,-0.08006290414336971,0.7931292669617762,-0.2718803507376479,0.6697364934949543,0.06812156294070269,-0.0,-0.0,-0.0,-0.0,-0.0,-0.0,-0.0,-0.0
2.69,0.07964608350135889,-0.030140309492080897,0.2880750943852068,-0.07253352304886979,0.4403173805604279,0.15706990249437278,-0.0,-0.0,-0.0,-0.0,-0.0,-0.0,-0.0,-0.0
2.7,0.16628619889200474,-0.062180318688384834,0.6278286940995003,-0.15998281998408254,0.529024837369695,0.03187255721123451,-0.0,-0.0,-0.0,-0.0,-0.0,-0.0,-0.0,-0.0
2.71,0.13840461902247042,-0.05255554429274156,0.5055209993381217,-0.14065868094325032,0.5021795198426003,0.1985888125576068,-0.0,-0.0,-0.0,-0.0,-0.0,-0.0,-0.0,-0.0
2.72,0.17589142807944447,-0.06479712441381592,0.6563705644817964,-0.3050627525402688,0.494692398068888,0.01799217972460166,0.0,0.0,0.0,0.0,0.0,0.0,0.0,0.0
2.73,0.16226930881260523,-0.0600957909975646,0.5978053920772586,-0.17276607857644063,0.5910688783160665,0.19569718317550122,0.0,0.0,0.0,0.0,0.0,0.0,0.0,0.0
2.74,0.16791037529775116,-0.06594281835079471,0.6311428806268281,-0.28992495879943264,0.603003020252154,0.053550425289429736,0.0,0.0,0.0,0.0,0.0,0.0,0.0,0.0
2.75,0.08645725597259295,-0.031780093145975456,0.3141763037657538,-0.27052700852111683,0.5315746582823017,0.14800689270588563,0.0,0.0,0.0,0.0,0.0,0.0,0.0,0.0
2.76,0.16728228216675295,-0.0638436479611839,0.6307147693481826,-0.22754791938937743,0.4053446621447931,0.0005492059390504096,0.0,0.0,0.0,0.0,0.0,0.0,0.0,0.0
2.77,0.17521088648097133,-0.06378656837309547,0.6542599152956696,-0.2726384317343591,0.5349391325324104,0.18715829446342813,0.0,0.0,0.0,0.0,0.0,0.0,0.0,0.0
2.78,0.1771928166804185,-0.0694459302903984,0.6590485583048308,-0.24387428545900244,0.5814648179321935,0.05168313715004304,0.0,0.0,0.0,0.0,0.0,0.0,0.0,0.0
2.79,0.12847844069937972,-0.04826861428648464,0.4715522000484812,-0.190176555426479,0.6104751208138398,0.16947305380891625,0.0,0.0,0.0,0.0,0.0,0.0,0.0,0.0
2.8,0.14927217474774093,-0.056217448816258335,0.5600940597217771,-0.10845867969675484,0.2749820844469879,-0.009726269359714391,0.0,0.0,0.0,0.0,0.0,0.0,0.0,0.0
2.81,0.1301029937413907,-0.04971924292905284,0.4843594884809457,-0.1768400497950178,0.6161177891492274,0.22258690586217295,0.0,0.0,0.0,0.0,0.0,0.0,0.0,0.0
2.82,0.1810723125244442,-0.06909174209108489,0.6717208049520422,-0.34635065252186686,0.501956138209303,-0.012874841581047475,0.0,0.0,0.0,0.0,0.0,0.0,0.0,0.0
2.83,0.16798334201478513,-0.06352160590568162,0.6262306314550179,-0.12045746221239614,0.5864335531954965,0.13911287822445595,0.0,0.0,0.0,0.0,0.0,0.0,0.0,0.0
2.84,0.12329655894638142,-0.04767098367139222,0.4689060186068693,-0.2526569652765533,0.45095871163801876,-0.00444947307924616,0.0,0.0,0.0,0.0,0.0,0.0,0.0,0.0
2.85,0.14831591416993292,-0.056449063731731496,0.5507251757326881,-0.1821597391130526,0.5946834267516055,0.15164385244982295,0.0,0.0,0.0,0.0,0.0,0.0,0.0,0.0
2.86,0.1253193555156397,-0.04950847802006691,0.4763538319985395,-0.1746587562419422,0.3165971963143533,-0.026296091634817397,0.0,0.0,0.0,0.0,0.0,0.0,0.0,0.0
2.87,0.17439428348327213,-0.06678124428989908,0.6530606702135048,-0.16880796098704784,0.5522638175154329,0.17742528175551117,0.0,0.0,0.0,0.0,0.0,0.0,0.0,0.0
2.88,0.19556698559895994,-0.0754407307081862,0.7386288987291321,-0.2364236114022248,0.6676158416746241,-0.00795790327622924,0.0,0.0,0.0,0.0,0.0,0.0,0.0,0.0
2.89,0.15443927681111508,-0.06037918552126868,0.5616802751678138,-0.028817767165835454,0.5145495103133413,0.20878063023527824,0.0,0.0,0.0,0.0,0.0,0.0,0.0,0.0
2.9,0.09288986548814795,-0.034924544885569585,0.3506318273281441,-0.18211599789516258,0.4207052446135882,0.06692054812298914,0.0,0.0,0.0,0.0,0.0,0.0,0.0,0.0
2.91,0.18366791430973797,-0.06887374846066498,0.6826886038287574,0.02358951281775751,0.5024791819175841,0.15283703640561955,0.0,0.0,0.0,0.0,0.0,0.0,0.0,0.0
2.92,0.12387751017749345,-0.04983658324720872,0.4667288148967768,-0.11097390582498129,0.4095640057128392,-0.002396611581320207,0.0,0.0,0.0,0.0,0.0,0.0,0.0,0.0
2.93,0.1965435233949565,-0.07361622859620358,0.7235677466584274,-0.06383024017622552,0.5489222882956902,0.14044373313665826,0.0,0.0,0.0,0.0,0.0,0.0,0.0,0.0
2.94,0.10155527178139222,-0.04120961449956557,0.3835408069981095,-0.13234411286272266,0.593762163119639,0.009611403349550475,0.0,0.0,0.0,0.0,0.0,0.0,0.0,0.0
2.95,0.1702239757345536,-0.06355805775272462,0.6268717918809773,0.006108214980461978,0.29943531017875696,0.05461601037674581,0.0,0.0,0.0,0.0,0.0,0.0,0.0,0.0
2.96,0.07405653048501568,-0.028557138437547223,0.27899058415379335,-0.014381504118564497,0.5421874280690234,0.005149422772757187,0.0,0.0,0.0,0.0,0.0,0.0,0.0,0.0
2.97,0.20036026787919745,-0.0792036611560415,0.7435919721387496,0.025068142444395463,0.36946270264844056,0.06360068928152131,0.0,0.0,0.0,0.0,0.0,0.0,0.0,0.0
2.98,0.15739133098763383,-0.06102483288417689,0.587511114379861,-0.07269511432857595,0.6091322585523201,0.027038335545179412,0.0,0.0,0.0,0.0,0.0,0.0,0.0,0.0
2.99,0.1846678463624254,-0.0711341039403206,0.6845220392028135,0.022448683019772507,0.47350301929636135,0.13758669721441547,0.0,0.0,0.0,0.0,0.0,0.0,0.0,0.0
3.0,0.10675336049560884,-0.04185132048304606,0.4067070735874257,-0.10193053730149916,0.5953120664397442,-0.04579144431999325,-0.0,-0.0,-0.0,-0.0,-0.0,-0.0,-0.0,-0.0
3.01,0.1683462187395182,-0.06335174518659277,0.6229011203169155,0.052600671496860756,0.1745892699893148,0.08402410605386072,-0.0,-0.0,-0.0,-0.0,-0.0,-0.0,-0.0,-0.0
3.02,0.11353330521814103,-0.04522194684461316,0.43089018320542766,-0.10392388245959801,0.6855871445610373,0.07157693939332577,-0.0,-0.0,-0.0,-0.0,-0.0,-0.0,-0.0,-0.0
3.03,0.21135555852937676,-0.07906732975788285,0.7815446089235173,0.1502187968327382,0.3901320036678884,0.112564678787032,-0.0,-0.0,-0.0,-0.0,-0.0,-0.0,-0.0,-0.0
3.04,0.1298953297643487,-0.04872295448611568,0.4886249780912616,0.04825336968187423,0.6165522143742046,0.026840317125409432,-0.0,-0.0,-0.0,-0.0,-0.0,-0.0,-0.0,-0.0
3.05,0.11894268680657419,-0.046232037397081115,0.4411820127213721,0.07453637367026426,0.21882236105292752,0.005956658436626494,-0.0,-0.0,-0.0,-0.0,-0.0,-0.0,-0.0,-0.0
3.06,0.12278303878093426,-0.04835564908597422,0.4687288761385428,-0.02483958273208987,0.5763276339878379,0.03261425742198924,-0.0,-0.0,-0.0,-0.0,-0.0,-0.0,-0.0,-0.0
3.07,0.14190761166122665,-0.053711628465649024,0.5271054778884704,0.03340581960246748,0.14441641750236908,0.08871288841490665,-0.0,-0.0,-0.0,-0.0,-0.0,-0.0,-0.0,-0.0
3.08,0.15870518795775343,-0.06259213470613316,0.6070328496771207,0.09171247365486077,0.6055917508642596,-0.05255483033772244,-0.0,-0.0,-0.0,-0.0,-0.0,-0.0,-0.0,-0.0
3.09,0.21055454698017392,-0.07883291583709207,0.780778740701747,0.18526211932088846,0.38067580869773865,0.09834618128838839,0.0,0.0,0.0,0.0,0.0,0.0,0.0,0.0
3.1,0.1378188643362963,-0.0513534120650287,0.5214788785724875,0.06078329493998462,0.600752789132638,-0.007331323978359841,0.0,0.0,0.0,0.0,0.0,0.0,0.0,0.0
3.11,0.12356117428112215,-0.047505619815320865,0.45605100804496873,0.05430166171173211,0.25542211945443416,0.05995994275731721,0.0,0.0,0.0,0.0,0.0,0.0,0.0,0.0
3.12,0.16380595742272544,-0.06351713149306372,0.6213656133841476,0.09201754054447436,0.5900212974861591,-0.005770372465563815,0.0,0.0,0.0,0.0,0.0,0.0,0.0,0.0
3.13,0.20747581117131494,-0.07893366093396421,0.7711256395075705,0.0790393839010794,0.5084535467435076,0.1032927492977093,0.0,0.0,0.0,0.0,0.0,0.0,0.0,0.0
3.14,0.14042918241509483,-0.052732451575342065,0.5277119578975868,-0.10239965092250643,0.5711587535482132,0.07067084914886322,0.0,0.0,0.0,0.0,0.0,0.0,0.0,0.0
3.15,0.10518510437908994,-0.03996226225907488,0.389506881346238,0.11531721207108252,0.30034700557093613,0.09958378355863944,0.0,0.0,0.0,0.0,0.0,0.0,0.0,0.0
3.16,0.17024756310204747,-0.06464128971662218,0.6386300812161484,-0.13930780355464975,0.5248372080477968,0.0026395120013168343,0.0,0.0,0.0,0.0,0.0,0.0,0.0,0.0
3.17,0.14166295069076784,-0.05380948907693254,0.5259237046991843,-0.020395948592375382,0.31725906863256687,0.15543322291579828,0.0,0.0,0.0,0.0,0.0,0.0,0.0,0.0
3.18,0.1725744482813531,-0.06505235062071188,0.6459265708624288,-0.1264839209784283,0.6719921474089486,0.08021407262363543,0.0,0.0,0.0,0.0,0.0,0.0,0.0,0.0
3.19,0.15375267051577587,-0.05666520786310288,0.5640840465208957,-0.008793160962089345,0.4158276923993935,0.1228057603951131,0.0,0.0,0.0,0.0,0.0,0.0,0.0,0.0
3.2,0.15414669239636403,-0.05696766470918302,0.5863261412501775,-0.15933040134628157,0.5146911026751885,0.03929986768549534,0.0,0.0,0.0,0.0,0.0,0.0,0.0,0.0
3.21,0.09158555161249002,-0.034419138229334865,0.3289615946595181,-0.038835328617196546,0.364380692193822,0.09287384908933503,0.0,0.0,0.0,0.0,0.0,0.0,0.0,0.0
3.22,0.210330132455616,-0.07945105936739721,0.7854639850052684,-0.2045846599244878,0.5051100844108495,-0.029490701772102963,0.0,0.0,0.0,0.0,0.0,0.0,0.0,0.0
3.23,0.1524022140851696,-0.05634378851757275,0.5663405099619856,-0.020037635699389805,0.5140509529896711,0.17132015009434592,0.0,0.0,0.0,0.0,0.0,0.0,0.0,0.0
3.24,0.17622104330365942,-0.0694547917974284,0.663056533872043,-0.15087169734711917,0.7173472095797364,0.059831551603356146,0.0,0.0,0.0,0.0,0.0,0.0,0.0,0.0
3.25,0.10659121238109198,-0.038849447084404805,0.3897097151780936,0.02214774794215967,0.41777822114317026,0.12973337967892748,0.0,0.0,0.0,0.0,0.0,0.0,0.0,0.0
3.26,0.17377687978184764,-0.06608252872771475,0.6584380486093293,-0.1020307236764608,0.3356392294311274,-0.006343841888312438,0.0,0.0,0.0,0.0,0.0,0.0,0.0,0.0
3.27,0.0755317772831215,-0.02869179315448993,0.27387620083317277,-0.08900484038984015,0.43744144846817257,0.1434576077020919,0.0,0.0,0.0,0.0,0.0,0.0,0.0,0.0
3.28,0.2125509151477173,-0.08119349945464423,0.7961071420269379,-0.14694654548631642,0.5393897057387993,0.00014960560065695096,0.0,0.0,0.0,0.0,0.0,0.0,0.0,0.0
3.29,0.12701248267188292,-0.04738378454849638,0.4767647353394297,-0.07244936009876117,0.5470247825566451,0.1398126056350528,0.0,0.0,0.0,0.0,0.0,0.0,0.0,0.0
3.3,0.15225233223541934,-0.05697983692163458,0.5690950110627127,-0.12926771122507072,0.4595482915827328,0.01641998063418924,0.0,0.0,0.0,0.0,0.0,0.0,0.0,0.0
3.31,0.1221671509703402,-0.04769339704357821,0.46003689759256267,-0.06834358794797372,0.6121569335070746,0.16499485787600185,0.0,0.0,0.0,0.0,0.0,0.0,0.0,0.0
3.32,0.15343599261575028,-0.05782446436619792,0.5750313320184545,-0.11754967621804066,0.3038892993117533,-0.050260662370411914,0.0,0.0,0.0,0.0,0.0,0.0,0.0,0.0
3.33,0.16750458123897266,-0.06448176963615139,0.6164377641713856,-0.04534437101754695,0.7283939294256384,0.1530917892285823,0.0,0.0,0.0,0.0,0.0,0.0,0.0,0.0
3.34,0.21493572145481324,-0.0822895288008246,0.8047557408761665,-0.2307899701122341,0.6676361549021275,-0.022944722205894757,-0.0,-0.0,-0.0,-0.0,-0.0,-0.0,-0.0,-0.0
3.35,0.10531113201861728,-0.038101861496359773,0.38607754283297124,-0.08730410419434644,0.5377572700788267,0.11353972426302267,-0.0,-0.0,-0.0,-0.0,-0.0,-0.0,-0.0,-0.0
3.36,0.1379024602596504,-0.05256189768771691,0.5194102470501326,-0.16780818035600997,0.46355944761396783,0.018102177573007465,-0.0,-0.0,-0.0,-0.0,-0.0,-0.0,-0.0,-0.0
3.37,0.1331666956446731,-0.049300011113627,0.48702985147979055,0.03229106802476086,0.3989621134230071,0.0831845587169369,-0.0,-0.0,-0.0,-0.0,-0.0,-0.0,-0.0,-0.0
3.38,0.1266174412317083,-0.04874763267157261,0.4766710669101536,-0.11583056858200605,0.41625903527296815,0.0005672931791576108,-0.0,-0.0,-0.0,-0.0,-0.0,-0.0,-0.0,-0.0
3.39,0.1893379663112758,-0.07067099939328396,0.6901423448913293,-0.0072068190642796725,0.6274792563917244,0.08670367659508704,-0.0,-0.0,-0.0,-0.0,-0.0,-0.0,-0.0,-0.0
3.4,0.11376898014513429,-0.04496692498328132,0.42610537716437924,-0.08711396525643172,0.561852400303439,0.04699314482585377,-0.0,-0.0,-0.0,-0.0,-0.0,-0.0,-0.0,-0.0
3.41,0.16002511550524856,-0.06182642952888397,0.581997868769982,0.028596910854881374,0.26752570072829174,0.13118376929686962,0.0,0.0,0.0,0.0,0.0,0.0,0.0,0.0
3.42,0.08954438857358683,-0.03429324799683326,0.33910647756482803,-0.10418687706939496,0.5523366731137649,0.07544251847860223,0.0,0.0,0.0,0.0,0.0,0.0,0.0,0.0
3.43,0.1792492669174941,-0.06752508254997121,0.6652276986257329,0.08308452870482634,0.390400598862468,0.1916986994617096,0.0,0.0,0.0,0.0,0.0,0.0,0.0,0.0
3.44,0.21200346816685367,-0.0814254959360588,0.7996174314377913,-0.2124742494756179,0.7514114610464403,0.08205699035413494,0.0,0.0,0.0,0.0,0.0,0.0,0.0,0.0
3.45,0.1707291904486714,-0.06439343422713044,0.6386768175127608,-0.04955947405284263,0.5654450517173971,0.2726665863237959,0.0,0.0,0.0,0.0,0.0,0.0,0.0,0.0
3.46,0.112329815410931,-0.04273880297642997,0.4239067886373958,-0.21481857522502532,0.5159005361403722,0.07456163483748271,0.0,0.0,0.0,0.0,0.0,0.0,0.0,0.0
3.47,0.16493894234830284,-0.06289957286402285,0.6124790708675913,-0.038965774325051196,0.36586558630937704,0.12616521029172248,0.0,0.0,0.0,0.0,0.0,0.0,0.0,0.0
3.48,0.12131337378855873,-0.04818187324639684,0.46045045770245707,-0.20201295298875852,0.6691742771354942,0.024229655517427794,0.0,0.0,0.0,0.0,0.0,0.0,0.0,0.0
3.49,0.22150790438876525,-0.08154341630716098,0.8108105890375463,-0.12302973722821199,0.45415558082860935,0.127259977340323,0.0,0.0,0.0,0.0,0.0,0.0,0.0,0.0
3.5,0.10017361710633209,-0.038842385376070175,0.3862079039469476,-0.25124130233061936,0.6098374733198575,0.038047574436430136,0.0,0.0,0.0,0.0,0.0,0.0,0.0,0.0
3.51,0.13488639380676395,-0.050748217938543505,0.496662560657656,-0.024239062919197762,0.24140068455983751,0.09814699228453151,0.0,0.0,0.0,0.0,0.0,0.0,0.0,0.0
3.52,0.11872075377423492,-0.044597080628333945,0.44555108490574086,-0.2074065464313835,0.5498493669446167,0.00990737448539803,0.0,0.0,0.0,0.0,0.0,0.0,0.0,0.0
3.53,0.1550483979385329,-0.05817502574744845,0.5668616213703686,0.027834542535668895,0.20404422109969866,0.10121926764711739,0.0,0.0,0.0,0.0,0.0,0.0,0.0,0.0
3.54,0.17075694491367896,-0.066541188172995,0.6355982349878551,-0.22161644610297798,0.800536912171525,0.03476799624315473,0.0,0.0,0.0,0.0,0.0,0.0,0.0,0.0
3.55,0.20532978816404218,-0.07608867007541877,0.7546318645518952,-0.11017861700151868,0.5595343905959388,0.06607520779964741,0.0,0.0,0.0,0.0,0.0,0.0,0.0,0.0
3.56,0.10262959777086628,-0.039767407096598734,0.39360626830296297,-0.1458144891329209,0.6359561298850828,0.05848664141093186,0.0,0.0,0.0,0.0,0.0,0.0,0.0,0.0
3.57,0.16564899978917072,-0.06370633228801197,0.6123189876945605,-0.0775119381305053,0.1839104072762478,0.06879716024648114,0.0,0.0,0.0,0.0,0.0,0.0,0.0,0.0
3.58,0.15632094808974514,-0.06036998737178985,0.5876546278386452,-0.18968032062597218,0.8180540142873547,0.04647941467744603,0.0,0.0,0.0,0.0,0.0,0.0,0.0,0.0
3.59,0.2257646758473919,-0.0849521096334905,0.8334460795814147,-0.03972663107555156,0.4826683611078763,0.13449597261291665,0.0,0.0,0.0,0.0,0.0,0.0,0.0,0.0
3.6,0.09317967238611588,-0.03561369930619195,0.3603168598950827,-0.27296143059651434,0.6955052524559199,-0.0004012239259518236,0.0,0.0,0.0,0.0,0.0,0.0,0.0,0.0
3.61,0.14896562966881297,-0.056915486350229715,0.5485318185117685,-0.03733730110518488,0.2925045170027898,0.09232033682762383,0.0,0.0,0.0,0.0,0.0,0.0,0.0,0.0
3.62,0.12085104226734096,-0.045792814228139474,0.45418448643484005,-0.20595595519465962,0.47130075209071587,-0.06619599410496291,0.0,0.0,0.0,0.0,0.0,0.0,0.0,0.0
3.63,0.14122227882334162,-0.053254049950515116,0.51723988463726,-0.051327686920828175,0.28990434556253014,0.14026548005074754,0.0,0.0,0.0,0.0,0.0,0.0,0.0,0.0
3.64,0.16735474707801676,-0.06353560242155483,0.6333849602482132,-0.2896123156094664,0.8072210265329955,-0.016171695916840895,-0.0,-0.0,-0.0,-0.0,-0.0,-0.0,-0.0,-0.0
3.65,0.15875747613108893,-0.061414454671034784,0.5881582686582958,-0.09678491220746249,0.4846621483317471,0.05933506598197853,-0.0,-0.0,-0.0,-0.0,-0.0,-0.0,-0.0,-0.0
3.66,0.14812924511776043,-0.05826486377160972,0.5520601373074289,-0.2328560377810541,0.5765376493729445,-0.0021695954455727773,-0.0,-0.0,-0.0,-0.0,-0.0,-0.0,-0.0,-0.0
3.67,0.10037021812704582,-0.036767523959309434,0.3653266296338342,-0.09488836783572344,0.3027486909995683,0.08524376208976771,-0.0,-0.0,-0.0,-0.0,-0.0,-0.0,-0.0,-0.0
3.68,0.19788694518342792,-0.07694028924640887,0.7411523241077033,-0.20220833664754417,0.665395750566414,0.054612652936635135,-0.0,-0.0,-0.0,-0.0,-0.0,-0.0,-0.0,-0.0
3.69,0.21451930924216958,-0.08294029323738634,0.7935158785450777,-0.11597655051926564,0.6995965656265304,0.1280705167516078,-0.0,-0.0,-0.0,-0.0,-0.0,-0.0,-0.0,-0.0
3.7,0.14394409928575302,-0.055517581011704155,0.5390567012426478,-0.18158849340490393,0.6874856963457848,0.10143234547747623,-0.0,-0.0,-0.0,-0.0,-0.0,-0.0,-0.0,-0.0
3.71,0.12939736409338812,-0.05077051460987608,0.4842249856991492,-0.0724326044846336,0.3395147038547308,0.08882121814874544,0.0,0.0,0.0,0.0,0.0,0.0,0.0,0.0
3.72,0.1491370797978314,-0.056914758974957194,0.5579969910666881,-0.17304775153263288,0.5741715780414721,0.03755601744213565,0.0,0.0,0.0,0.0,0.0,0.0,0.0,0.0
3.73,0.14910103722796,-0.05769178680446531,0.5484730024333611,-0.12031827562751654,0.5132220112981188,0.15208935904938525,0.0,0.0,0.0,0.0,0.0,0.0,0.0,0.0
3.74,0.19838792465126606,-0.07592863807888395,0.7481199431749478,-0.28672470188072663,0.6483589499812102,0.04761057455102434,0.0,0.0,0.0,0.0,0.0,0.0,0.0,0.0
3.75,0.11165560516701721,-0.0426680320416236,0.40384040179519626,-0.07539470332848555,0.41393809431452827,0.1305349925073445,0.0,0.0,0.0,0.0,0.0,0.0,0.0,0.0
