Timestamp,Acc x (g),Acc y (g),Acc z (g),Gyro x (deg/s),Gyro y (deg/s),Gyro z (deg/s),Beccheggio/Pitch (deg/s),Rollio/Roll (deg/s),Imbardata/Yaw (deg/s),Mag x (microTesla),Mag y (microTesla),Mag z (microTesla),Pressione (milliBar),Altitudine (m)
0.0,0.208,0.896,0.137,-0.122,-1.585,0.061,0.0,0.0,0.0,0.0,0.0,0.0,0.0,0.0
0.01,0.215,0.901,0.136,-0.427,-1.463,-0.183,0.0,0.0,0.0,0.0,0.0,0.0,0.0,0.0
0.02,0.219,0.895,0.138,-0.183,-1.463,-0.305,0.0,0.0,0.0,0.0,0.0,0.0,0.0,0.0
0.031,0.2195,0.897,0.1385,-0.061,-1.22,-0.183,0.0,0.0,0.0,0.0,0.0,0.0,0.0,0.0
0.041,0.22,0.899,0.139,0.0,-1.28,-0.183,0.0,0.0,0.0,0.0,0.0,0.0,0.0,0.0
0.05,0.217,0.9005000000000001,0.139,0.061,-1.22,-0.183,0.0,0.0,0.0,0.0,0.0,0.0,0.0,0.0
0.06,0.214,0.902,0.139,0.061,-1.159,-0.183,0.0,0.0,0.0,0.0,0.0,0.0,0.0,0.0
0.07,0.213,0.904,0.132,0.122,-0.976,-0.244,0.0,0.0,0.0,0.0,0.0,0.0,0.0,0.0
0.08,0.212,0.907,0.13,0.122,-0.854,-0.244,0.0,0.0,0.0,0.0,0.0,0.0,0.0,0.0
0.091,0.2135,0.9075,0.1315,0.122,-0.854,-0.305,0.0,0.0,0.0,0.0,0.0,0.0,0.0,0.0
0.101,0.215,0.908,0.133,0.244,-0.915,-0.366,0.0,0.0,0.0,0.0,0.0,0.0,0.0,0.0
0.111,0.216,0.904,0.134,0.305,-0.915,-0.366,0.0,0.0,0.0,0.0,0.0,0.0,0.0,0.0
0.12,0.2175,0.901,0.135,0.366,-0.793,-0.366,0.0,0.0,0.0,0.0,0.0,0.0,0.0,0.0
0.13,0.219,0.898,0.136,0.488,-0.488,-0.244,0.0,0.0,0.0,0.0,0.0,0.0,0.0,0.0
0.14,0.222,0.897,0.138,0.549,-0.549,-0.305,0.0,0.0,0.0,0.0,0.0,0.0,0.0,0.0
0.151,0.2195,0.8985000000000001,0.138,0.427,-0.732,-0.427,0.0,0.0,0.0,0.0,0.0,0.0,0.0,0.0
0.161,0.217,0.9,0.138,0.244,-0.976,-0.366,0.0,0.0,0.0,0.0,0.0,0.0,0.0,0.0
0.171,0.217,0.901,0.138,0.183,-0.854,-0.427,0.0,0.0,0.0,0.0,0.0,0.0,0.0,0.0
0.181,0.218,0.904,0.133,0.061,-0.366,-0.244,0.0,0.0,0.0,0.0,0.0,0.0,0.0,0.0
0.19,0.2185,0.9045000000000001,0.1355,0.061,0.183,0.183,0.0,0.0,0.0,0.0,0.0,0.0,0.0,0.0
0.2,0.219,0.905,0.138,0.061,0.488,0.427,0.0,0.0,0.0,0.0,0.0,0.0,0.0,0.0
0.211,0.222,0.902,0.139,-0.122,0.488,0.488,0.0,0.0,0.0,0.0,0.0,0.0,0.0,0.0
0.221,0.225,0.899,0.14,-0.366,0.061,0.61,0.0,0.0,0.0,0.0,0.0,0.0,0.0,0.0
0.231,0.227,0.896,0.14,-0.244,-0.244,0.61,0.0,0.0,0.0,0.0,0.0,0.0,0.0,0.0
0.242,0.2215,0.897,0.1395,-0.183,-0.305,0.732,0.0,0.0,0.0,0.0,0.0,0.0,0.0,0.0
0.252,0.216,0.898,0.139,-0.061,-0.122,0.915,0.0,0.0,0.0,0.0,0.0,0.0,0.0,0.0
0.261,0.2155,0.901,0.138,-0.061,0.122,0.915,0.0,0.0,0.0,0.0,0.0,0.0,0.0,0.0
0.271,0.215,0.904,0.137,-0.122,0.366,0.854,0.0,0.0,0.0,0.0,0.0,0.0,0.0,0.0
0.281,0.213,0.905,0.132,-0.305,0.549,0.793,0.0,0.0,0.0,0.0,0.0,0.0,0.0,0.0
0.291,0.218,0.902,0.128,-0.549,0.61,0.732,0.0,0.0,0.0,0.0,0.0,0.0,0.0,0.0
0.302,0.2165,0.907,0.1335,-0.305,0.793,0.976,0.0,0.0,0.0,0.0,0.0,0.0,0.0,0.0
0.312,0.215,0.912,0.139,0.183,0.915,1.098,0.0,0.0,0.0,0.0,0.0,0.0,0.0,0.0
0.321,0.213,0.908,0.136,0.0,0.549,0.854,0.0,0.0,0.0,0.0,0.0,0.0,0.0,0.0
0.331,0.211,0.904,0.133,-0.244,0.366,0.671,0.0,0.0,0.0,0.0,0.0,0.0,0.0,0.0
0.341,0.215,0.903,0.132,-0.122,0.549,0.549,0.0,0.0,0.0,0.0,0.0,0.0,0.0,0.0
0.351,0.214,0.902,0.136,0.183,0.732,0.488,0.0,0.0,0.0,0.0,0.0,0.0,0.0,0.0
0.362,0.215,0.9035,0.135,0.0,0.976,0.488,0.0,0.0,0.0,0.0,0.0,0.0,0.0,0.0
0.372,0.216,0.905,0.134,-0.122,1.159,0.366,0.0,0.0,0.0,0.0,0.0,0.0,0.0,0.0
0.382,0.222,0.903,0.132,-0.061,1.463,0.61,0.0,0.0,0.0,0.0,0.0,0.0,0.0,0.0
0.391,0.2205,0.905,0.133,-0.122,1.524,0.61,0.0,0.0,0.0,0.0,0.0,0.0,0.0,0.0
0.401,0.219,0.907,0.134,-0.183,1.402,0.549,0.0,0.0,0.0,0.0,0.0,0.0,0.0,0.0
0.411,0.215,0.909,0.132,0.0,1.341,0.671,0.0,0.0,0.0,0.0,0.0,0.0,0.0,0.0
0.422,0.2155,0.9075,0.133,0.183,1.524,0.793,0.0,0.0,0.0,0.0,0.0,0.0,0.0,0.0
0.432,0.216,0.906,0.134,0.244,1.951,0.854,0.0,0.0,0.0,0.0,0.0,0.0,0.0,0.0
0.442,0.215,0.903,0.135,0.122,2.195,0.854,0.0,0.0,0.0,0.0,0.0,0.0,0.0,0.0
0.452,0.218,0.903,0.137,-0.061,2.439,0.732,0.0,0.0,0.0,0.0,0.0,0.0,0.0,0.0
0.461,0.2205,0.902,0.1365,-0.061,2.561,0.61,0.0,0.0,0.0,0.0,0.0,0.0,0.0,0.0
0.471,0.223,0.901,0.136,-0.061,2.5,0.61,0.0,0.0,0.0,0.0,0.0,0.0,0.0,0.0
0.482,0.2255,0.9025000000000001,0.1375,0.0,2.256,0.549,0.0,0.0,0.0,0.0,0.0,0.0,0.0,0.0
0.492,0.228,0.904,0.139,0.122,1.951,0.488,0.0,0.0,0.0,0.0,0.0,0.0,0.0,0.0
0.502,0.229,0.902,0.138,0.427,1.402,0.549,0.0,0.0,0.0,0.0,0.0,0.0,0.0,0.0
0.513,0.229,0.9005000000000001,0.1355,0.244,1.037,0.549,0.0,0.0,0.0,0.0,0.0,0.0,0.0,0.0
0.523,0.229,0.899,0.133,0.183,1.098,0.671,0.0,0.0,0.0,0.0,0.0,0.0,0.0,0.0
0.532,0.2305,0.899,0.135,0.244,1.402,0.854,0.0,0.0,0.0,0.0,0.0,0.0,0.0,0.0
0.542,0.232,0.899,0.137,0.0,1.463,0.915,0.0,0.0,0.0,0.0,0.0,0.0,0.0,0.0
0.552,0.231,0.896,0.138,-0.122,1.341,1.098,0.0,0.0,0.0,0.0,0.0,0.0,0.0,0.0
0.562,0.231,0.895,0.143,-0.122,1.28,1.159,0.0,0.0,0.0,0.0,0.0,0.0,0.0,0.0
0.573,0.2295,0.897,0.1425,-0.183,1.341,1.159,0.0,0.0,0.0,0.0,0.0,0.0,0.0,0.0
0.583,0.228,0.899,0.142,-0.244,1.463,1.159,0.0,0.0,0.0,0.0,0.0,0.0,0.0,0.0
0.593,0.227,0.898,0.142,-0.366,1.524,1.159,0.0,0.0,0.0,0.0,0.0,0.0,0.0,0.0
0.602,0.2275,0.899,0.1385,-0.244,1.341,1.037,0.0,0.0,0.0,0.0,0.0,0.0,0.0,0.0
0.612,0.228,0.9,0.135,-0.305,1.098,1.037,0.0,0.0,0.0,0.0,0.0,0.0,0.0,0.0
0.622,0.23,0.899,0.135,-0.305,0.915,1.037,0.0,0.0,0.0,0.0,0.0,0.0,0.0,0.0
0.633,0.2295,0.898,0.134,-0.305,0.732,0.976,0.0,0.0,0.0,0.0,0.0,0.0,0.0,0.0
0.643,0.229,0.897,0.133,-0.244,0.549,0.854,0.0,0.0,0.0,0.0,0.0,0.0,0.0,0.0
0.653,0.23,0.899,0.135,-0.183,0.793,0.854,0.0,0.0,0.0,0.0,0.0,0.0,0.0,0.0
0.662,0.2295,0.898,0.1355,-0.183,0.976,0.915,0.0,0.0,0.0,0.0,0.0,0.0,0.0,0.0
0.672,0.229,0.897,0.136,-0.183,0.976,0.915,0.0,0.0,0.0,0.0,0.0,0.0,0.0,0.0
0.682,0.23,0.9,0.138,-0.244,0.915,0.976,0.0,0.0,0.0,0.0,0.0,0.0,0.0,0.0
0.693,0.2315,0.8995,0.1385,-0.244,0.854,1.037,0.0,0.0,0.0,0.0,0.0,0.0,0.0,0.0
0.703,0.233,0.899,0.139,-0.488,0.488,1.098,0.0,0.0,0.0,0.0,0.0,0.0,0.0,0.0
0.713,0.234,0.897,0.134,-0.366,0.244,1.098,0.0,0.0,0.0,0.0,0.0,0.0,0.0,0.0
0.723,0.23,0.905,0.14,-0.183,0.427,1.098,0.0,0.0,0.0,0.0,0.0,0.0,0.0,0.0
0.732,0.2295,0.9045000000000001,0.1375,-0.305,0.305,1.098,0.0,0.0,0.0,0.0,0.0,0.0,0.0,0.0
0.742,0.229,0.904,0.135,-0.488,0.122,1.037,0.0,0.0,0.0,0.0,0.0,0.0,0.0,0.0
0.753,0.2285,0.9035,0.1365,-0.427,0.183,0.976,0.0,0.0,0.0,0.0,0.0,0.0,0.0,0.0
0.763,0.228,0.903,0.138,-0.305,0.427,1.037,0.0,0.0,0.0,0.0,0.0,0.0,0.0,0.0
0.773,0.23,0.903,0.142,-0.366,0.488,0.915,0.0,0.0,0.0,0.0,0.0,0.0,0.0,0.0
0.784,0.2295,0.9025000000000001,0.1405,-0.427,0.183,0.854,0.0,0.0,0.0,0.0,0.0,0.0,0.0,0.0
0.794,0.229,0.902,0.139,-0.366,0.061,0.854,0.0,0.0,0.0,0.0,0.0,0.0,0.0,0.0
0.803,0.23249999999999998,0.9025000000000001,0.1375,-0.244,0.061,0.793,0.0,0.0,0.0,0.0,0.0,0.0,0.0,0.0
0.813,0.236,0.903,0.136,-0.244,-0.061,0.793,0.0,0.0,0.0,0.0,0.0,0.0,0.0,0.0
0.823,0.235,0.904,0.134,0.0,0.0,0.854,0.0,0.0,0.0,0.0,0.0,0.0,0.0,0.0
0.833,0.235,0.904,0.137,0.244,0.061,0.915,0.0,0.0,0.0,0.0,0.0,0.0,0.0,0.0
0.844,0.23399999999999999,0.902,0.1375,0.061,-0.244,0.732,0.0,0.0,0.0,0.0,0.0,0.0,0.0,0.0
0.854,0.233,0.9,0.138,-0.122,-0.732,0.732,0.0,0.0,0.0,0.0,0.0,0.0,0.0,0.0
0.864,0.232,0.9,0.14,-0.122,-0.915,0.732,0.0,0.0,0.0,0.0,0.0,0.0,0.0,0.0
0.873,0.2315,0.9005000000000001,0.1385,-0.061,-0.915,0.732,0.0,0.0,0.0,0.0,0.0,0.0,0.0,0.0
0.883,0.231,0.901,0.137,-0.183,-0.915,0.671,0.0,0.0,0.0,0.0,0.0,0.0,0.0,0.0
0.893,0.228,0.9,0.139,-0.305,-0.793,0.671,0.0,0.0,0.0,0.0,0.0,0.0,0.0,0.0
0.904,0.227,0.9,0.1375,-0.305,-0.671,0.61,0.0,0.0,0.0,0.0,0.0,0.0,0.0,0.0
0.914,0.226,0.9,0.136,-0.244,-0.366,0.61,0.0,0.0,0.0,0.0,0.0,0.0,0.0,0.0
0.924,0.227,0.898,0.137,-0.244,-0.122,0.671,0.0,0.0,0.0,0.0,0.0,0.0,0.0,0.0
0.933,0.225,0.8995,0.1385,-0.366,-0.122,0.854,0.0,0.0,0.0,0.0,0.0,0.0,0.0,0.0
0.943,0.223,0.901,0.14,-0.549,-0.305,0.732,0.0,0.0,0.0,0.0,0.0,0.0,0.0,0.0
0.953,0.229,0.902,0.138,-0.61,-0.488,0.61,0.0,0.0,0.0,0.0,0.0,0.0,0.0,0.0
0.964,0.2285,0.9025000000000001,0.1405,-0.671,-0.488,0.671,0.0,0.0,0.0,0.0,0.0,0.0,0.0,0.0
0.974,0.228,0.903,0.143,-0.61,-0.488,0.793,0.0,0.0,0.0,0.0,0.0,0.0,0.0,0.0
0.984,0.227,0.904,0.138,-0.549,-0.366,0.732,0.0,0.0,0.0,0.0,0.0,0.0,0.0,0.0
0.994,0.229,0.902,0.133,-0.61,-0.305,0.671,0.0,0.0,0.0,0.0,0.0,0.0,0.0,0.0
1.003,0.23,0.902,0.1365,-0.61,-0.183,0.732,0.0,0.0,0.0,0.0,0.0,0.0,0.0,0.0
1.013,0.231,0.902,0.14,-0.549,0.0,0.793,0.0,0.0,0.0,0.0,0.0,0.0,0.0,0.0
1.024,0.23,0.9005000000000001,0.14100000000000001,-0.61,0.122,0.793,0.0,0.0,0.0,0.0,0.0,0.0,0.0,0.0
1.034,0.229,0.899,0.142,-0.549,0.0,0.854,0.0,0.0,0.0,0.0,0.0,0.0,0.0,0.0
1.044,0.23,0.899,0.137,-0.488,0.122,0.854,0.0,0.0,0.0,0.0,0.0,0.0,0.0,0.0
1.054,0.229,0.904,0.137,-0.305,0.305,0.854,0.0,0.0,0.0,0.0,0.0,0.0,0.0,0.0
1.065,0.228,0.9026666666666667,0.13866666666666666,-0.305,0.427,0.732,0.0,0.0,0.0,0.0,0.0,0.0,0.0,0.0
1.074,0.227,0.9013333333333333,0.14033333333333334,-0.427,0.427,0.671,0.0,0.0,0.0,0.0,0.0,0.0,0.0,0.0
1.084,0.226,0.9,0.142,-0.427,0.61,0.61,0.0,0.0,0.0,0.0,0.0,0.0,0.0,0.0
1.094,0.227,0.9,0.142,-0.488,0.671,0.549,0.0,0.0,0.0,0.0,0.0,0.0,0.0,0.0
1.104,0.231,0.901,0.143,-0.488,0.61,0.61,0.0,0.0,0.0,0.0,0.0,0.0,0.0,0.0
1.115,0.231,0.902,0.14,-0.427,0.488,0.61,0.0,0.0,0.0,0.0,0.0,0.0,0.0,0.0
1.125,0.231,0.903,0.137,-0.427,0.366,0.427,0.0,0.0,0.0,0.0,0.0,0.0,0.0,0.0
1.135,0.232,0.902,0.138,-0.244,0.366,0.427,0.0,0.0,0.0,0.0,0.0,0.0,0.0,0.0
1.144,0.231,0.902,0.1365,-0.061,0.488,0.488,0.0,0.0,0.0,0.0,0.0,0.0,0.0,0.0
1.154,0.23,0.902,0.135,-0.061,0.61,0.488,0.0,0.0,0.0,0.0,0.0,0.0,0.0,0.0
1.164,0.231,0.899,0.137,-0.061,0.671,0.427,0.0,0.0,0.0,0.0,0.0,0.0,0.0,0.0
1.175,0.2315,0.8995,0.1385,0.0,0.732,0.61,0.0,0.0,0.0,0.0,0.0,0.0,0.0,0.0
1.185,0.232,0.9,0.14,-0.122,0.61,0.61,0.0,0.0,0.0,0.0,0.0,0.0,0.0,0.0
1.195,0.229,0.9,0.144,-0.122,0.61,0.488,0.0,0.0,0.0,0.0,0.0,0.0,0.0,0.0
1.204,0.229,0.9015,0.14200000000000002,0.0,0.793,0.427,0.0,0.0,0.0,0.0,0.0,0.0,0.0,0.0
1.214,0.229,0.903,0.14,0.061,0.793,0.305,0.0,0.0,0.0,0.0,0.0,0.0,0.0,0.0
1.224,0.229,0.904,0.14,0.061,0.793,0.122,0.0,0.0,0.0,0.0,0.0,0.0,0.0,0.0
1.235,0.2305,0.903,0.14100000000000001,0.0,1.037,0.122,0.0,0.0,0.0,0.0,0.0,0.0,0.0,0.0
1.245,0.232,0.902,0.142,0.0,1.22,0.122,0.0,0.0,0.0,0.0,0.0,0.0,0.0,0.0
1.255,0.231,0.902,0.145,-0.061,1.341,0.122,0.0,0.0,0.0,0.0,0.0,0.0,0.0,0.0
1.265,0.231,0.899,0.145,-0.122,1.585,0.061,0.0,0.0,0.0,0.0,0.0,0.0,0.0,0.0
1.274,0.235,0.899,0.14250000000000002,0.122,1.707,0.061,0.0,0.0,0.0,0.0,0.0,0.0,0.0,0.0
1.284,0.239,0.899,0.14,0.244,1.463,0.061,0.0,0.0,0.0,0.0,0.0,0.0,0.0,0.0
1.295,0.2385,0.8985000000000001,0.1395,0.305,1.28,0.0,0.0,0.0,0.0,0.0,0.0,0.0,0.0,0.0
1.305,0.238,0.898,0.139,0.183,0.854,0.122,0.0,0.0,0.0,0.0,0.0,0.0,0.0,0.0
1.315,0.237,0.902,0.139,0.488,1.098,0.183,0.0,0.0,0.0,0.0,0.0,0.0,0.0,0.0
1.325,0.238,0.898,0.144,0.427,1.463,0.427,0.0,0.0,0.0,0.0,0.0,0.0,0.0,0.0
1.336,0.23866666666666667,0.8973333333333333,0.1433333333333333,0.305,1.585,0.61,0.0,0.0,0.0,0.0,0.0,0.0,0.0,0.0
1.345,0.23933333333333331,0.8966666666666667,0.14266666666666666,0.061,1.402,0.549,0.0,0.0,0.0,0.0,0.0,0.0,0.0,0.0
1.355,0.24,0.896,0.142,-0.061,1.159,0.61,0.0,0.0,0.0,0.0,0.0,0.0,0.0,0.0
1.365,0.238,0.897,0.141,0.0,0.915,0.549,0.0,0.0,0.0,0.0,0.0,0.0,0.0,0.0
1.375,0.236,0.896,0.142,0.122,1.037,0.427,0.0,0.0,0.0,0.0,0.0,0.0,0.0,0.0
1.386,0.2345,0.8975,0.1435,0.0,1.098,0.549,0.0,0.0,0.0,0.0,0.0,0.0,0.0,0.0
1.396,0.233,0.899,0.145,0.244,1.341,0.61,0.0,0.0,0.0,0.0,0.0,0.0,0.0,0.0
1.406,0.235,0.898,0.141,0.183,1.22,0.549,0.0,0.0,0.0,0.0,0.0,0.0,0.0,0.0
1.415,0.236,0.8995,0.1415,0.0,0.976,0.671,0.0,0.0,0.0,0.0,0.0,0.0,0.0,0.0
1.425,0.237,0.901,0.142,0.183,0.915,0.61,0.0,0.0,0.0,0.0,0.0,0.0,0.0,0.0
1.435,0.237,0.9,0.14,-0.061,0.671,0.61,0.0,0.0,0.0,0.0,0.0,0.0,0.0,0.0
1.446,0.236,0.9015,0.1385,-0.122,0.671,0.61,0.0,0.0,0.0,0.0,0.0,0.0,0.0,0.0
1.456,0.235,0.903,0.137,-0.061,0.793,0.549,0.0,0.0,0.0,0.0,0.0,0.0,0.0,0.0
1.466,0.235,0.903,0.136,0.061,0.671,0.427,0.0,0.0,0.0,0.0,0.0,0.0,0.0,0.0
1.476,0.234,0.904,0.139,0.549,0.549,0.244,0.0,0.0,0.0,0.0,0.0,0.0,0.0,0.0
1.485,0.235,0.905,0.137,0.793,0.488,0.183,0.0,0.0,0.0,0.0,0.0,0.0,0.0,0.0
1.495,0.235,0.902,0.137,0.915,0.671,0.244,0.0,0.0,0.0,0.0,0.0,0.0,0.0,0.0
1.506,0.2345,0.9015,0.1385,0.976,0.854,0.366,0.0,0.0,0.0,0.0,0.0,0.0,0.0,0.0
1.516,0.234,0.901,0.14,0.793,0.915,0.366,0.0,0.0,0.0,0.0,0.0,0.0,0.0,0.0
1.526,0.235,0.9,0.143,0.427,0.793,0.427,0.0,0.0,0.0,0.0,0.0,0.0,0.0,0.0
1.536,0.237,0.903,0.143,0.183,0.366,0.427,0.0,0.0,0.0,0.0,0.0,0.0,0.0,0.0
1.545,0.235,0.9015,0.14,-0.061,0.0,0.366,0.0,0.0,0.0,0.0,0.0,0.0,0.0,0.0
1.555,0.233,0.9,0.137,-0.183,-0.122,0.488,0.0,0.0,0.0,0.0,0.0,0.0,0.0,0.0
1.566,0.2335,0.9,0.137,-0.244,0.122,0.488,0.0,0.0,0.0,0.0,0.0,0.0,0.0,0.0
1.576,0.234,0.9,0.137,-0.183,0.305,0.61,0.0,0.0,0.0,0.0,0.0,0.0,0.0,0.0
1.586,0.236,0.901,0.136,-0.122,0.488,0.671,0.0,0.0,0.0,0.0,0.0,0.0,0.0,0.0
1.596,0.236,0.899,0.133,-0.061,0.549,0.671,0.0,0.0,0.0,0.0,0.0,0.0,0.0,0.0
1.607,0.23666666666666666,0.8996666666666667,0.134,-0.061,0.427,0.671,0.0,0.0,0.0,0.0,0.0,0.0,0.0,0.0
1.616,0.2373333333333333,0.9003333333333333,0.135,-0.183,0.366,0.732,0.0,0.0,0.0,0.0,0.0,0.0,0.0,0.0
1.626,0.238,0.901,0.136,-0.061,0.488,0.671,0.0,0.0,0.0,0.0,0.0,0.0,0.0,0.0
1.636,0.237,0.904,0.139,-0.061,0.244,0.488,0.0,0.0,0.0,0.0,0.0,0.0,0.0,0.0
1.646,0.237,0.9,0.137,0.0,-0.061,0.305,0.0,0.0,0.0,0.0,0.0,0.0,0.0,0.0
1.657,0.2385,0.901,0.1365,0.061,-0.244,0.244,0.0,0.0,0.0,0.0,0.0,0.0,0.0,0.0
1.667,0.24,0.902,0.136,0.122,-0.366,0.183,0.0,0.0,0.0,0.0,0.0,0.0,0.0,0.0
1.677,0.243,0.902,0.137,0.183,-0.427,0.183,0.0,0.0,0.0,0.0,0.0,0.0,0.0,0.0
1.686,0.247,0.905,0.13,0.183,-0.732,0.122,0.0,0.0,0.0,0.0,0.0,0.0,0.0,0.0
1.696,0.242,0.905,0.132,0.244,-1.28,0.061,0.0,0.0,0.0,0.0,0.0,0.0,0.0,0.0
1.706,0.237,0.903,0.137,0.061,-1.585,-0.122,0.0,0.0,0.0,0.0,0.0,0.0,0.0,0.0
1.717,0.2385,0.9035,0.1355,0.061,-1.463,-0.122,0.0,0.0,0.0,0.0,0.0,0.0,0.0,0.0
1.727,0.24,0.904,0.134,0.122,-1.402,-0.122,0.0,0.0,0.0,0.0,0.0,0.0,0.0,0.0
1.737,0.236,0.902,0.134,0.244,-1.402,-0.183,0.0,0.0,0.0,0.0,0.0,0.0,0.0,0.0
1.747,0.236,0.901,0.131,0.366,-1.28,-0.305,0.0,0.0,0.0,0.0,0.0,0.0,0.0,0.0
1.756,0.234,0.899,0.132,0.183,-1.402,-0.427,0.0,0.0,0.0,0.0,0.0,0.0,0.0,0.0
1.766,0.233,0.898,0.135,0.0,-1.463,-0.61,0.0,0.0,0.0,0.0,0.0,0.0,0.0,0.0
1.777,0.23399999999999999,0.8975,0.1365,0.061,-1.463,-0.671,0.0,0.0,0.0,0.0,0.0,0.0,0.0,0.0
1.787,0.235,0.897,0.138,0.061,-1.22,-0.61,0.0,0.0,0.0,0.0,0.0,0.0,0.0,0.0
1.797,0.235,0.899,0.138,0.122,-1.159,-0.61,0.0,0.0,0.0,0.0,0.0,0.0,0.0,0.0
1.807,0.236,0.901,0.135,-0.183,-1.524,-0.549,0.0,0.0,0.0,0.0,0.0,0.0,0.0,0.0
1.816,0.235,0.9005000000000001,0.135,-0.366,-1.89,-0.488,0.0,0.0,0.0,0.0,0.0,0.0,0.0,0.0
1.826,0.234,0.9,0.135,-0.427,-2.073,-0.366,0.0,0.0,0.0,0.0,0.0,0.0,0.0,0.0
1.837,0.2335,0.899,0.134,-0.488,-1.768,-0.244,0.0,0.0,0.0,0.0,0.0,0.0,0.0,0.0
1.847,0.233,0.898,0.133,-0.427,-1.402,-0.122,0.0,0.0,0.0,0.0,0.0,0.0,0.0,0.0
1.857,0.23,0.898,0.136,-0.366,-0.976,0.0,0.0,0.0,0.0,0.0,0.0,0.0,0.0,0.0
1.867,0.234,0.897,0.137,-0.488,-0.732,0.0,0.0,0.0,0.0,0.0,0.0,0.0,0.0,0.0
1.878,0.234,0.898,0.13833333333333334,-0.671,-0.61,0.0,0.0,0.0,0.0,0.0,0.0,0.0,0.0,0.0
1.887,0.234,0.899,0.13966666666666666,-0.732,-0.61,0.0,0.0,0.0,0.0,0.0,0.0,0.0,0.0,0.0
1.897,0.234,0.9,0.141,-0.793,-0.915,0.0,0.0,0.0,0.0,0.0,0.0,0.0,0.0,0.0
1.907,0.236,0.9,0.139,-0.854,-0.915,0.0,0.0,0.0,0.0,0.0,0.0,0.0,0.0,0.0
1.917,0.237,0.901,0.138,-0.854,-0.732,0.183,0.0,0.0,0.0,0.0,0.0,0.0,0.0,0.0
1.928,0.2355,0.901,0.138,-0.671,-0.61,0.122,0.0,0.0,0.0,0.0,0.0,0.0,0.0,0.0
1.938,0.234,0.901,0.138,-0.671,-0.488,0.122,0.0,0.0,0.0,0.0,0.0,0.0,0.0,0.0
1.948,0.234,0.9,0.141,-0.671,-0.427,0.122,0.0,0.0,0.0,0.0,0.0,0.0,0.0,0.0
1.957,0.234,0.901,0.134,-0.488,-0.183,0.122,0.0,0.0,0.0,0.0,0.0,0.0,0.0,0.0
1.967,0.234,0.904,0.134,-0.549,-0.061,0.122,0.0,0.0,0.0,0.0,0.0,0.0,0.0,0.0
1.977,0.236,0.903,0.137,-0.427,-0.183,0.0,0.0,0.0,0.0,0.0,0.0,0.0,0.0,0.0
1.988,0.236,0.901,0.1345,-0.305,-0.305,0.0,0.0,0.0,0.0,0.0,0.0,0.0,0.0,0.0
1.998,0.236,0.899,0.132,-0.061,-0.183,-0.061,0.0,0.0,0.0,0.0,0.0,0.0,0.0,0.0
2.008,0.235,0.899,0.134,0.122,0.0,-0.122,0.0,0.0,0.0,0.0,0.0,0.0,0.0,0.0
2.018,0.233,0.898,0.138,0.183,0.0,-0.122,0.0,0.0,0.0,0.0,0.0,0.0,0.0,0.0
2.027,0.232,0.899,0.139,-0.061,-0.061,-0.183,0.0,0.0,0.0,0.0,0.0,0.0,0.0,0.0
2.037,0.232,0.901,0.138,-0.122,-0.061,-0.244,0.0,0.0,0.0,0.0,0.0,0.0,0.0,0.0
2.048,0.233,0.901,0.138,-0.305,0.122,-0.183,0.0,0.0,0.0,0.0,0.0,0.0,0.0,0.0
2.058,0.234,0.901,0.138,-0.366,0.061,-0.061,0.0,0.0,0.0,0.0,0.0,0.0,0.0,0.0
2.068,0.235,0.9,0.146,-0.305,0.122,0.0,0.0,0.0,0.0,0.0,0.0,0.0,0.0,0.0
2.078,0.239,0.896,0.144,-0.305,0.183,0.0,0.0,0.0,0.0,0.0,0.0,0.0,0.0,0.0
2.087,0.2375,0.8975,0.14100000000000001,-0.244,0.427,0.122,0.0,0.0,0.0,0.0,0.0,0.0,0.0,0.0
2.097,0.236,0.899,0.138,-0.122,0.549,0.122,0.0,0.0,0.0,0.0,0.0,0.0,0.0,0.0
2.108,0.2345,0.899,0.138,-0.183,0.61,0.183,0.0,0.0,0.0,0.0,0.0,0.0,0.0,0.0
2.118,0.233,0.899,0.138,-0.244,0.61,0.244,0.0,0.0,0.0,0.0,0.0,0.0,0.0,0.0
2.128,0.232,0.9,0.14,-0.244,0.732,0.183,0.0,0.0,0.0,0.0,0.0,0.0,0.0,0.0
2.138,0.234,0.902,0.139,-0.122,0.915,0.183,0.0,0.0,0.0,0.0,0.0,0.0,0.0,0.0
2.149,0.23466666666666666,0.902,0.1386666666666667,0.122,1.524,0.183,0.0,0.0,0.0,0.0,0.0,0.0,0.0,0.0
2.158,0.23533333333333334,0.902,0.13833333333333334,0.183,1.646,0.183,0.0,0.0,0.0,0.0,0.0,0.0,0.0,0.0
2.168,0.236,0.902,0.138,0.122,1.463,0.122,0.0,0.0,0.0,0.0,0.0,0.0,0.0,0.0
2.178,0.237,0.902,0.136,0.061,1.28,0.183,0.0,0.0,0.0,0.0,0.0,0.0,0.0,0.0
2.188,0.241,0.9,0.133,0.061,1.341,0.366,0.0,0.0,0.0,0.0,0.0,0.0,0.0,0.0
2.199,0.2385,0.8995,0.134,0.0,1.341,0.366,0.0,0.0,0.0,0.0,0.0,0.0,0.0,0.0
2.209,0.236,0.899,0.135,-0.122,1.402,0.427,0.0,0.0,0.0,0.0,0.0,0.0,0.0,0.0
2.219,0.24,0.9,0.139,0.061,1.463,0.549,0.0,0.0,0.0,0.0,0.0,0.0,0.0,0.0
2.228,0.236,0.9005000000000001,0.139,-0.061,1.768,0.671,0.0,0.0,0.0,0.0,0.0,0.0,0.0,0.0
2.238,0.232,0.901,0.139,-0.122,2.012,0.671,0.0,0.0,0.0,0.0,0.0,0.0,0.0,0.0
2.248,0.231,0.9,0.14,-0.244,1.951,0.488,0.0,0.0,0.0,0.0,0.0,0.0,0.0,0.0
2.259,0.2315,0.9015,0.138,-0.366,1.89,0.366,0.0,0.0,0.0,0.0,0.0,0.0,0.0,0.0
2.269,0.232,0.903,0.136,-0.366,1.768,0.366,0.0,0.0,0.0,0.0,0.0,0.0,0.0,0.0
2.279,0.233,0.901,0.132,-0.366,1.829,0.305,0.0,0.0,0.0,0.0,0.0,0.0,0.0,0.0
2.288,0.233,0.9008,0.1336,-0.061,2.073,0.305,0.0,0.0,0.0,0.0,0.0,0.0,0.0,0.0
2.3,0.233,0.9006000000000001,0.13520000000000001,0.244,2.134,0.305,0.0,0.0,0.0,0.0,0.0,0.0,0.0,0.0
2.308,0.233,0.9004,0.1368,0.366,2.134,0.305,0.0,0.0,0.0,0.0,0.0,0.0,0.0,0.0
2.319,0.233,0.9002,0.13840000000000002,0.244,2.256,0.305,0.0,0.0,0.0,0.0,0.0,0.0,0.0,0.0
2.329,0.233,0.9,0.14,0.122,2.317,0.244,0.0,0.0,0.0,0.0,0.0,0.0,0.0,0.0
2.339,0.234,0.898,0.139,-0.122,2.134,0.183,0.0,0.0,0.0,0.0,0.0,0.0,0.0,0.0
2.349,0.233,0.898,0.145,-0.244,2.012,0.183,0.0,0.0,0.0,0.0,0.0,0.0,0.0,0.0
2.36,0.23325,0.89875,0.14225,-0.366,2.073,0.244,0.0,0.0,0.0,0.0,0.0,0.0,0.0,0.0
2.368,0.2335,0.8995,0.1395,-0.305,2.378,0.183,0.0,0.0,0.0,0.0,0.0,0.0,0.0,0.0
2.379,0.23375,0.90025,0.13675,-0.244,2.622,0.061,0.0,0.0,0.0,0.0,0.0,0.0,0.0,0.0
2.389,0.234,0.901,0.134,0.122,2.744,0.0,0.0,0.0,0.0,0.0,0.0,0.0,0.0,0.0
2.399,0.238,0.9,0.135,0.122,2.683,0.0,0.0,0.0,0.0,0.0,0.0,0.0,0.0,0.0
2.409,0.236,0.901,0.133,0.183,2.439,-0.183,0.0,0.0,0.0,0.0,0.0,0.0,0.0,0.0
2.42,0.23766666666666666,0.9013333333333333,0.13533333333333333,0.244,2.256,-0.305,0.0,0.0,0.0,0.0,0.0,0.0,0.0,0.0
2.429,0.23933333333333331,0.9016666666666667,0.1376666666666667,0.305,2.317,-0.366,0.0,0.0,0.0,0.0,0.0,0.0,0.0,0.0
2.439,0.241,0.902,0.14,0.305,2.134,-0.427,0.0,0.0,0.0,0.0,0.0,0.0,0.0,0.0
2.449,0.239,0.902,0.14,0.305,1.89,-0.427,0.0,0.0,0.0,0.0,0.0,0.0,0.0,0.0
2.459,0.236,0.904,0.138,0.183,1.89,-0.427,0.0,0.0,0.0,0.0,0.0,0.0,0.0,0.0
2.47,0.238,0.9025000000000001,0.137,0.061,1.768,-0.488,0.0,0.0,0.0,0.0,0.0,0.0,0.0,0.0
2.48,0.24,0.901,0.136,0.244,1.768,-0.427,0.0,0.0,0.0,0.0,0.0,0.0,0.0,0.0
2.489,0.2385,0.9015,0.137,0.305,1.89,-0.305,0.0,0.0,0.0,0.0,0.0,0.0,0.0,0.0
2.499,0.237,0.902,0.138,0.366,2.134,-0.305,0.0,0.0,0.0,0.0,0.0,0.0,0.0,0.0
2.509,0.237,0.9,0.135,0.488,2.195,-0.244,0.0,0.0,0.0,0.0,0.0,0.0,0.0,0.0
2.519,0.236,0.899,0.137,0.427,2.134,-0.244,0.0,0.0,0.0,0.0,0.0,0.0,0.0,0.0
2.53,0.2375,0.9,0.1385,0.488,2.134,-0.183,0.0,0.0,0.0,0.0,0.0,0.0,0.0,0.0
2.54,0.239,0.901,0.14,0.122,2.134,-0.183,0.0,0.0,0.0,0.0,0.0,0.0,0.0,0.0
2.55,0.24,0.904,0.14,-0.122,1.768,-0.061,0.0,0.0,0.0,0.0,0.0,0.0,0.0,0.0
2.559,0.2395,0.9025000000000001,0.138,-0.305,1.402,0.0,0.0,0.0,0.0,0.0,0.0,0.0,0.0,0.0
2.569,0.239,0.901,0.136,-0.427,1.28,0.183,0.0,0.0,0.0,0.0,0.0,0.0,0.0,0.0
2.579,0.239,0.906,0.139,-0.427,1.463,0.305,0.0,0.0,0.0,0.0,0.0,0.0,0.0,0.0
2.59,0.239,0.8995,0.137,-0.244,1.951,0.427,0.0,0.0,0.0,0.0,0.0,0.0,0.0,0.0
2.6,0.239,0.893,0.135,-0.488,2.256,0.427,0.0,0.0,0.0,0.0,0.0,0.0,0.0,0.0
2.61,0.235,0.891,0.138,-0.61,2.378,0.549,0.0,0.0,0.0,0.0,0.0,0.0,0.0,0.0
2.62,0.228,0.899,0.138,-0.671,2.622,0.61,0.0,0.0,0.0,0.0,0.0,0.0,0.0,0.0
2.629,0.23,0.9,0.1395,-0.549,3.171,0.61,0.0,0.0,0.0,0.0,0.0,0.0,0.0,0.0
2.639,0.232,0.901,0.141,-0.793,3.902,0.61,0.0,0.0,0.0,0.0,0.0,0.0,0.0,0.0
2.65,0.237,0.901,0.1425,-0.976,4.39,0.549,0.0,0.0,0.0,0.0,0.0,0.0,0.0,0.0
2.66,0.242,0.901,0.144,-0.915,4.695,0.61,0.0,0.0,0.0,0.0,0.0,0.0,0.0,0.0
2.67,0.247,0.897,0.142,-1.341,4.329,0.793,0.0,0.0,0.0,0.0,0.0,0.0,0.0,0.0
2.68,0.245,0.911,0.141,-1.159,3.963,1.159,0.0,0.0,0.0,0.0,0.0,0.0,0.0,0.0
2.689,0.24566666666666667,0.906,0.13766666666666666,-0.427,4.207,1.463,0.0,0.0,0.0,0.0,0.0,0.0,0.0,0.0
2.7,0.24633333333333332,0.901,0.13433333333333333,-0.244,3.963,1.463,0.0,0.0,0.0,0.0,0.0,0.0,0.0,0.0
2.71,0.247,0.896,0.131,-0.366,3.049,1.098,0.0,0.0,0.0,0.0,0.0,0.0,0.0,0.0
2.72,0.245,0.899,0.135,-0.305,2.622,0.793,0.0,0.0,0.0,0.0,0.0,0.0,0.0,0.0
2.73,0.243,0.9,0.145,-0.244,2.256,0.854,0.0,0.0,0.0,0.0,0.0,0.0,0.0,0.0
2.741,0.2435,0.8965000000000001,0.147,-0.366,1.768,0.61,0.0,0.0,0.0,0.0,0.0,0.0,0.0,0.0
2.751,0.244,0.893,0.149,-0.427,1.585,0.427,0.0,0.0,0.0,0.0,0.0,0.0,0.0,0.0
2.76,0.2425,0.8915,0.1505,-0.549,1.22,0.427,0.0,0.0,0.0,0.0,0.0,0.0,0.0,0.0
2.77,0.241,0.89,0.152,-0.732,0.732,0.244,0.0,0.0,0.0,0.0,0.0,0.0,0.0,0.0
2.78,0.242,0.894,0.149,-0.854,0.244,0.122,0.0,0.0,0.0,0.0,0.0,0.0,0.0,0.0
2.79,0.242,0.891,0.147,-0.671,0.061,-0.122,0.0,0.0,0.0,0.0,0.0,0.0,0.0,0.0
2.801,0.243,0.8935,0.14350000000000002,-0.671,-0.061,-0.366,0.0,0.0,0.0,0.0,0.0,0.0,0.0,0.0
2.811,0.244,0.896,0.14,-0.61,-0.061,-0.427,0.0,0.0,0.0,0.0,0.0,0.0,0.0,0.0
2.821,0.245,0.899,0.142,-0.549,-0.244,-0.305,0.0,0.0,0.0,0.0,0.0,0.0,0.0,0.0
2.83,0.2445,0.8995,0.142,-0.61,-0.61,-0.183,0.0,0.0,0.0,0.0,0.0,0.0,0.0,0.0
2.84,0.244,0.9,0.142,-0.732,-1.037,-0.061,0.0,0.0,0.0,0.0,0.0,0.0,0.0,0.0
2.85,0.242,0.899,0.138,-0.854,-1.159,0.061,0.0,0.0,0.0,0.0,0.0,0.0,0.0,0.0
2.861,0.2365,0.902,0.139,-0.854,-0.915,0.183,0.0,0.0,0.0,0.0,0.0,0.0,0.0,0.0
2.871,0.231,0.905,0.14,-0.793,-0.732,0.244,0.0,0.0,0.0,0.0,0.0,0.0,0.0,0.0
2.881,0.225,0.904,0.14,-0.732,-0.793,0.305,0.0,0.0,0.0,0.0,0.0,0.0,0.0,0.0
2.891,0.226,0.901,0.141,-0.793,-0.549,0.244,0.0,0.0,0.0,0.0,0.0,0.0,0.0,0.0
2.9,0.225,0.9015,0.139,-1.037,-0.183,0.305,0.0,0.0,0.0,0.0,0.0,0.0,0.0,0.0
2.91,0.224,0.902,0.137,-1.037,0.122,0.244,0.0,0.0,0.0,0.0,0.0,0.0,0.0,0.0
2.921,0.2245,0.8995,0.138,-0.854,0.122,0.061,0.0,0.0,0.0,0.0,0.0,0.0,0.0,0.0
2.931,0.225,0.897,0.139,-1.098,0.305,-0.244,0.0,0.0,0.0,0.0,0.0,0.0,0.0,0.0
2.941,0.224,0.9,0.135,-0.854,0.427,-0.305,0.0,0.0,0.0,0.0,0.0,0.0,0.0,0.0
2.951,0.229,0.899,0.136,-0.732,0.793,-0.366,0.0,0.0,0.0,0.0,0.0,0.0,0.0,0.0
2.962,0.23166666666666666,0.9006666666666667,0.13566666666666669,-0.61,1.037,-0.549,0.0,0.0,0.0,0.0,0.0,0.0,0.0,0.0
2.971,0.23433333333333334,0.9023333333333333,0.13533333333333333,-0.366,0.976,-0.549,0.0,0.0,0.0,0.0,0.0,0.0,0.0,0.0
2.981,0.237,0.904,0.135,-0.305,0.854,-0.488,0.0,0.0,0.0,0.0,0.0,0.0,0.0,0.0
2.991,0.238,0.901,0.138,-0.305,0.732,-0.366,0.0,0.0,0.0,0.0,0.0,0.0,0.0,0.0
3.001,0.233,0.899,0.139,-0.244,0.61,-0.366,0.0,0.0,0.0,0.0,0.0,0.0,0.0,0.0
3.012,0.2335,0.901,0.14200000000000002,-0.366,0.305,-0.366,0.0,0.0,0.0,0.0,0.0,0.0,0.0,0.0
3.022,0.234,0.903,0.145,-0.488,0.244,-0.366,0.0,0.0,0.0,0.0,0.0,0.0,0.0,0.0
3.031,0.2315,0.9045000000000001,0.1445,-0.61,0.671,-0.427,0.0,0.0,0.0,0.0,0.0,0.0,0.0,0.0
3.041,0.229,0.906,0.144,-0.671,0.976,-0.305,0.0,0.0,0.0,0.0,0.0,0.0,0.0,0.0
3.051,0.23,0.906,0.145,-0.793,1.159,-0.305,0.0,0.0,0.0,0.0,0.0,0.0,0.0,0.0
3.061,0.232,0.909,0.144,-0.793,1.159,-0.244,0.0,0.0,0.0,0.0,0.0,0.0,0.0,0.0
3.072,0.231,0.905,0.145,-0.793,1.159,-0.183,0.0,0.0,0.0,0.0,0.0,0.0,0.0,0.0
3.082,0.23,0.901,0.146,-0.854,1.28,-0.061,0.0,0.0,0.0,0.0,0.0,0.0,0.0,0.0
3.092,0.232,0.9,0.147,-0.854,1.524,0.122,0.0,0.0,0.0,0.0,0.0,0.0,0.0,0.0
3.101,0.2305,0.899,0.147,-0.793,1.768,0.183,0.0,0.0,0.0,0.0,0.0,0.0,0.0,0.0
3.111,0.229,0.898,0.147,-0.732,1.646,0.366,0.0,0.0,0.0,0.0,0.0,0.0,0.0,0.0
3.121,0.23,0.897,0.147,-0.671,1.951,0.488,0.0,0.0,0.0,0.0,0.0,0.0,0.0,0.0
3.132,0.2285,0.896,0.1445,-0.671,2.439,0.427,0.0,0.0,0.0,0.0,0.0,0.0,0.0,0.0
3.142,0.227,0.895,0.142,-0.671,2.744,0.427,0.0,0.0,0.0,0.0,0.0,0.0,0.0,0.0
3.152,0.23,0.896,0.143,-0.488,2.866,0.305,0.0,0.0,0.0,0.0,0.0,0.0,0.0,0.0
3.162,0.232,0.893,0.142,-0.488,2.866,0.305,0.0,0.0,0.0,0.0,0.0,0.0,0.0,0.0
3.171,0.2345,0.8955,0.1415,-0.305,2.866,0.427,0.0,0.0,0.0,0.0,0.0,0.0,0.0,0.0
3.181,0.237,0.898,0.141,-0.427,2.561,0.427,0.0,0.0,0.0,0.0,0.0,0.0,0.0,0.0
3.192,0.239,0.8985000000000001,0.1425,-0.427,2.256,0.427,0.0,0.0,0.0,0.0,0.0,0.0,0.0,0.0
3.202,0.241,0.899,0.144,-0.244,2.195,0.366,0.0,0.0,0.0,0.0,0.0,0.0,0.0,0.0
3.212,0.239,0.901,0.144,-0.122,2.195,0.366,0.0,0.0,0.0,0.0,0.0,0.0,0.0,0.0
3.222,0.236,0.901,0.144,-0.122,1.951,0.488,0.0,0.0,0.0,0.0,0.0,0.0,0.0,0.0
3.231,0.23533333333333334,0.8983333333333333,0.1443333333333333,-0.122,1.646,0.305,0.0,0.0,0.0,0.0,0.0,0.0,0.0,0.0
3.242,0.23466666666666666,0.8956666666666667,0.14466666666666667,-0.305,1.28,0.122,0.0,0.0,0.0,0.0,0.0,0.0,0.0,0.0
3.252,0.234,0.893,0.145,-0.366,1.098,-0.122,0.0,0.0,0.0,0.0,0.0,0.0,0.0,0.0
3.262,0.232,0.891,0.146,-0.305,1.037,-0.427,0.0,0.0,0.0,0.0,0.0,0.0,0.0,0.0
3.272,0.235,0.894,0.149,-0.183,0.671,-0.793,0.0,0.0,0.0,0.0,0.0,0.0,0.0,0.0
3.283,0.238,0.8965000000000001,0.145,-0.244,0.061,-1.037,0.0,0.0,0.0,0.0,0.0,0.0,0.0,0.0
3.293,0.241,0.899,0.141,-0.244,-0.549,-1.22,0.0,0.0,0.0,0.0,0.0,0.0,0.0,0.0
3.302,0.24,0.8985000000000001,0.1395,-0.183,-1.037,-1.28,0.0,0.0,0.0,0.0,0.0,0.0,0.0,0.0
3.312,0.239,0.898,0.138,0.061,-1.28,-1.341,0.0,0.0,0.0,0.0,0.0,0.0,0.0,0.0
3.322,0.236,0.9,0.142,0.244,-1.341,-1.341,0.0,0.0,0.0,0.0,0.0,0.0,0.0,0.0
3.332,0.236,0.9,0.145,0.183,-1.463,-1.28,0.0,0.0,0.0,0.0,0.0,0.0,0.0,0.0
3.343,0.23299999999999998,0.899,0.144,0.122,-1.402,-1.22,0.0,0.0,0.0,0.0,0.0,0.0,0.0,0.0
3.353,0.23,0.898,0.143,0.244,-1.402,-1.341,0.0,0.0,0.0,0.0,0.0,0.0,0.0,0.0
3.363,0.227,0.897,0.147,0.305,-1.159,-1.402,0.0,0.0,0.0,0.0,0.0,0.0,0.0,0.0
3.372,0.2235,0.8935,0.1495,0.244,-1.098,-1.585,0.0,0.0,0.0,0.0,0.0,0.0,0.0,0.0
3.382,0.22,0.89,0.152,0.366,-0.793,-1.89,0.0,0.0,0.0,0.0,0.0,0.0,0.0,0.0
3.392,0.215,0.89,0.149,0.244,-0.549,-2.195,0.0,0.0,0.0,0.0,0.0,0.0,0.0,0.0
3.403,0.221,0.8945000000000001,0.148,0.061,-0.61,-2.378,0.0,0.0,0.0,0.0,0.0,0.0,0.0,0.0
3.413,0.227,0.899,0.147,0.183,-0.549,-2.317,0.0,0.0,0.0,0.0,0.0,0.0,0.0,0.0
3.423,0.229,0.896,0.147,0.183,-0.732,-2.195,0.0,0.0,0.0,0.0,0.0,0.0,0.0,0.0
3.433,0.235,0.894,0.146,0.366,-1.037,-2.073,0.0,0.0,0.0,0.0,0.0,0.0,0.0,0.0
3.442,0.237,0.897,0.147,0.549,-1.28,-2.073,0.0,0.0,0.0,0.0,0.0,0.0,0.0,0.0
3.452,0.236,0.901,0.149,0.488,-1.402,-2.073,0.0,0.0,0.0,0.0,0.0,0.0,0.0,0.0
3.463,0.2385,0.9015,0.1465,0.183,-1.524,-1.89,0.0,0.0,0.0,0.0,0.0,0.0,0.0,0.0
3.473,0.241,0.902,0.144,0.061,-1.585,-1.707,0.0,0.0,0.0,0.0,0.0,0.0,0.0,0.0
3.483,0.241,0.905,0.148,0.061,-1.768,-1.524,0.0,0.0,0.0,0.0,0.0,0.0,0.0,0.0
3.493,0.242,0.905,0.15,-0.122,-2.134,-1.159,0.0,0.0,0.0,0.0,0.0,0.0,0.0,0.0
3.502,0.24066666666666667,0.9056666666666667,0.148,0.061,-2.134,-0.793,0.0,0.0,0.0,0.0,0.0,0.0,0.0,0.0
3.513,0.23933333333333331,0.9063333333333333,0.146,0.0,-1.89,-0.488,0.0,0.0,0.0,0.0,0.0,0.0,0.0,0.0
3.523,0.238,0.907,0.144,0.0,-1.768,-0.244,0.0,0.0,0.0,0.0,0.0,0.0,0.0,0.0
3.533,0.236,0.908,0.147,0.183,-1.463,-0.122,0.0,0.0,0.0,0.0,0.0,0.0,0.0,0.0
3.543,0.235,0.904,0.146,0.183,-1.098,0.122,0.0,0.0,0.0,0.0,0.0,0.0,0.0,0.0
3.554,0.23049999999999998,0.9035,0.1455,0.0,-0.976,0.366,0.0,0.0,0.0,0.0,0.0,0.0,0.0,0.0
3.564,0.226,0.903,0.145,0.0,-0.61,0.61,0.0,0.0,0.0,0.0,0.0,0.0,0.0,0.0
3.573,0.223,0.902,0.1435,-0.244,-0.122,0.793,0.0,0.0,0.0,0.0,0.0,0.0,0.0,0.0
3.583,0.22,0.901,0.142,-0.488,0.427,0.976,0.0,0.0,0.0,0.0,0.0,0.0,0.0,0.0
3.593,0.221,0.9,0.145,-0.427,0.854,1.037,0.0,0.0,0.0,0.0,0.0,0.0,0.0,0.0
3.603,0.221,0.9,0.144,-0.366,1.098,1.098,0.0,0.0,0.0,0.0,0.0,0.0,0.0,0.0
3.614,0.22,0.901,0.143,-0.427,1.28,1.037,0.0,0.0,0.0,0.0,0.0,0.0,0.0,0.0
3.624,0.219,0.902,0.142,-0.427,1.585,0.854,0.0,0.0,0.0,0.0,0.0,0.0,0.0,0.0
3.634,0.217,0.901,0.143,-0.366,1.768,0.61,0.0,0.0,0.0,0.0,0.0,0.0,0.0,0.0
3.643,0.221,0.901,0.1405,-0.122,1.951,0.549,0.0,0.0,0.0,0.0,0.0,0.0,0.0,0.0
3.653,0.225,0.901,0.138,0.0,1.89,0.427,0.0,0.0,0.0,0.0,0.0,0.0,0.0,0.0
3.663,0.225,0.9,0.139,0.122,1.89,0.427,0.0,0.0,0.0,0.0,0.0,0.0,0.0,0.0
3.674,0.226,0.9,0.14,0.122,1.89,0.427,0.0,0.0,0.0,0.0,0.0,0.0,0.0,0.0
3.684,0.227,0.9,0.141,0.183,1.707,0.427,0.0,0.0,0.0,0.0,0.0,0.0,0.0,0.0
3.694,0.227,0.9,0.141,0.122,1.646,0.427,0.0,0.0,0.0,0.0,0.0,0.0,0.0,0.0
3.703,0.226,0.9005000000000001,0.142,-0.061,1.707,0.366,0.0,0.0,0.0,0.0,0.0,0.0,0.0,0.0
3.713,0.225,0.901,0.143,-0.122,1.768,0.305,0.0,0.0,0.0,0.0,0.0,0.0,0.0,0.0
3.723,0.223,0.9,0.144,0.0,1.829,0.366,0.0,0.0,0.0,0.0,0.0,0.0,0.0,0.0
3.734,0.2255,0.9015,0.146,0.0,2.073,0.366,0.0,0.0,0.0,0.0,0.0,0.0,0.0,0.0
3.744,0.228,0.903,0.148,0.122,2.134,0.366,0.0,0.0,0.0,0.0,0.0,0.0,0.0,0.0
3.754,0.231,0.903,0.145,0.122,2.073,0.427,0.0,0.0,0.0,0.0,0.0,0.0,0.0,0.0
3.764,0.231,0.901,0.145,0.183,2.012,0.549,0.0,0.0,0.0,0.0,0.0,0.0,0.0,0.0
3.773,0.22933333333333333,0.9,0.144,0.244,1.89,0.549,0.0,0.0,0.0,0.0,0.0,0.0,0.0,0.0
3.784,0.22766666666666668,0.899,0.143,0.061,1.768,0.427,0.0,0.0,0.0,0.0,0.0,0.0,0.0,0.0
3.794,0.226,0.898,0.142,0.0,1.768,0.366,0.0,0.0,0.0,0.0,0.0,0.0,0.0,0.0
3.804,0.226,0.901,0.143,0.305,1.89,0.427,0.0,0.0,0.0,0.0,0.0,0.0,0.0,0.0
3.814,0.23,0.906,0.14,0.427,2.012,0.427,0.0,0.0,0.0,0.0,0.0,0.0,0.0,0.0
3.825,0.231,0.903,0.14,0.366,2.195,0.488,0.0,0.0,0.0,0.0,0.0,0.0,0.0,0.0
3.835,0.232,0.9,0.14,0.244,2.134,0.671,0.0,0.0,0.0,0.0,0.0,0.0,0.0,0.0
3.844,0.2325,0.9005000000000001,0.14150000000000001,0.061,2.134,0.671,0.0,0.0,0.0,0.0,0.0,0.0,0.0,0.0
3.854,0.233,0.901,0.143,0.122,1.951,0.671,0.0,0.0,0.0,0.0,0.0,0.0,0.0,0.0
3.864,0.231,0.899,0.144,0.061,1.951,0.793,0.0,0.0,0.0,0.0,0.0,0.0,0.0,0.0
3.874,0.23,0.901,0.143,0.0,2.012,0.793,0.0,0.0,0.0,0.0,0.0,0.0,0.0,0.0
3.885,0.2305,0.8995,0.1445,-0.122,2.073,0.732,0.0,0.0,0.0,0.0,0.0,0.0,0.0,0.0
3.895,0.231,0.898,0.146,-0.183,2.012,0.671,0.0,0.0,0.0,0.0,0.0,0.0,0.0,0.0
3.905,0.234,0.9,0.14,-0.122,1.951,0.61,0.0,0.0,0.0,0.0,0.0,0.0,0.0,0.0
3.914,0.234,0.898,0.138,-0.183,1.951,0.549,0.0,0.0,0.0,0.0,0.0,0.0,0.0,0.0
3.924,0.239,0.895,0.14,0.061,2.012,0.488,0.0,0.0,0.0,0.0,0.0,0.0,0.0,0.0
3.934,0.24,0.897,0.14,0.122,1.707,0.549,0.0,0.0,0.0,0.0,0.0,0.0,0.0,0.0
3.945,0.24,0.898,0.14100000000000001,0.0,1.28,0.549,0.0,0.0,0.0,0.0,0.0,0.0,0.0,0.0
3.955,0.24,0.899,0.142,0.061,1.037,0.488,0.0,0.0,0.0,0.0,0.0,0.0,0.0,0.0
3.965,0.238,0.899,0.139,0.0,0.915,0.488,0.0,0.0,0.0,0.0,0.0,0.0,0.0,0.0
3.974,0.2365,0.8985000000000001,0.14150000000000001,-0.122,0.854,0.305,0.0,0.0,0.0,0.0,0.0,0.0,0.0,0.0
3.984,0.235,0.898,0.144,-0.183,0.549,0.183,0.0,0.0,0.0,0.0,0.0,0.0,0.0,0.0
3.994,0.234,0.899,0.144,-0.183,0.671,0.122,0.0,0.0,0.0,0.0,0.0,0.0,0.0,0.0
4.005,0.2355,0.9005000000000001,0.143,-0.183,0.793,0.183,0.0,0.0,0.0,0.0,0.0,0.0,0.0,0.0
4.015,0.237,0.902,0.142,-0.183,0.854,0.244,0.0,0.0,0.0,0.0,0.0,0.0,0.0,0.0
4.025,0.237,0.902,0.138,-0.122,0.793,0.305,0.0,0.0,0.0,0.0,0.0,0.0,0.0,0.0
4.035,0.233,0.901,0.142,-0.183,0.732,0.427,0.0,0.0,0.0,0.0,0.0,0.0,0.0,0.0
4.044,0.233,0.901,0.14100000000000001,-0.183,0.732,0.366,0.0,0.0,0.0,0.0,0.0,0.0,0.0,0.0
4.054,0.233,0.901,0.14,-0.305,0.793,0.427,0.0,0.0,0.0,0.0,0.0,0.0,0.0,0.0
4.065,0.2315,0.901,0.14150000000000001,-0.305,0.671,0.488,0.0,0.0,0.0,0.0,0.0,0.0,0.0,0.0
4.075,0.23,0.901,0.143,-0.305,0.671,0.549,0.0,0.0,0.0,0.0,0.0,0.0,0.0,0.0
4.085,0.232,0.899,0.144,-0.244,0.976,0.61,0.0,0.0,0.0,0.0,0.0,0.0,0.0,0.0
4.096,0.231,0.8995,0.14150000000000001,-0.183,1.22,0.61,0.0,0.0,0.0,0.0,0.0,0.0,0.0,0.0
4.106,0.23,0.9,0.139,-0.244,1.28,0.549,0.0,0.0,0.0,0.0,0.0,0.0,0.0,0.0
4.115,0.229,0.8995,0.14350000000000002,-0.244,1.341,0.549,0.0,0.0,0.0,0.0,0.0,0.0,0.0,0.0
4.125,0.228,0.899,0.148,-0.366,1.341,0.488,0.0,0.0,0.0,0.0,0.0,0.0,0.0,0.0
4.135,0.231,0.899,0.145,-0.244,1.341,0.366,0.0,0.0,0.0,0.0,0.0,0.0,0.0,0.0
4.145,0.23,0.899,0.14,-0.183,1.28,0.305,0.0,0.0,0.0,0.0,0.0,0.0,0.0,0.0
4.156,0.232,0.8995,0.14,-0.061,1.098,0.244,0.0,0.0,0.0,0.0,0.0,0.0,0.0,0.0
4.166,0.234,0.9,0.14,0.061,1.098,0.366,0.0,0.0,0.0,0.0,0.0,0.0,0.0,0.0
4.176,0.233,0.905,0.14,-0.122,1.22,0.366,0.0,0.0,0.0,0.0,0.0,0.0,0.0,0.0
4.185,0.233,0.9025000000000001,0.14,-0.122,1.402,0.366,0.0,0.0,0.0,0.0,0.0,0.0,0.0,0.0
4.195,0.233,0.9,0.14,-0.122,1.28,0.366,0.0,0.0,0.0,0.0,0.0,0.0,0.0,0.0
4.205,0.233,0.9,0.146,-0.061,1.098,0.366,0.0,0.0,0.0,0.0,0.0,0.0,0.0,0.0
4.216,0.232,0.9005000000000001,0.146,0.061,1.159,0.488,0.0,0.0,0.0,0.0,0.0,0.0,0.0,0.0
4.226,0.231,0.901,0.146,0.0,1.28,0.427,0.0,0.0,0.0,0.0,0.0,0.0,0.0,0.0
4.236,0.232,0.899,0.143,-0.061,1.22,0.488,0.0,0.0,0.0,0.0,0.0,0.0,0.0,0.0
4.245,0.2325,0.9,0.14,-0.183,1.159,0.549,0.0,0.0,0.0,0.0,0.0,0.0,0.0,0.0
4.255,0.233,0.901,0.137,-0.183,1.037,0.549,0.0,0.0,0.0,0.0,0.0,0.0,0.0,0.0
4.265,0.234,0.897,0.138,-0.122,0.976,0.549,0.0,0.0,0.0,0.0,0.0,0.0,0.0,0.0
4.276,0.232,0.8955,0.1385,-0.183,0.671,0.61,0.0,0.0,0.0,0.0,0.0,0.0,0.0,0.0
4.286,0.23,0.894,0.139,-0.061,0.732,0.732,0.0,0.0,0.0,0.0,0.0,0.0,0.0,0.0
4.296,0.227,0.895,0.144,-0.183,1.037,0.671,0.0,0.0,0.0,0.0,0.0,0.0,0.0,0.0
4.306,0.226,0.9,0.144,-0.244,1.402,0.732,0.0,0.0,0.0,0.0,0.0,0.0,0.0,0.0
4.315,0.228,0.901,0.1455,-0.305,1.463,0.732,0.0,0.0,0.0,0.0,0.0,0.0,0.0,0.0
4.325,0.23,0.902,0.147,-0.366,1.22,0.61,0.0,0.0,0.0,0.0,0.0,0.0,0.0,0.0
4.336,0.2305,0.9005000000000001,0.144,-0.488,1.22,0.549,0.0,0.0,0.0,0.0,0.0,0.0,0.0,0.0
4.346,0.231,0.899,0.141,-0.549,1.098,0.427,0.0,0.0,0.0,0.0,0.0,0.0,0.0,0.0
4.356,0.231,0.899,0.138,-0.549,1.159,0.305,0.0,0.0,0.0,0.0,0.0,0.0,0.0,0.0
4.367,0.2305,0.8995,0.139,-0.427,1.098,0.244,0.0,0.0,0.0,0.0,0.0,0.0,0.0,0.0
4.377,0.23,0.9,0.14,-0.183,0.915,0.183,0.0,0.0,0.0,0.0,0.0,0.0,0.0,0.0
4.386,0.23349999999999999,0.9,0.1365,-0.061,0.915,0.0,0.0,0.0,0.0,0.0,0.0,0.0,0.0,0.0
4.396,0.237,0.9,0.133,-0.122,0.976,-0.061,0.0,0.0,0.0,0.0,0.0,0.0,0.0,0.0
4.406,0.237,0.9,0.138,-0.244,1.037,-0.061,0.0,0.0,0.0,0.0,0.0,0.0,0.0,0.0
4.416,0.239,0.904,0.144,-0.305,0.854,-0.122,0.0,0.0,0.0,0.0,0.0,0.0,0.0,0.0
4.427,0.2375,0.9,0.143,-0.488,0.61,-0.122,0.0,0.0,0.0,0.0,0.0,0.0,0.0,0.0
4.437,0.236,0.896,0.142,-0.427,0.61,-0.122,0.0,0.0,0.0,0.0,0.0,0.0,0.0,0.0
4.446,0.2355,0.896,0.1415,-0.488,0.671,-0.122,0.0,0.0,0.0,0.0,0.0,0.0,0.0,0.0
4.456,0.235,0.896,0.141,-0.61,0.671,-0.122,0.0,0.0,0.0,0.0,0.0,0.0,0.0,0.0
4.466,0.235,0.9,0.148,-0.549,0.61,-0.183,0.0,0.0,0.0,0.0,0.0,0.0,0.0,0.0
4.476,0.236,0.901,0.143,-0.549,0.61,-0.061,0.0,0.0,0.0,0.0,0.0,0.0,0.0,0.0
4.487,0.2365,0.9025000000000001,0.1425,-0.549,0.793,0.122,0.0,0.0,0.0,0.0,0.0,0.0,0.0,0.0
4.497,0.237,0.904,0.142,-0.366,1.098,0.122,0.0,0.0,0.0,0.0,0.0,0.0,0.0,0.0
4.507,0.238,0.904,0.142,-0.305,1.22,0.244,0.0,0.0,0.0,0.0,0.0,0.0,0.0,0.0
4.516,0.237,0.9,0.144,-0.305,1.22,0.305,0.0,0.0,0.0,0.0,0.0,0.0,0.0,0.0
4.526,0.236,0.896,0.146,-0.488,1.22,0.488,0.0,0.0,0.0,0.0,0.0,0.0,0.0,0.0
4.536,0.233,0.896,0.145,-0.549,1.22,0.549,0.0,0.0,0.0,0.0,0.0,0.0,0.0,0.0
4.547,0.2335,0.8965000000000001,0.145,-0.671,1.22,0.549,0.0,0.0,0.0,0.0,0.0,0.0,0.0,0.0
4.557,0.234,0.897,0.145,-0.671,1.402,0.549,0.0,0.0,0.0,0.0,0.0,0.0,0.0,0.0
4.567,0.229,0.897,0.147,-0.854,1.585,0.549,0.0,0.0,0.0,0.0,0.0,0.0,0.0,0.0
4.577,0.229,0.898,0.147,-0.854,1.585,0.61,0.0,0.0,0.0,0.0,0.0,0.0,0.0,0.0
4.586,0.2305,0.899,0.146,-0.854,1.646,0.488,0.0,0.0,0.0,0.0,0.0,0.0,0.0,0.0
4.596,0.232,0.9,0.145,-0.671,1.829,0.549,0.0,0.0,0.0,0.0,0.0,0.0,0.0,0.0
4.607,0.233,0.9015,0.144,-0.61,1.829,0.549,0.0,0.0,0.0,0.0,0.0,0.0,0.0,0.0
4.617,0.234,0.903,0.143,-0.427,1.951,0.488,0.0,0.0,0.0,0.0,0.0,0.0,0.0,0.0
4.627,0.236,0.9,0.14,-0.488,1.768,0.549,0.0,0.0,0.0,0.0,0.0,0.0,0.0,0.0
4.638,0.2345,0.899,0.14350000000000002,-0.366,1.524,0.671,0.0,0.0,0.0,0.0,0.0,0.0,0.0,0.0
4.648,0.233,0.898,0.147,-0.305,1.707,0.671,0.0,0.0,0.0,0.0,0.0,0.0,0.0,0.0
4.657,0.2325,0.898,0.1475,-0.488,1.707,0.61,0.0,0.0,0.0,0.0,0.0,0.0,0.0,0.0
4.667,0.232,0.898,0.148,-0.366,1.768,0.61,0.0,0.0,0.0,0.0,0.0,0.0,0.0,0.0
4.677,0.229,0.897,0.148,-0.427,1.585,0.488,0.0,0.0,0.0,0.0,0.0,0.0,0.0,0.0
4.687,0.23,0.897,0.145,-0.549,1.768,0.61,0.0,0.0,0.0,0.0,0.0,0.0,0.0,0.0
4.698,0.23349999999999999,0.8975,0.1445,-0.488,2.012,0.549,0.0,0.0,0.0,0.0,0.0,0.0,0.0,0.0
4.708,0.237,0.898,0.144,-0.488,1.951,0.549,0.0,0.0,0.0,0.0,0.0,0.0,0.0,0.0
4.717,0.2355,0.8995,0.145,-0.366,1.951,0.61,0.0,0.0,0.0,0.0,0.0,0.0,0.0,0.0
4.727,0.234,0.901,0.146,-0.305,1.829,0.732,0.0,0.0,0.0,0.0,0.0,0.0,0.0,0.0
4.737,0.23,0.9,0.153,-0.488,1.89,0.793,0.0,0.0,0.0,0.0,0.0,0.0,0.0,0.0
4.747,0.231,0.898,0.148,-0.671,1.951,0.671,0.0,0.0,0.0,0.0,0.0,0.0,0.0,0.0
4.758,0.235,0.898,0.1485,-0.61,2.012,0.671,0.0,0.0,0.0,0.0,0.0,0.0,0.0,0.0
4.768,0.239,0.898,0.149,-0.549,2.012,0.732,0.0,0.0,0.0,0.0,0.0,0.0,0.0,0.0
4.778,0.237,0.899,0.15,-0.488,1.89,0.671,0.0,0.0,0.0,0.0,0.0,0.0,0.0,0.0
4.787,0.238,0.901,0.15,-0.427,1.829,0.732,0.0,0.0,0.0,0.0,0.0,0.0,0.0,0.0
4.797,0.239,0.903,0.15,-0.122,1.646,0.854,0.0,0.0,0.0,0.0,0.0,0.0,0.0,0.0
4.807,0.236,0.906,0.15,-0.183,1.159,0.915,0.0,0.0,0.0,0.0,0.0,0.0,0.0,0.0
4.818,0.2355,0.904,0.148,-0.427,1.098,0.976,0.0,0.0,0.0,0.0,0.0,0.0,0.0,0.0
4.828,0.235,0.902,0.146,-0.427,1.159,0.976,0.0,0.0,0.0,0.0,0.0,0.0,0.0,0.0
4.838,0.237,0.898,0.142,-0.427,1.341,1.098,0.0,0.0,0.0,0.0,0.0,0.0,0.0,0.0
4.848,0.238,0.896,0.144,-0.366,1.524,1.098,0.0,0.0,0.0,0.0,0.0,0.0,0.0,0.0
4.857,0.23249999999999998,0.8935,0.1465,-0.366,1.585,0.915,0.0,0.0,0.0,0.0,0.0,0.0,0.0,0.0
4.867,0.227,0.891,0.149,-0.61,1.402,0.61,0.0,0.0,0.0,0.0,0.0,0.0,0.0,0.0
4.878,0.23199999999999998,0.896,0.1465,-0.61,1.22,0.366,0.0,0.0,0.0,0.0,0.0,0.0,0.0,0.0
4.888,0.237,0.901,0.144,-0.305,1.159,0.183,0.0,0.0,0.0,0.0,0.0,0.0,0.0,0.0
4.898,0.237,0.904,0.147,-0.244,0.915,0.244,0.0,0.0,0.0,0.0,0.0,0.0,0.0,0.0
4.909,0.239,0.903,0.1465,-0.366,0.549,0.244,0.0,0.0,0.0,0.0,0.0,0.0,0.0,0.0
4.919,0.241,0.902,0.146,-0.305,0.244,0.427,0.0,0.0,0.0,0.0,0.0,0.0,0.0,0.0
4.928,0.2405,0.902,0.1445,-0.183,0.183,0.61,0.0,0.0,0.0,0.0,0.0,0.0,0.0,0.0
4.938,0.24,0.902,0.143,-0.366,0.305,0.671,0.0,0.0,0.0,0.0,0.0,0.0,0.0,0.0
4.948,0.235,0.902,0.143,-0.366,0.061,0.488,0.0,0.0,0.0,0.0,0.0,0.0,0.0,0.0
4.958,0.231,0.901,0.142,-0.244,0.0,0.427,0.0,0.0,0.0,0.0,0.0,0.0,0.0,0.0
4.969,0.232,0.8995,0.144,-0.183,0.183,0.366,0.0,0.0,0.0,0.0,0.0,0.0,0.0,0.0
4.979,0.233,0.898,0.146,-0.122,0.61,0.488,0.0,0.0,0.0,0.0,0.0,0.0,0.0,0.0
4.989,0.236,0.9,0.146,-0.183,0.793,0.61,0.0,0.0,0.0,0.0,0.0,0.0,0.0,0.0
4.998,0.238,0.9,0.146,-0.366,0.671,0.671,0.0,0.0,0.0,0.0,0.0,0.0,0.0,0.0
5.008,0.237,0.896,0.148,-0.549,0.305,0.671,0.0,0.0,0.0,0.0,0.0,0.0,0.0,0.0
5.018,0.234,0.894,0.149,-0.488,0.0,0.732,0.0,0.0,0.0,0.0,0.0,0.0,0.0,0.0
5.029,0.234,0.8945000000000001,0.1475,-0.549,-0.061,0.793,0.0,0.0,0.0,0.0,0.0,0.0,0.0,0.0
5.039,0.234,0.895,0.146,-0.671,-0.061,0.915,0.0,0.0,0.0,0.0,0.0,0.0,0.0,0.0
5.049,0.235,0.899,0.148,-0.732,0.0,1.037,0.0,0.0,0.0,0.0,0.0,0.0,0.0,0.0
5.058,0.23349999999999999,0.902,0.14250000000000002,-0.732,0.183,1.098,0.0,0.0,0.0,0.0,0.0,0.0,0.0,0.0
5.068,0.232,0.905,0.137,-0.61,0.427,1.037,0.0,0.0,0.0,0.0,0.0,0.0,0.0,0.0
5.078,0.231,0.903,0.137,-0.488,0.488,0.854,0.0,0.0,0.0,0.0,0.0,0.0,0.0,0.0
5.089,0.2295,0.9035,0.139,-0.183,0.549,0.915,0.0,0.0,0.0,0.0,0.0,0.0,0.0,0.0
5.099,0.228,0.904,0.141,0.0,0.549,0.854,0.0,0.0,0.0,0.0,0.0,0.0,0.0,0.0
5.109,0.229,0.899,0.146,-0.061,0.549,0.671,0.0,0.0,0.0,0.0,0.0,0.0,0.0,0.0
5.119,0.228,0.898,0.146,-0.244,0.671,0.488,0.0,0.0,0.0,0.0,0.0,0.0,0.0,0.0
5.128,0.2295,0.9,0.147,-0.488,0.976,0.549,0.0,0.0,0.0,0.0,0.0,0.0,0.0,0.0
5.138,0.231,0.902,0.148,-0.854,1.159,0.549,0.0,0.0,0.0,0.0,0.0,0.0,0.0,0.0
5.149,0.2385,0.9045000000000001,0.146,-1.037,1.037,0.732,0.0,0.0,0.0,0.0,0.0,0.0,0.0,0.0
5.159,0.246,0.907,0.144,-0.915,0.244,0.854,0.0,0.0,0.0,0.0,0.0,0.0,0.0,0.0
5.169,0.243,0.901,0.146,-0.61,-0.427,0.793,0.0,0.0,0.0,0.0,0.0,0.0,0.0,0.0
5.179,0.241,0.897,0.145,-0.183,-0.366,0.793,0.0,0.0,0.0,0.0,0.0,0.0,0.0,0.0
5.19,0.23833333333333334,0.8966666666666667,0.14533333333333331,0.244,-0.244,0.793,0.0,0.0,0.0,0.0,0.0,0.0,0.0,0.0
5.199,0.23566666666666666,0.8963333333333333,0.14566666666666667,0.61,-0.244,0.61,0.0,0.0,0.0,0.0,0.0,0.0,0.0,0.0
5.209,0.233,0.896,0.146,0.427,-0.488,0.488,0.0,0.0,0.0,0.0,0.0,0.0,0.0,0.0
5.219,0.228,0.898,0.151,0.183,-0.793,0.366,0.0,0.0,0.0,0.0,0.0,0.0,0.0,0.0
5.229,0.229,0.898,0.152,0.061,-0.732,0.305,0.0,0.0,0.0,0.0,0.0,0.0,0.0,0.0
5.24,0.229,0.897,0.151,0.061,-0.488,0.244,0.0,0.0,0.0,0.0,0.0,0.0,0.0,0.0
5.25,0.229,0.896,0.15,0.0,-0.061,0.305,0.0,0.0,0.0,0.0,0.0,0.0,0.0,0.0
5.259,0.23,0.8975,0.1515,-0.061,0.305,0.305,0.0,0.0,0.0,0.0,0.0,0.0,0.0,0.0
5.269,0.231,0.899,0.153,-0.122,0.488,0.305,0.0,0.0,0.0,0.0,0.0,0.0,0.0,0.0
5.279,0.226,0.898,0.153,-0.244,0.671,0.305,0.0,0.0,0.0,0.0,0.0,0.0,0.0,0.0
5.289,0.231,0.898,0.152,-0.366,0.61,0.488,0.0,0.0,0.0,0.0,0.0,0.0,0.0,0.0
5.3,0.23399999999999999,0.8945000000000001,0.149,-0.366,0.549,0.732,0.0,0.0,0.0,0.0,0.0,0.0,0.0,0.0
5.31,0.237,0.891,0.146,-0.305,0.61,0.915,0.0,0.0,0.0,0.0,0.0,0.0,0.0,0.0
5.32,0.237,0.893,0.147,-0.183,0.915,1.098,0.0,0.0,0.0,0.0,0.0,0.0,0.0,0.0
5.329,0.2375,0.895,0.1485,-0.122,1.098,1.22,0.0,0.0,0.0,0.0,0.0,0.0,0.0,0.0
5.339,0.238,0.897,0.15,-0.122,1.463,1.341,0.0,0.0,0.0,0.0,0.0,0.0,0.0,0.0
5.349,0.237,0.898,0.153,-0.305,1.585,1.463,0.0,0.0,0.0,0.0,0.0,0.0,0.0,0.0
5.36,0.237,0.8985000000000001,0.151,-0.488,1.524,1.646,0.0,0.0,0.0,0.0,0.0,0.0,0.0,0.0
5.37,0.237,0.899,0.149,-0.427,1.463,1.768,0.0,0.0,0.0,0.0,0.0,0.0,0.0,0.0
5.38,0.238,0.895,0.148,-0.427,1.28,1.707,0.0,0.0,0.0,0.0,0.0,0.0,0.0,0.0
5.39,0.237,0.895,0.146,-0.427,1.463,1.707,0.0,0.0,0.0,0.0,0.0,0.0,0.0,0.0
5.399,0.237,0.8975,0.146,-0.305,1.829,1.768,0.0,0.0,0.0,0.0,0.0,0.0,0.0,0.0
5.409,0.237,0.9,0.146,-0.183,1.89,1.768,0.0,0.0,0.0,0.0,0.0,0.0,0.0,0.0
5.42,0.2355,0.8985000000000001,0.1505,-0.183,1.707,1.829,0.0,0.0,0.0,0.0,0.0,0.0,0.0,0.0
5.43,0.234,0.897,0.155,-0.305,1.402,1.89,0.0,0.0,0.0,0.0,0.0,0.0,0.0,0.0
5.44,0.234,0.897,0.153,-0.427,1.28,1.829,0.0,0.0,0.0,0.0,0.0,0.0,0.0,0.0
5.45,0.236,0.896,0.148,-0.549,1.341,1.768,0.0,0.0,0.0,0.0,0.0,0.0,0.0,0.0
5.459,0.237,0.896,0.147,-0.549,1.524,2.012,0.0,0.0,0.0,0.0,0.0,0.0,0.0,0.0
5.47,0.238,0.896,0.146,-0.61,1.646,2.195,0.0,0.0,0.0,0.0,0.0,0.0,0.0,0.0
5.48,0.239,0.896,0.145,-0.671,1.707,2.256,0.0,0.0,0.0,0.0,0.0,0.0,0.0,0.0
5.49,0.237,0.896,0.146,-0.549,1.829,2.378,0.0,0.0,0.0,0.0,0.0,0.0,0.0,0.0
5.5,0.233,0.898,0.148,-0.61,1.951,2.5,0.0,0.0,0.0,0.0,0.0,0.0,0.0,0.0
5.511,0.235,0.9,0.1515,-0.61,2.073,2.439,0.0,0.0,0.0,0.0,0.0,0.0,0.0,0.0
5.521,0.237,0.902,0.155,-0.305,2.256,2.622,0.0,0.0,0.0,0.0,0.0,0.0,0.0,0.0
5.53,0.237,0.903,0.1505,-0.122,2.439,2.744,0.0,0.0,0.0,0.0,0.0,0.0,0.0,0.0
5.54,0.237,0.904,0.146,-0.061,2.378,2.744,0.0,0.0,0.0,0.0,0.0,0.0,0.0,0.0
5.55,0.235,0.899,0.152,-0.061,2.134,2.683,0.0,0.0,0.0,0.0,0.0,0.0,0.0,0.0
5.56,0.233,0.896,0.152,-0.183,2.195,2.744,0.0,0.0,0.0,0.0,0.0,0.0,0.0,0.0
5.571,0.232,0.897,0.15,-0.427,2.561,2.744,0.0,0.0,0.0,0.0,0.0,0.0,0.0,0.0
5.581,0.231,0.898,0.148,-0.427,3.11,2.927,0.0,0.0,0.0,0.0,0.0,0.0,0.0,0.0
5.591,0.234,0.898,0.147,-0.305,3.232,2.988,0.0,0.0,0.0,0.0,0.0,0.0,0.0,0.0
5.6,0.232,0.8985000000000001,0.1485,-0.183,2.866,2.988,0.0,0.0,0.0,0.0,0.0,0.0,0.0,0.0
5.61,0.23,0.899,0.15,-0.183,2.317,2.927,0.0,0.0,0.0,0.0,0.0,0.0,0.0,0.0
5.62,0.229,0.899,0.147,-0.183,2.256,2.866,0.0,0.0,0.0,0.0,0.0,0.0,0.0,0.0
5.631,0.229,0.902,0.14350000000000002,-0.122,2.561,2.866,0.0,0.0,0.0,0.0,0.0,0.0,0.0,0.0
5.641,0.229,0.905,0.14,0.0,3.049,2.805,0.0,0.0,0.0,0.0,0.0,0.0,0.0,0.0
5.651,0.229,0.906,0.141,0.244,3.11,2.744,0.0,0.0,0.0,0.0,0.0,0.0,0.0,0.0
5.661,0.224,0.903,0.14,0.427,2.988,2.622,0.0,0.0,0.0,0.0,0.0,0.0,0.0,0.0
5.67,0.222,0.902,0.1405,0.61,2.988,2.256,0.0,0.0,0.0,0.0,0.0,0.0,0.0,0.0
5.68,0.22,0.901,0.141,0.854,3.11,1.89,0.0,0.0,0.0,0.0,0.0,0.0,0.0,0.0
5.691,0.221,0.9025000000000001,0.1405,1.28,3.354,1.768,0.0,0.0,0.0,0.0,0.0,0.0,0.0,0.0
5.701,0.222,0.904,0.14,1.585,3.354,1.646,0.0,0.0,0.0,0.0,0.0,0.0,0.0,0.0
5.711,0.222,0.905,0.137,1.951,3.232,1.341,0.0,0.0,0.0,0.0,0.0,0.0,0.0,0.0
5.721,0.222,0.907,0.135,2.134,3.293,0.976,0.0,0.0,0.0,0.0,0.0,0.0,0.0,0.0
5.73,0.21966666666666668,0.909,0.135,2.561,3.841,0.915,0.0,0.0,0.0,0.0,0.0,0.0,0.0,0.0
5.741,0.21733333333333332,0.911,0.135,2.927,4.085,0.854,0.0,0.0,0.0,0.0,0.0,0.0,0.0,0.0
5.751,0.215,0.913,0.135,3.11,4.024,0.549,0.0,0.0,0.0,0.0,0.0,0.0,0.0,0.0
5.761,0.216,0.911,0.135,3.232,3.78,0.183,0.0,0.0,0.0,0.0,0.0,0.0,0.0,0.0
5.771,0.215,0.91,0.135,3.476,3.72,-0.244,0.0,0.0,0.0,0.0,0.0,0.0,0.0,0.0
5.782,0.217,0.9115,0.1315,3.78,3.659,-0.549,0.0,0.0,0.0,0.0,0.0,0.0,0.0,0.0
5.792,0.219,0.913,0.128,4.329,3.415,-0.915,0.0,0.0,0.0,0.0,0.0,0.0,0.0,0.0
5.801,0.218,0.9115,0.1235,4.878,3.354,-1.159,0.0,0.0,0.0,0.0,0.0,0.0,0.0,0.0
5.811,0.217,0.91,0.119,5.488,3.171,-1.463,0.0,0.0,0.0,0.0,0.0,0.0,0.0,0.0
5.821,0.208,0.915,0.116,6.098,2.683,-2.012,0.0,0.0,0.0,0.0,0.0,0.0,0.0,0.0
5.831,0.202,0.913,0.112,6.463,2.134,-2.561,0.0,0.0,0.0,0.0,0.0,0.0,0.0,0.0
5.842,0.201,0.912,0.107,7.256,1.463,-3.659,0.0,0.0,0.0,0.0,0.0,0.0,0.0,0.0
5.852,0.2,0.911,0.102,7.866,1.159,-4.085,0.0,0.0,0.0,0.0,0.0,0.0,0.0,0.0
5.862,0.198,0.914,0.104,8.598,1.22,-4.878,0.0,0.0,0.0,0.0,0.0,0.0,0.0,0.0
5.871,0.198,0.9115,0.11,9.024,1.707,-5.183,0.0,0.0,0.0,0.0,0.0,0.0,0.0,0.0
5.881,0.198,0.909,0.116,9.695,2.378,-5.732,0.0,0.0,0.0,0.0,0.0,0.0,0.0,0.0
5.891,0.192,0.906,0.124,10.61,3.841,-6.402,0.0,0.0,0.0,0.0,0.0,0.0,0.0,0.0
5.902,0.20350000000000001,0.898,0.1245,10.61,6.037,-6.22,0.0,0.0,0.0,0.0,0.0,0.0,0.0,0.0
5.912,0.215,0.89,0.125,10.488,8.232,-5.427,0.0,0.0,0.0,0.0,0.0,0.0,0.0,0.0
5.922,0.193,0.896,0.122,10.488,7.744,-5.915,0.0,0.0,0.0,0.0,0.0,0.0,0.0,0.0
5.931,0.1935,0.8985000000000001,0.118,10.61,10.122,-5.976,0.0,0.0,0.0,0.0,0.0,0.0,0.0,0.0
5.941,0.194,0.901,0.114,10.488,9.512,-6.524,0.0,0.0,0.0,0.0,0.0,0.0,0.0,0.0
5.951,0.174,0.906,0.098,10.976,9.268,-7.195,0.0,0.0,0.0,0.0,0.0,0.0,0.0,0.0
5.962,0.17149999999999999,0.9045000000000001,0.07400000000000001,12.866,10.61,-7.744,0.0,0.0,0.0,0.0,0.0,0.0,0.0,0.0
5.972,0.169,0.903,0.05,15.366,14.024,-8.293,0.0,0.0,0.0,0.0,0.0,0.0,0.0,0.0
5.982,0.167,0.9,0.038,18.11,16.951,-8.963,0.0,0.0,0.0,0.0,0.0,0.0,0.0,0.0
5.992,0.154,0.9,0.033,20.854,19.939,-9.756,0.0,0.0,0.0,0.0,0.0,0.0,0.0,0.0
6.001,0.155,0.909,0.035,23.11,22.378,-10.305,0.0,0.0,0.0,0.0,0.0,0.0,0.0,0.0
6.012,0.156,0.918,0.037,25.671,23.049,-11.524,0.0,0.0,0.0,0.0,0.0,0.0,0.0,0.0
6.022,0.157,0.927,0.039,27.744,25.061,-12.134,0.0,0.0,0.0,0.0,0.0,0.0,0.0,0.0
6.032,0.177,0.929,0.027,30.183,29.573,-12.256,0.0,0.0,0.0,0.0,0.0,0.0,0.0,0.0
6.042,0.179,0.928,0.018,32.988,34.024,-12.012,0.0,0.0,0.0,0.0,0.0,0.0,0.0,0.0
6.053,0.1775,0.937,0.012,35.488,39.268,-12.012,0.0,0.0,0.0,0.0,0.0,0.0,0.0,0.0
6.063,0.176,0.946,0.006,38.232,45.732,-11.646,0.0,0.0,0.0,0.0,0.0,0.0,0.0,0.0
6.072,0.16899999999999998,0.963,-0.0055,42.5,47.195,-12.317,0.0,0.0,0.0,0.0,0.0,0.0,0.0,0.0
6.082,0.162,0.98,-0.017,45.976,45.854,-14.024,0.0,0.0,0.0,0.0,0.0,0.0,0.0,0.0
6.092,0.167,1.006,-0.03,48.232,45.427,-15.793,0.0,0.0,0.0,0.0,0.0,0.0,0.0,0.0
6.102,0.159,1.03,-0.062,52.378,43.841,-17.744,0.0,0.0,0.0,0.0,0.0,0.0,0.0,0.0
6.113,0.162,1.0485,-0.0905,59.146,47.134,-18.963,0.0,0.0,0.0,0.0,0.0,0.0,0.0,0.0
6.123,0.165,1.067,-0.119,65.183,45.366,-22.683,0.0,0.0,0.0,0.0,0.0,0.0,0.0,0.0
6.133,0.102,1.09,-0.152,71.89,37.5,-29.939,0.0,0.0,0.0,0.0,0.0,0.0,0.0,0.0
6.142,0.059,1.112,-0.162,76.28,26.037,-38.232,0.0,0.0,0.0,0.0,0.0,0.0,0.0,0.0
6.152,0.111,1.098,-0.152,79.634,17.927,-44.39,0.0,0.0,0.0,0.0,0.0,0.0,0.0,0.0
6.162,0.203,1.053,-0.128,75.732,23.537,-46.707,0.0,0.0,0.0,0.0,0.0,0.0,0.0,0.0
6.173,0.193,1.009,-0.058499999999999996,76.22,22.622,-49.024,0.0,0.0,0.0,0.0,0.0,0.0,0.0,0.0
6.183,0.183,0.965,0.011,78.78,13.049,-50.976,0.0,0.0,0.0,0.0,0.0,0.0,0.0,0.0
6.193,0.16,0.959,-0.013,80.915,10.122,-49.085,0.0,0.0,0.0,0.0,0.0,0.0,0.0,0.0
6.202,0.136,0.9604999999999999,0.0175,77.317,2.805,-46.951,0.0,0.0,0.0,0.0,0.0,0.0,0.0,0.0
6.212,0.112,0.962,0.048,71.951,1.341,-43.354,0.0,0.0,0.0,0.0,0.0,0.0,0.0,0.0
6.222,0.103,0.969,0.03,69.085,7.927,-40.122,0.0,0.0,0.0,0.0,0.0,0.0,0.0,0.0
6.233,0.11499999999999999,0.971,0.012999999999999998,68.902,15.122,-37.805,0.0,0.0,0.0,0.0,0.0,0.0,0.0,0.0
6.243,0.127,0.973,-0.004,66.22,19.451,-35.61,0.0,0.0,0.0,0.0,0.0,0.0,0.0,0.0
6.253,0.109,0.941,-0.031,61.89,22.805,-34.207,0.0,0.0,0.0,0.0,0.0,0.0,0.0,0.0
6.263,0.08,0.921,-0.052,57.866,28.963,-31.646,0.0,0.0,0.0,0.0,0.0,0.0,0.0,0.0
6.272,0.09,0.9006666666666667,-0.06933333333333333,50.549,28.659,-28.537,0.0,0.0,0.0,0.0,0.0,0.0,0.0,0.0
6.283,0.1,0.8803333333333333,-0.08666666666666667,43.354,27.012,-27.622,0.0,0.0,0.0,0.0,0.0,0.0,0.0,0.0
6.293,0.11,0.86,-0.104,39.329,32.012,-29.451,0.0,0.0,0.0,0.0,0.0,0.0,0.0,0.0
6.303,0.151,0.862,-0.114,37.073,35.0,-28.902,0.0,0.0,0.0,0.0,0.0,0.0,0.0,0.0
6.313,0.164,0.866,-0.102,35.183,34.268,-27.561,0.0,0.0,0.0,0.0,0.0,0.0,0.0,0.0
6.324,0.14800000000000002,0.8645,-0.11199999999999999,31.646,35.488,-25.793,0.0,0.0,0.0,0.0,0.0,0.0,0.0,0.0
6.334,0.132,0.863,-0.122,27.439,35.183,-24.573,0.0,0.0,0.0,0.0,0.0,0.0,0.0,0.0
6.343,0.136,0.859,-0.127,22.5,31.22,-23.11,0.0,0.0,0.0,0.0,0.0,0.0,0.0,0.0
6.353,0.14,0.855,-0.132,18.293,29.817,-21.463,0.0,0.0,0.0,0.0,0.0,0.0,0.0,0.0
6.363,0.143,0.859,-0.138,16.037,30.244,-19.695,0.0,0.0,0.0,0.0,0.0,0.0,0.0,0.0
6.373,0.139,0.857,-0.144,13.11,28.841,-17.988,0.0,0.0,0.0,0.0,0.0,0.0,0.0,0.0
6.384,0.132,0.8474999999999999,-0.16149999999999998,8.415,26.341,-15.976,0.0,0.0,0.0,0.0,0.0,0.0,0.0,0.0
6.394,0.125,0.838,-0.179,5.427,26.402,-13.537,0.0,0.0,0.0,0.0,0.0,0.0,0.0,0.0
6.404,0.118,0.837,-0.195,4.878,29.329,-10.793,0.0,0.0,0.0,0.0,0.0,0.0,0.0,0.0
6.413,0.113,0.818,-0.216,3.902,31.707,-7.134,0.0,0.0,0.0,0.0,0.0,0.0,0.0,0.0
6.423,0.127,0.799,-0.227,2.805,33.415,-3.476,0.0,0.0,0.0,0.0,0.0,0.0,0.0,0.0
6.433,0.143,0.785,-0.223,2.195,36.098,-0.427,0.0,0.0,0.0,0.0,0.0,0.0,0.0,0.0
6.444,0.142,0.773,-0.23149999999999998,0.976,37.927,1.951,0.0,0.0,0.0,0.0,0.0,0.0,0.0,0.0
6.454,0.141,0.761,-0.24,-1.646,37.5,3.354,0.0,0.0,0.0,0.0,0.0,0.0,0.0,0.0
6.464,0.121,0.758,-0.241,-5.305,35.122,4.634,0.0,0.0,0.0,0.0,0.0,0.0,0.0,0.0
6.473,0.0995,0.757,-0.243,-9.146,32.378,6.037,0.0,0.0,0.0,0.0,0.0,0.0,0.0,0.0
6.483,0.078,0.756,-0.245,-12.134,30.61,7.439,0.0,0.0,0.0,0.0,0.0,0.0,0.0,0.0
6.493,0.057,0.766,-0.241,-14.39,29.146,9.573,0.0,0.0,0.0,0.0,0.0,0.0,0.0,0.0
6.504,0.0455,0.7745,-0.235,-15.183,26.402,12.744,0.0,0.0,0.0,0.0,0.0,0.0,0.0,0.0
6.514,0.034,0.783,-0.229,-14.695,27.378,12.195,0.0,0.0,0.0,0.0,0.0,0.0,0.0,0.0
6.524,0.034,0.788,-0.236,-15.244,26.524,11.951,0.0,0.0,0.0,0.0,0.0,0.0,0.0,0.0
6.534,0.036,0.791,-0.241,-16.524,25.183,12.073,0.0,0.0,0.0,0.0,0.0,0.0,0.0,0.0
6.543,0.036,0.8006666666666666,-0.24433333333333332,-17.317,25.427,12.256,0.0,0.0,0.0,0.0,0.0,0.0,0.0,0.0
6.554,0.036,0.8103333333333333,-0.24766666666666667,-17.622,26.28,12.439,0.0,0.0,0.0,0.0,0.0,0.0,0.0,0.0
6.564,0.036,0.82,-0.251,-17.5,26.646,13.293,0.0,0.0,0.0,0.0,0.0,0.0,0.0,0.0
6.574,0.042,0.836,-0.256,-16.829,24.573,15.0,0.0,0.0,0.0,0.0,0.0,0.0,0.0,0.0
6.584,0.013,0.861,-0.259,-16.524,29.573,14.024,0.0,0.0,0.0,0.0,0.0,0.0,0.0,0.0
6.595,-0.0075000000000000015,0.8915,-0.27749999999999997,-16.159,31.22,13.415,0.0,0.0,0.0,0.0,0.0,0.0,0.0,0.0
6.605,-0.028,0.922,-0.296,-15.732,30.671,12.378,0.0,0.0,0.0,0.0,0.0,0.0,0.0,0.0
6.614,-0.047,0.9325,-0.3015,-15.183,25.488,10.366,0.0,0.0,0.0,0.0,0.0,0.0,0.0,0.0
6.624,-0.066,0.943,-0.307,-14.329,19.695,7.744,0.0,0.0,0.0,0.0,0.0,0.0,0.0,0.0
6.634,-0.052,0.931,-0.307,-13.537,12.744,5.915,0.0,0.0,0.0,0.0,0.0,0.0,0.0,0.0
6.644,-0.034,0.904,-0.297,-12.134,9.024,5.0,0.0,0.0,0.0,0.0,0.0,0.0,0.0,0.0
6.655,-0.026500000000000003,0.8935,-0.2965,-10.854,9.085,4.817,0.0,0.0,0.0,0.0,0.0,0.0,0.0,0.0
6.665,-0.019,0.883,-0.296,-9.268,12.805,5.671,0.0,0.0,0.0,0.0,0.0,0.0,0.0,0.0
6.675,0.001,0.891,-0.306,-6.829,19.146,6.585,0.0,0.0,0.0,0.0,0.0,0.0,0.0,0.0
6.684,0.0185,0.8945000000000001,-0.3275,-4.634,26.098,7.317,0.0,0.0,0.0,0.0,0.0,0.0,0.0,0.0
6.694,0.036,0.898,-0.349,-4.146,31.585,7.744,0.0,0.0,0.0,0.0,0.0,0.0,0.0,0.0
6.704,0.062,0.884,-0.359,-5.366,33.841,7.805,0.0,0.0,0.0,0.0,0.0,0.0,0.0,0.0
6.715,0.0965,0.8554999999999999,-0.34850000000000003,-8.537,30.854,7.561,0.0,0.0,0.0,0.0,0.0,0.0,0.0,0.0
6.725,0.131,0.827,-0.338,-13.659,25.427,8.598,0.0,0.0,0.0,0.0,0.0,0.0,0.0,0.0
6.735,0.245,0.878,-0.249,-22.988,17.866,12.073,0.0,0.0,0.0,0.0,0.0,0.0,0.0,0.0
6.744,0.278,0.927,-0.226,-32.927,2.622,14.39,0.0,0.0,0.0,0.0,0.0,0.0,0.0,0.0
6.754,0.311,0.976,-0.203,-35.061,-6.341,16.89,0.0,0.0,0.0,0.0,0.0,0.0,0.0,0.0
6.764,0.303,0.886,-0.222,-32.5,-2.195,18.72,0.0,0.0,0.0,0.0,0.0,0.0,0.0,0.0
6.775,0.2115,0.9219999999999999,-0.14450000000000002,-28.902,-9.329,16.829,0.0,0.0,0.0,0.0,0.0,0.0,0.0,0.0
6.785,0.12,0.958,-0.067,-29.146,-21.098,13.841,0.0,0.0,0.0,0.0,0.0,0.0,0.0,0.0
6.795,0.123,1.075,-0.027,-36.341,-21.341,13.293,0.0,0.0,0.0,0.0,0.0,0.0,0.0,0.0
6.805,0.144,1.29,-0.085,-39.512,-6.402,13.598,0.0,0.0,0.0,0.0,0.0,0.0,0.0,0.0
6.814,0.06299999999999999,1.3326666666666667,-0.192,-31.28,2.744,10.854,0.0,0.0,0.0,0.0,0.0,0.0,0.0,0.0
6.825,-0.018000000000000016,1.3753333333333333,-0.299,-18.659,4.512,5.793,0.0,0.0,0.0,0.0,0.0,0.0,0.0,0.0
6.835,-0.099,1.418,-0.406,-6.707,11.89,2.866,0.0,0.0,0.0,0.0,0.0,0.0,0.0,0.0
6.845,-0.011,1.208,-0.37,0.366,11.585,0.061,0.0,0.0,0.0,0.0,0.0,0.0,0.0,0.0
6.855,0.062,1.005,-0.298,3.537,0.549,-1.707,0.0,0.0,0.0,0.0,0.0,0.0,0.0,0.0
6.866,0.0905,0.8744999999999999,-0.2575,3.232,-15.366,-1.402,0.0,0.0,0.0,0.0,0.0,0.0,0.0,0.0
6.876,0.119,0.744,-0.217,-1.524,-33.537,-0.305,0.0,0.0,0.0,0.0,0.0,0.0,0.0,0.0
6.885,0.12,0.7175,-0.17149999999999999,-7.744,-45.976,1.28,0.0,0.0,0.0,0.0,0.0,0.0,0.0,0.0
6.895,0.121,0.691,-0.126,-14.085,-42.439,3.72,0.0,0.0,0.0,0.0,0.0,0.0,0.0,0.0
6.905,0.149,0.697,-0.059,-18.72,-24.39,6.829,0.0,0.0,0.0,0.0,0.0,0.0,0.0,0.0
6.915,0.197,0.703,0.025,-21.707,0.0,10.061,0.0,0.0,0.0,0.0,0.0,0.0,0.0,0.0
6.926,0.225,0.742,0.07250000000000001,-24.268,19.939,12.927,0.0,0.0,0.0,0.0,0.0,0.0,0.0,0.0
6.936,0.253,0.781,0.12,-27.439,27.866,15.0,0.0,0.0,0.0,0.0,0.0,0.0,0.0,0.0
6.946,0.238,0.816,0.09,-30.244,21.829,15.549,0.0,0.0,0.0,0.0,0.0,0.0,0.0,0.0
6.955,0.192,0.8454999999999999,0.012499999999999997,-30.488,3.232,13.659,0.0,0.0,0.0,0.0,0.0,0.0,0.0,0.0
6.965,0.146,0.875,-0.065,-31.037,-20.793,11.037,0.0,0.0,0.0,0.0,0.0,0.0,0.0,0.0
6.975,0.104,0.921,-0.164,-33.415,-45.061,7.561,0.0,0.0,0.0,0.0,0.0,0.0,0.0,0.0
6.986,0.081,0.971,-0.20850000000000002,-35.366,-66.341,3.902,0.0,0.0,0.0,0.0,0.0,0.0,0.0,0.0
6.996,0.058,1.021,-0.253,-36.341,-79.39,0.976,0.0,0.0,0.0,0.0,0.0,0.0,0.0,0.0
7.006,0.046,1.054,-0.213,-34.573,-85.061,-3.354,0.0,0.0,0.0,0.0,0.0,0.0,0.0,0.0
7.016,0.062,1.067,-0.155,-27.988,-81.89,-6.585,0.0,0.0,0.0,0.0,0.0,0.0,0.0,0.0
7.025,0.1,1.0165,-0.0745,-25.305,-68.415,-6.524,0.0,0.0,0.0,0.0,0.0,0.0,0.0,0.0
7.035,0.138,0.966,0.006,-22.622,-54.512,-5.488,0.0,0.0,0.0,0.0,0.0,0.0,0.0,0.0
7.046,0.20350000000000001,0.9039999999999999,0.1075,-19.756,-45.122,-6.524,0.0,0.0,0.0,0.0,0.0,0.0,0.0,0.0
7.056,0.269,0.842,0.209,-23.841,-35.732,-5.122,0.0,0.0,0.0,0.0,0.0,0.0,0.0,0.0
7.066,0.336,0.823,0.203,-31.098,-33.476,-0.305,0.0,0.0,0.0,0.0,0.0,0.0,0.0,0.0
7.076,0.356,0.793,0.149,-37.866,-42.744,4.207,0.0,0.0,0.0,0.0,0.0,0.0,0.0,0.0
7.085,0.30633333333333335,0.8260000000000001,0.12866666666666665,-41.28,-55.61,8.476,0.0,0.0,0.0,0.0,0.0,0.0,0.0,0.0
7.096,0.25666666666666665,0.859,0.10833333333333334,-44.39,-67.195,12.622,0.0,0.0,0.0,0.0,0.0,0.0,0.0,0.0
7.106,0.207,0.892,0.088,-43.232,-77.866,14.817,0.0,0.0,0.0,0.0,0.0,0.0,0.0,0.0
7.116,0.144,0.935,0.1,-39.817,-79.878,14.878,0.0,0.0,0.0,0.0,0.0,0.0,0.0,0.0
7.126,0.087,0.937,0.109,-34.024,-77.866,13.78,0.0,0.0,0.0,0.0,0.0,0.0,0.0,0.0
7.137,0.0865,0.9650000000000001,0.118,-31.768,-61.159,17.988,0.0,0.0,0.0,0.0,0.0,0.0,0.0,0.0
7.147,0.086,0.993,0.127,-24.39,-41.89,17.744,0.0,0.0,0.0,0.0,0.0,0.0,0.0,0.0
7.156,0.0615,0.9744999999999999,0.1125,-25.183,-29.756,13.902,0.0,0.0,0.0,0.0,0.0,0.0,0.0,0.0
7.166,0.037,0.956,0.098,-27.622,-33.11,9.146,0.0,0.0,0.0,0.0,0.0,0.0,0.0,0.0
7.176,0.088,0.926,0.058,-27.744,-36.768,5.671,0.0,0.0,0.0,0.0,0.0,0.0,0.0,0.0
7.186,0.1,0.907,0.047,-26.28,-38.598,2.378,0.0,0.0,0.0,0.0,0.0,0.0,0.0,0.0
7.197,0.087,0.8985000000000001,0.033,-23.354,-35.732,-1.951,0.0,0.0,0.0,0.0,0.0,0.0,0.0,0.0
7.207,0.074,0.89,0.019,-18.11,-28.476,-5.488,0.0,0.0,0.0,0.0,0.0,0.0,0.0,0.0
7.217,0.051,0.883,0.019,-14.085,-13.963,-7.439,0.0,0.0,0.0,0.0,0.0,0.0,0.0,0.0
7.226,0.101,0.889,0.020999999999999998,-10.61,-7.744,-9.756,0.0,0.0,0.0,0.0,0.0,0.0,0.0,0.0
7.236,0.151,0.895,0.023,-8.293,-6.829,-10.122,0.0,0.0,0.0,0.0,0.0,0.0,0.0,0.0
7.246,0.195,0.898,0.052,-6.585,-0.244,-7.744,0.0,0.0,0.0,0.0,0.0,0.0,0.0,0.0
7.257,0.189,0.905,0.073,-5.732,7.317,-5.122,0.0,0.0,0.0,0.0,0.0,0.0,0.0,0.0
7.267,0.183,0.912,0.094,-5.61,11.402,-2.927,0.0,0.0,0.0,0.0,0.0,0.0,0.0,0.0
7.277,0.191,0.917,0.104,-7.073,14.39,-0.244,0.0,0.0,0.0,0.0,0.0,0.0,0.0,0.0
7.287,0.182,0.931,0.134,-8.171,18.963,2.5,0.0,0.0,0.0,0.0,0.0,0.0,0.0,0.0
7.296,0.179,0.93,0.154,-9.573,24.146,5.61,0.0,0.0,0.0,0.0,0.0,0.0,0.0,0.0
7.306,0.199,0.919,0.142,-13.171,24.024,7.683,0.0,0.0,0.0,0.0,0.0,0.0,0.0,0.0
7.317,0.2215,0.901,0.152,-16.707,21.159,9.207,0.0,0.0,0.0,0.0,0.0,0.0,0.0,0.0
7.327,0.244,0.883,0.162,-19.146,21.159,11.89,0.0,0.0,0.0,0.0,0.0,0.0,0.0,0.0
7.337,0.241,0.884,0.183,-20.244,24.39,15.0,0.0,0.0,0.0,0.0,0.0,0.0,0.0,0.0
7.347,0.217,0.888,0.202,-20.915,28.537,18.598,0.0,0.0,0.0,0.0,0.0,0.0,0.0,0.0
7.356,0.20833333333333334,0.9003333333333333,0.17900000000000002,-25.122,20.183,17.988,0.0,0.0,0.0,0.0,0.0,0.0,0.0,0.0
7.367,0.19966666666666666,0.9126666666666667,0.156,-25.0,14.573,16.89,0.0,0.0,0.0,0.0,0.0,0.0,0.0,0.0
7.377,0.191,0.925,0.133,-25.061,9.939,16.402,0.0,0.0,0.0,0.0,0.0,0.0,0.0,0.0
7.387,0.179,0.94,0.117,-25.061,5.244,15.488,0.0,0.0,0.0,0.0,0.0,0.0,0.0,0.0
7.397,0.183,0.935,0.114,-25.488,4.695,15.244,0.0,0.0,0.0,0.0,0.0,0.0,0.0,0.0
7.408,0.1785,0.9265000000000001,0.12,-25.427,5.976,15.427,0.0,0.0,0.0,0.0,0.0,0.0,0.0,0.0
7.418,0.174,0.918,0.126,-25.122,5.122,14.756,0.0,0.0,0.0,0.0,0.0,0.0,0.0,0.0
7.427,0.175,0.903,0.125,-24.207,5.976,14.817,0.0,0.0,0.0,0.0,0.0,0.0,0.0,0.0
7.437,0.176,0.888,0.124,-24.146,5.732,14.634,0.0,0.0,0.0,0.0,0.0,0.0,0.0,0.0
7.447,0.196,0.904,0.112,-24.573,-2.317,13.171,0.0,0.0,0.0,0.0,0.0,0.0,0.0,0.0
7.457,0.213,0.905,0.099,-24.329,-12.012,12.195,0.0,0.0,0.0,0.0,0.0,0.0,0.0,0.0
7.468,0.22849999999999998,0.9005000000000001,0.0995,-25.732,-15.61,12.134,0.0,0.0,0.0,0.0,0.0,0.0,0.0,0.0
7.478,0.244,0.896,0.1,-27.561,-19.39,12.927,0.0,0.0,0.0,0.0,0.0,0.0,0.0,0.0
7.488,0.242,0.884,0.106,-28.293,-22.622,14.39,0.0,0.0,0.0,0.0,0.0,0.0,0.0,0.0
7.497,0.2205,0.883,0.1095,-29.329,-23.049,15.671,0.0,0.0,0.0,0.0,0.0,0.0,0.0,0.0
7.507,0.199,0.882,0.113,-29.695,-23.537,16.768,0.0,0.0,0.0,0.0,0.0,0.0,0.0,0.0
7.517,0.185,0.887,0.12,-29.573,-23.354,17.927,0.0,0.0,0.0,0.0,0.0,0.0,0.0,0.0
7.528,0.16,0.886,0.1395,-29.146,-23.293,18.537,0.0,0.0,0.0,0.0,0.0,0.0,0.0,0.0
7.538,0.135,0.885,0.159,-25.244,-20.793,18.476,0.0,0.0,0.0,0.0,0.0,0.0,0.0,0.0
7.548,0.123,0.888,0.157,-23.049,-19.878,18.232,0.0,0.0,0.0,0.0,0.0,0.0,0.0,0.0
7.558,0.099,0.882,0.174,-29.756,-27.073,15.61,0.0,0.0,0.0,0.0,0.0,0.0,0.0,0.0
7.567,0.10550000000000001,0.883,0.173,-31.037,-27.805,14.695,0.0,0.0,0.0,0.0,0.0,0.0,0.0,0.0
7.577,0.112,0.884,0.172,-32.317,-24.146,14.756,0.0,0.0,0.0,0.0,0.0,0.0,0.0,0.0
7.588,0.11,0.887,0.16399999999999998,-30.854,-15.732,16.159,0.0,0.0,0.0,0.0,0.0,0.0,0.0,0.0
7.598,0.108,0.89,0.156,-30.732,-8.171,16.707,0.0,0.0,0.0,0.0,0.0,0.0,0.0,0.0
7.608,0.148,0.881,0.147,-32.805,-2.378,17.317,0.0,0.0,0.0,0.0,0.0,0.0,0.0,0.0
7.618,0.179,0.865,0.12,-34.329,-2.073,17.622,0.0,0.0,0.0,0.0,0.0,0.0,0.0,0.0
