Timestamp,Acc x (g),Acc y (g),Acc z (g),Gyro x (deg/s),Gyro y (deg/s),Gyro z (deg/s),Beccheggio/Pitch (deg/s),Rollio/Roll (deg/s),Imbardata/Yaw (deg/s),Mag x (microTesla),Mag y (microTesla),Mag z (microTesla),Pressione (milliBar),Altitudine (m)
0.0,0.144,-0.086,0.96,-4.756,4.817,1.28,0.0,0.0,0.0,0.0,0.0,0.0,0.0,0.0
0.009,0.143,-0.086,0.9616,-5.0,5.305,1.341,0.0,0.0,0.0,0.0,0.0,0.0,0.0,0.0
0.019,0.142,-0.086,0.9632,-5.976,5.976,1.646,0.0,0.0,0.0,0.0,0.0,0.0,0.0,0.0
0.03,0.14100000000000001,-0.086,0.9648,-7.683,6.463,1.524,0.0,0.0,0.0,0.0,0.0,0.0,0.0,0.0
0.04,0.14,-0.086,0.9663999999999999,-8.11,7.073,3.354,0.0,0.0,0.0,0.0,0.0,0.0,0.0,0.0
0.05,0.139,-0.086,0.968,-20.61,6.098,7.073,0.0,0.0,0.0,0.0,0.0,0.0,0.0,0.0
0.06,0.135,-0.081,0.972,-33.841,3.78,8.476,0.0,0.0,0.0,0.0,0.0,0.0,0.0,0.0
0.071,0.1338,-0.08600000000000001,0.9713999999999999,-11.037,5.183,5.854,0.0,0.0,0.0,0.0,0.0,0.0,0.0,0.0
0.079,0.1326,-0.091,0.9708,-0.976,5.305,3.72,0.0,0.0,0.0,0.0,0.0,0.0,0.0,0.0
0.09,0.13140000000000002,-0.096,0.9702,-4.39,3.841,1.28,0.0,0.0,0.0,0.0,0.0,0.0,0.0,0.0
0.1,0.1302,-0.101,0.9696,-2.012,3.841,0.61,0.0,0.0,0.0,0.0,0.0,0.0,0.0,0.0
0.11,0.129,-0.106,0.969,0.793,4.695,2.195,0.0,0.0,0.0,0.0,0.0,0.0,0.0,0.0
0.12,0.132,-0.11,0.972,0.0,4.817,1.341,0.0,0.0,0.0,0.0,0.0,0.0,0.0,0.0
0.131,0.12560000000000002,-0.1062,0.9663999999999999,-3.354,4.085,-0.488,0.0,0.0,0.0,0.0,0.0,0.0,0.0,0.0
0.141,0.1192,-0.1024,0.9608,-7.317,2.744,-0.488,0.0,0.0,0.0,0.0,0.0,0.0,0.0,0.0
0.15,0.11280000000000001,-0.0986,0.9551999999999999,1.524,3.659,-3.354,0.0,0.0,0.0,0.0,0.0,0.0,0.0,0.0
0.16,0.10640000000000001,-0.0948,0.9496,2.5,3.537,-3.963,0.0,0.0,0.0,0.0,0.0,0.0,0.0,0.0
0.17,0.1,-0.091,0.944,-0.366,3.049,-0.854,0.0,0.0,0.0,0.0,0.0,0.0,0.0,0.0
0.18,0.104,-0.102,0.952,-0.183,3.902,0.549,0.0,0.0,0.0,0.0,0.0,0.0,0.0,0.0
0.191,0.10819999999999999,-0.104,0.957,-0.793,3.11,-0.305,0.0,0.0,0.0,0.0,0.0,0.0,0.0,0.0
0.201,0.1124,-0.106,0.962,-0.061,2.378,-1.28,0.0,0.0,0.0,0.0,0.0,0.0,0.0,0.0
0.21,0.1166,-0.108,0.967,3.171,3.476,-0.854,0.0,0.0,0.0,0.0,0.0,0.0,0.0,0.0
0.22,0.12079999999999999,-0.11,0.972,3.415,3.537,-0.366,0.0,0.0,0.0,0.0,0.0,0.0,0.0,0.0
0.23,0.125,-0.112,0.977,2.622,2.805,-1.951,0.0,0.0,0.0,0.0,0.0,0.0,0.0,0.0
0.24,0.126,-0.109,0.981,2.927,2.561,-3.11,0.0,0.0,0.0,0.0,0.0,0.0,0.0,0.0
0.251,0.129,-0.10033333333333333,0.9773333333333333,2.378,3.11,-2.134,0.0,0.0,0.0,0.0,0.0,0.0,0.0,0.0
0.261,0.132,-0.09166666666666667,0.9736666666666667,0.671,4.146,-0.976,0.0,0.0,0.0,0.0,0.0,0.0,0.0,0.0
0.271,0.135,-0.083,0.97,-0.488,5.244,-1.341,0.0,0.0,0.0,0.0,0.0,0.0,0.0,0.0
0.28,0.133,-0.0868,0.968,-1.768,5.244,-0.854,0.0,0.0,0.0,0.0,0.0,0.0,0.0,0.0
0.29,0.131,-0.0906,0.966,-2.439,4.207,-1.22,0.0,0.0,0.0,0.0,0.0,0.0,0.0,0.0
0.301,0.129,-0.0944,0.964,-1.037,3.841,-2.378,0.0,0.0,0.0,0.0,0.0,0.0,0.0,0.0
0.311,0.127,-0.0982,0.962,0.854,3.293,-2.744,0.0,0.0,0.0,0.0,0.0,0.0,0.0,0.0
0.321,0.125,-0.102,0.96,4.329,3.232,-2.683,0.0,0.0,0.0,0.0,0.0,0.0,0.0,0.0
0.331,0.128,-0.099,0.951,4.573,4.024,-2.5,0.0,0.0,0.0,0.0,0.0,0.0,0.0,0.0
0.342,0.1252,-0.0956,0.948,3.476,4.146,-2.683,0.0,0.0,0.0,0.0,0.0,0.0,0.0,0.0
0.35,0.12240000000000001,-0.0922,0.945,4.146,4.451,-2.012,0.0,0.0,0.0,0.0,0.0,0.0,0.0,0.0
0.361,0.11960000000000001,-0.0888,0.9420000000000001,2.927,4.329,-2.134,0.0,0.0,0.0,0.0,0.0,0.0,0.0,0.0
0.371,0.1168,-0.0854,0.9390000000000001,0.793,3.72,-2.134,0.0,0.0,0.0,0.0,0.0,0.0,0.0,0.0
0.381,0.114,-0.082,0.936,-0.61,3.171,0.183,0.0,0.0,0.0,0.0,0.0,0.0,0.0,0.0
0.391,0.105,-0.083,0.934,-0.671,2.5,1.22,0.0,0.0,0.0,0.0,0.0,0.0,0.0,0.0
0.402,0.1108,-0.0868,0.9424,-0.366,0.61,-0.793,0.0,0.0,0.0,0.0,0.0,0.0,0.0,0.0
0.412,0.1166,-0.0906,0.9508,0.61,-0.854,-2.439,0.0,0.0,0.0,0.0,0.0,0.0,0.0,0.0
0.421,0.12240000000000001,-0.0944,0.9592,2.012,-0.305,-2.073,0.0,0.0,0.0,0.0,0.0,0.0,0.0,0.0
0.431,0.1282,-0.0982,0.9676,2.683,0.793,-2.073,0.0,0.0,0.0,0.0,0.0,0.0,0.0,0.0
0.441,0.134,-0.102,0.976,2.744,1.463,-2.866,0.0,0.0,0.0,0.0,0.0,0.0,0.0,0.0
0.451,0.135,-0.092,0.97,1.159,2.012,-3.232,0.0,0.0,0.0,0.0,0.0,0.0,0.0,0.0
0.462,0.126,-0.08933333333333333,0.9636666666666667,-0.671,2.317,-3.049,0.0,0.0,0.0,0.0,0.0,0.0,0.0,0.0
0.472,0.117,-0.08666666666666667,0.9573333333333333,-1.768,2.195,-2.317,0.0,0.0,0.0,0.0,0.0,0.0,0.0,0.0
0.482,0.108,-0.084,0.951,-1.341,1.829,-1.402,0.0,0.0,0.0,0.0,0.0,0.0,0.0,0.0
0.491,0.1055,-0.0865,0.9524999999999999,-1.28,1.22,-0.549,0.0,0.0,0.0,0.0,0.0,0.0,0.0,0.0
0.501,0.103,-0.089,0.954,-1.463,0.793,-0.244,0.0,0.0,0.0,0.0,0.0,0.0,0.0,0.0
0.511,0.111,-0.09,0.958,-0.488,0.61,-0.732,0.0,0.0,0.0,0.0,0.0,0.0,0.0,0.0
0.522,0.12000000000000001,-0.09133333333333334,0.9636666666666667,0.915,0.366,-1.768,0.0,0.0,0.0,0.0,0.0,0.0,0.0,0.0
0.532,0.129,-0.09266666666666666,0.9693333333333333,1.463,0.366,-2.866,0.0,0.0,0.0,0.0,0.0,0.0,0.0,0.0
0.542,0.138,-0.094,0.975,1.037,0.976,-3.902,0.0,0.0,0.0,0.0,0.0,0.0,0.0,0.0
0.551,0.1322,-0.091,0.97,1.829,1.89,-4.085,0.0,0.0,0.0,0.0,0.0,0.0,0.0,0.0
0.561,0.1264,-0.088,0.965,1.707,2.683,-2.073,0.0,0.0,0.0,0.0,0.0,0.0,0.0,0.0
0.572,0.12060000000000001,-0.08499999999999999,0.96,0.122,3.232,0.549,0.0,0.0,0.0,0.0,0.0,0.0,0.0,0.0
0.582,0.1148,-0.082,0.955,0.0,3.049,1.768,0.0,0.0,0.0,0.0,0.0,0.0,0.0,0.0
0.592,0.109,-0.079,0.95,1.159,2.317,1.89,0.0,0.0,0.0,0.0,0.0,0.0,0.0,0.0
0.602,0.107,-0.083,0.954,2.805,2.378,1.646,0.0,0.0,0.0,0.0,0.0,0.0,0.0,0.0
0.613,0.109,-0.0834,0.9561999999999999,3.415,2.012,0.0,0.0,0.0,0.0,0.0,0.0,0.0,0.0,0.0
0.621,0.111,-0.0838,0.9583999999999999,2.988,1.22,-1.707,0.0,0.0,0.0,0.0,0.0,0.0,0.0,0.0
0.632,0.113,-0.08420000000000001,0.9606,2.378,1.646,-2.561,0.0,0.0,0.0,0.0,0.0,0.0,0.0,0.0
0.642,0.115,-0.08460000000000001,0.9628,1.707,2.561,-2.012,0.0,0.0,0.0,0.0,0.0,0.0,0.0,0.0
0.652,0.117,-0.085,0.965,-0.244,2.988,-0.732,0.0,0.0,0.0,0.0,0.0,0.0,0.0,0.0
0.662,0.114,-0.083,0.961,-2.256,3.537,1.159,0.0,0.0,0.0,0.0,0.0,0.0,0.0,0.0
0.673,0.1094,-0.084,0.96,-3.171,4.146,3.72,0.0,0.0,0.0,0.0,0.0,0.0,0.0,0.0
0.683,0.1048,-0.085,0.959,-3.232,4.39,4.878,0.0,0.0,0.0,0.0,0.0,0.0,0.0,0.0
0.692,0.1002,-0.086,0.958,-1.951,4.268,4.085,0.0,0.0,0.0,0.0,0.0,0.0,0.0,0.0
0.702,0.09559999999999999,-0.087,0.957,0.122,3.415,2.134,0.0,0.0,0.0,0.0,0.0,0.0,0.0,0.0
0.712,0.091,-0.088,0.956,0.305,2.988,1.585,0.0,0.0,0.0,0.0,0.0,0.0,0.0,0.0
0.722,0.1,-0.09,0.96,-0.366,2.927,1.951,0.0,0.0,0.0,0.0,0.0,0.0,0.0,0.0
0.733,0.1042,-0.08839999999999999,0.9613999999999999,0.0,3.232,2.073,0.0,0.0,0.0,0.0,0.0,0.0,0.0,0.0
0.743,0.1084,-0.0868,0.9628,-0.61,3.171,0.976,0.0,0.0,0.0,0.0,0.0,0.0,0.0,0.0
0.752,0.1126,-0.0852,0.9642,-1.098,3.11,1.402,0.0,0.0,0.0,0.0,0.0,0.0,0.0,0.0
0.762,0.1168,-0.08360000000000001,0.9656,-1.524,3.049,2.073,0.0,0.0,0.0,0.0,0.0,0.0,0.0,0.0
0.772,0.121,-0.082,0.967,-2.134,2.744,0.671,0.0,0.0,0.0,0.0,0.0,0.0,0.0,0.0
0.782,0.113,-0.086,0.965,-1.768,1.89,0.61,0.0,0.0,0.0,0.0,0.0,0.0,0.0,0.0
0.793,0.11533333333333333,-0.08566666666666667,0.9646666666666667,-1.463,1.829,1.22,0.0,0.0,0.0,0.0,0.0,0.0,0.0,0.0
0.803,0.11766666666666667,-0.08533333333333333,0.9643333333333333,-1.585,2.927,1.28,0.0,0.0,0.0,0.0,0.0,0.0,0.0,0.0
0.813,0.12,-0.085,0.964,-1.098,2.988,0.427,0.0,0.0,0.0,0.0,0.0,0.0,0.0,0.0
0.822,0.119,-0.0854,0.9621999999999999,0.122,2.195,-0.305,0.0,0.0,0.0,0.0,0.0,0.0,0.0,0.0
0.832,0.118,-0.0858,0.9603999999999999,-0.061,2.378,0.061,0.0,0.0,0.0,0.0,0.0,0.0,0.0,0.0
0.843,0.117,-0.0862,0.9586,0.0,2.927,1.341,0.0,0.0,0.0,0.0,0.0,0.0,0.0,0.0
0.853,0.116,-0.0866,0.9568,-0.793,2.927,0.976,0.0,0.0,0.0,0.0,0.0,0.0,0.0,0.0
0.863,0.115,-0.087,0.955,-0.549,4.39,2.012,0.0,0.0,0.0,0.0,0.0,0.0,0.0,0.0
0.873,0.119,-0.092,0.956,2.683,5.366,2.683,0.0,0.0,0.0,0.0,0.0,0.0,0.0,0.0
0.884,0.1132,-0.0916,0.9538,3.293,3.537,0.671,0.0,0.0,0.0,0.0,0.0,0.0,0.0,0.0
0.892,0.1074,-0.0912,0.9516,1.768,2.561,0.122,0.0,0.0,0.0,0.0,0.0,0.0,0.0,0.0
0.903,0.1016,-0.09079999999999999,0.9493999999999999,1.341,2.927,1.098,0.0,0.0,0.0,0.0,0.0,0.0,0.0,0.0
0.913,0.0958,-0.0904,0.9471999999999999,0.549,2.256,1.402,0.0,0.0,0.0,0.0,0.0,0.0,0.0,0.0
0.923,0.09,-0.09,0.945,-0.366,1.585,1.524,0.0,0.0,0.0,0.0,0.0,0.0,0.0,0.0
0.933,0.088,-0.094,0.949,0.854,1.341,2.317,0.0,0.0,0.0,0.0,0.0,0.0,0.0,0.0
0.944,0.09179999999999999,-0.093,0.952,0.61,0.915,2.439,0.0,0.0,0.0,0.0,0.0,0.0,0.0,0.0
0.952,0.09559999999999999,-0.092,0.955,-0.488,0.732,1.463,0.0,0.0,0.0,0.0,0.0,0.0,0.0,0.0
0.963,0.09939999999999999,-0.091,0.958,-0.549,1.22,1.829,0.0,0.0,0.0,0.0,0.0,0.0,0.0,0.0
0.973,0.1032,-0.09,0.961,-2.622,2.012,2.988,0.0,0.0,0.0,0.0,0.0,0.0,0.0,0.0
0.983,0.107,-0.089,0.964,-4.146,2.561,3.78,0.0,0.0,0.0,0.0,0.0,0.0,0.0,0.0
0.993,0.107,-0.087,0.965,-4.512,2.805,4.146,0.0,0.0,0.0,0.0,0.0,0.0,0.0,0.0
1.004,0.10779999999999999,-0.091,0.9678,-4.207,2.744,3.659,0.0,0.0,0.0,0.0,0.0,0.0,0.0,0.0
1.014,0.1086,-0.095,0.9706,-1.585,2.439,2.195,0.0,0.0,0.0,0.0,0.0,0.0,0.0,0.0
1.023,0.1094,-0.099,0.9733999999999999,-0.915,1.341,1.22,0.0,0.0,0.0,0.0,0.0,0.0,0.0,0.0
1.033,0.1102,-0.103,0.9762,-0.427,1.159,0.671,0.0,0.0,0.0,0.0,0.0,0.0,0.0,0.0
1.043,0.111,-0.107,0.979,1.037,2.378,0.915,0.0,0.0,0.0,0.0,0.0,0.0,0.0,0.0
1.053,0.105,-0.095,0.966,1.89,3.78,2.744,0.0,0.0,0.0,0.0,0.0,0.0,0.0,0.0
1.064,0.10099999999999999,-0.09166666666666667,0.9616666666666667,2.805,4.329,2.988,0.0,0.0,0.0,0.0,0.0,0.0,0.0,0.0
1.074,0.097,-0.08833333333333333,0.9573333333333333,1.646,4.085,2.805,0.0,0.0,0.0,0.0,0.0,0.0,0.0,0.0
1.084,0.093,-0.085,0.953,-0.488,3.841,3.049,0.0,0.0,0.0,0.0,0.0,0.0,0.0,0.0
1.093,0.0938,-0.0862,0.9536,-1.159,3.476,2.866,0.0,0.0,0.0,0.0,0.0,0.0,0.0,0.0
1.103,0.0946,-0.0874,0.9541999999999999,-0.488,2.988,1.707,0.0,0.0,0.0,0.0,0.0,0.0,0.0,0.0
1.114,0.0954,-0.0886,0.9548,1.402,2.5,0.427,0.0,0.0,0.0,0.0,0.0,0.0,0.0,0.0
1.124,0.09620000000000001,-0.0898,0.9553999999999999,1.28,2.073,1.159,0.0,0.0,0.0,0.0,0.0,0.0,0.0,0.0
1.134,0.097,-0.091,0.956,-0.61,1.707,0.732,0.0,0.0,0.0,0.0,0.0,0.0,0.0,0.0
1.144,0.097,-0.086,0.961,-0.976,1.28,0.366,0.0,0.0,0.0,0.0,0.0,0.0,0.0,0.0
1.155,0.1002,-0.08679999999999999,0.9626,-0.915,1.89,1.585,0.0,0.0,0.0,0.0,0.0,0.0,0.0,0.0
1.163,0.1034,-0.0876,0.9642,-1.402,2.866,1.646,0.0,0.0,0.0,0.0,0.0,0.0,0.0,0.0
1.174,0.1066,-0.08839999999999999,0.9658,-2.561,3.049,1.22,0.0,0.0,0.0,0.0,0.0,0.0,0.0,0.0
1.184,0.10980000000000001,-0.0892,0.9673999999999999,-3.171,3.476,1.951,0.0,0.0,0.0,0.0,0.0,0.0,0.0,0.0
1.194,0.113,-0.09,0.969,-3.11,4.39,1.341,0.0,0.0,0.0,0.0,0.0,0.0,0.0,0.0
1.204,0.109,-0.089,0.965,-3.476,4.756,0.854,0.0,0.0,0.0,0.0,0.0,0.0,0.0,0.0
1.215,0.1038,-0.0896,0.9628,-2.073,4.939,1.159,0.0,0.0,0.0,0.0,0.0,0.0,0.0,0.0
1.223,0.09860000000000001,-0.0902,0.9606,-0.915,4.573,1.037,0.0,0.0,0.0,0.0,0.0,0.0,0.0,0.0
1.234,0.09340000000000001,-0.09079999999999999,0.9583999999999999,-1.646,3.354,-0.488,0.0,0.0,0.0,0.0,0.0,0.0,0.0,0.0
1.244,0.0882,-0.0914,0.9561999999999999,-1.89,2.317,-0.854,0.0,0.0,0.0,0.0,0.0,0.0,0.0,0.0
1.254,0.083,-0.092,0.954,-0.427,2.5,0.183,0.0,0.0,0.0,0.0,0.0,0.0,0.0,0.0
1.264,0.088,-0.093,0.954,0.183,3.598,0.915,0.0,0.0,0.0,0.0,0.0,0.0,0.0,0.0
1.275,0.087,-0.09519999999999999,0.954,-0.305,4.939,0.732,0.0,0.0,0.0,0.0,0.0,0.0,0.0,0.0
1.285,0.086,-0.0974,0.954,-1.341,5.671,0.183,0.0,0.0,0.0,0.0,0.0,0.0,0.0,0.0
1.294,0.085,-0.0996,0.954,-1.341,5.915,-0.427,0.0,0.0,0.0,0.0,0.0,0.0,0.0,0.0
1.304,0.084,-0.1018,0.954,0.366,5.61,-0.976,0.0,0.0,0.0,0.0,0.0,0.0,0.0,0.0
1.314,0.083,-0.104,0.954,1.524,4.756,-0.915,0.0,0.0,0.0,0.0,0.0,0.0,0.0,0.0
1.324,0.072,-0.106,0.956,1.098,4.268,0.671,0.0,0.0,0.0,0.0,0.0,0.0,0.0,0.0
1.335,0.07466666666666666,-0.10866666666666666,0.9586666666666667,0.244,3.659,1.098,0.0,0.0,0.0,0.0,0.0,0.0,0.0,0.0
1.345,0.07733333333333334,-0.11133333333333334,0.9613333333333333,0.305,3.293,0.854,0.0,0.0,0.0,0.0,0.0,0.0,0.0,0.0
1.355,0.08,-0.114,0.964,-0.549,2.744,1.524,0.0,0.0,0.0,0.0,0.0,0.0,0.0,0.0
1.364,0.0828,-0.11120000000000001,0.9623999999999999,-1.646,2.439,0.671,0.0,0.0,0.0,0.0,0.0,0.0,0.0,0.0
1.374,0.0856,-0.10840000000000001,0.9608,-0.366,2.988,-0.061,0.0,0.0,0.0,0.0,0.0,0.0,0.0,0.0
1.385,0.0884,-0.1056,0.9591999999999999,-0.305,3.232,0.549,0.0,0.0,0.0,0.0,0.0,0.0,0.0,0.0
1.395,0.0912,-0.1028,0.9576,-0.732,4.085,1.402,0.0,0.0,0.0,0.0,0.0,0.0,0.0,0.0
1.405,0.094,-0.1,0.956,-0.488,4.329,1.829,0.0,0.0,0.0,0.0,0.0,0.0,0.0,0.0
1.415,0.093,-0.096,0.956,0.122,3.415,1.098,0.0,0.0,0.0,0.0,0.0,0.0,0.0,0.0
1.426,0.091,-0.0958,0.9556,0.61,2.988,0.793,0.0,0.0,0.0,0.0,0.0,0.0,0.0,0.0
1.434,0.089,-0.0956,0.9551999999999999,-0.122,2.683,0.61,0.0,0.0,0.0,0.0,0.0,0.0,0.0,0.0
1.445,0.08700000000000001,-0.0954,0.9548,-0.793,2.134,-0.244,0.0,0.0,0.0,0.0,0.0,0.0,0.0,0.0
1.455,0.085,-0.0952,0.9543999999999999,-1.341,1.951,-0.366,0.0,0.0,0.0,0.0,0.0,0.0,0.0,0.0
1.465,0.083,-0.095,0.954,-1.768,2.256,0.488,0.0,0.0,0.0,0.0,0.0,0.0,0.0,0.0
1.475,0.082,-0.092,0.953,-2.439,2.805,1.646,0.0,0.0,0.0,0.0,0.0,0.0,0.0,0.0
1.486,0.08360000000000001,-0.0928,0.9553999999999999,-2.927,2.683,0.976,0.0,0.0,0.0,0.0,0.0,0.0,0.0,0.0
1.494,0.0852,-0.0936,0.9578,-2.134,2.195,-0.732,0.0,0.0,0.0,0.0,0.0,0.0,0.0,0.0
1.505,0.0868,-0.0944,0.9601999999999999,-1.524,2.683,0.122,0.0,0.0,0.0,0.0,0.0,0.0,0.0,0.0
1.515,0.08839999999999999,-0.0952,0.9626,-1.22,3.963,2.073,0.0,0.0,0.0,0.0,0.0,0.0,0.0,0.0
1.525,0.09,-0.096,0.965,-0.732,5.305,1.89,0.0,0.0,0.0,0.0,0.0,0.0,0.0,0.0
1.535,0.089,-0.09,0.958,-1.707,5.671,1.707,0.0,0.0,0.0,0.0,0.0,0.0,0.0,0.0
1.546,0.0868,-0.0916,0.9593999999999999,-0.732,4.939,1.829,0.0,0.0,0.0,0.0,0.0,0.0,0.0,0.0
1.556,0.0846,-0.0932,0.9608,0.366,3.171,0.793,0.0,0.0,0.0,0.0,0.0,0.0,0.0,0.0
1.565,0.0824,-0.0948,0.9621999999999999,0.122,1.646,-0.305,0.0,0.0,0.0,0.0,0.0,0.0,0.0,0.0
1.575,0.0802,-0.0964,0.9636,0.183,0.976,-2.683,0.0,0.0,0.0,0.0,0.0,0.0,0.0,0.0
1.585,0.078,-0.098,0.965,-0.549,1.28,-3.049,0.0,0.0,0.0,0.0,0.0,0.0,0.0,0.0
1.595,0.084,-0.087,0.956,-0.793,3.598,1.159,0.0,0.0,0.0,0.0,0.0,0.0,0.0,0.0
1.606,0.081,-0.091,0.9563333333333333,-0.793,2.866,-0.61,0.0,0.0,0.0,0.0,0.0,0.0,0.0,0.0
1.616,0.078,-0.095,0.9566666666666667,-0.854,1.646,-3.049,0.0,0.0,0.0,0.0,0.0,0.0,0.0,0.0
1.626,0.075,-0.099,0.957,-1.159,1.951,-2.134,0.0,0.0,0.0,0.0,0.0,0.0,0.0,0.0
1.635,0.0744,-0.1014,0.9583999999999999,0.488,2.561,-1.037,0.0,0.0,0.0,0.0,0.0,0.0,0.0,0.0
1.645,0.07379999999999999,-0.1038,0.9598,1.098,4.512,1.463,0.0,0.0,0.0,0.0,0.0,0.0,0.0,0.0
1.656,0.0732,-0.1062,0.9611999999999999,-0.366,3.78,0.549,0.0,0.0,0.0,0.0,0.0,0.0,0.0,0.0
1.666,0.0726,-0.1086,0.9626,-0.671,2.317,-0.732,0.0,0.0,0.0,0.0,0.0,0.0,0.0,0.0
1.676,0.072,-0.111,0.964,0.061,3.415,1.098,0.0,0.0,0.0,0.0,0.0,0.0,0.0,0.0
1.686,0.072,-0.118,0.968,0.976,3.354,1.463,0.0,0.0,0.0,0.0,0.0,0.0,0.0,0.0
1.697,0.07179999999999999,-0.1144,0.9646,1.159,2.195,-0.305,0.0,0.0,0.0,0.0,0.0,0.0,0.0,0.0
1.705,0.0716,-0.1108,0.9611999999999999,0.854,1.585,-0.793,0.0,0.0,0.0,0.0,0.0,0.0,0.0,0.0
1.716,0.07139999999999999,-0.1072,0.9578,0.915,1.585,-1.341,0.0,0.0,0.0,0.0,0.0,0.0,0.0,0.0
1.726,0.0712,-0.1036,0.9543999999999999,0.122,0.915,-2.378,0.0,0.0,0.0,0.0,0.0,0.0,0.0,0.0
1.736,0.071,-0.1,0.951,-0.732,1.22,-0.976,0.0,0.0,0.0,0.0,0.0,0.0,0.0,0.0
1.746,0.069,-0.098,0.946,-0.732,2.134,1.707,0.0,0.0,0.0,0.0,0.0,0.0,0.0,0.0
1.757,0.0714,-0.1004,0.9498,-1.159,2.195,2.134,0.0,0.0,0.0,0.0,0.0,0.0,0.0,0.0
1.765,0.0738,-0.1028,0.9536,-0.549,1.037,1.89,0.0,0.0,0.0,0.0,0.0,0.0,0.0,0.0
1.776,0.0762,-0.1052,0.9573999999999999,-0.061,0.122,1.707,0.0,0.0,0.0,0.0,0.0,0.0,0.0,0.0
1.786,0.0786,-0.1076,0.9611999999999999,-0.244,0.061,0.427,0.0,0.0,0.0,0.0,0.0,0.0,0.0,0.0
1.796,0.081,-0.11,0.965,-0.061,-0.427,-0.488,0.0,0.0,0.0,0.0,0.0,0.0,0.0,0.0
1.806,0.088,-0.108,0.968,0.61,0.122,-0.732,0.0,0.0,0.0,0.0,0.0,0.0,0.0,0.0
1.817,0.08539999999999999,-0.106,0.9656,0.0,1.402,0.122,0.0,0.0,0.0,0.0,0.0,0.0,0.0,0.0
1.827,0.0828,-0.104,0.9632,0.061,2.317,0.305,0.0,0.0,0.0,0.0,0.0,0.0,0.0,0.0
1.836,0.0802,-0.10200000000000001,0.9608,1.402,3.11,0.244,0.0,0.0,0.0,0.0,0.0,0.0,0.0,0.0
1.846,0.0776,-0.1,0.9583999999999999,3.049,3.841,1.707,0.0,0.0,0.0,0.0,0.0,0.0,0.0,0.0
1.856,0.075,-0.098,0.956,2.378,3.72,1.768,0.0,0.0,0.0,0.0,0.0,0.0,0.0,0.0
1.866,0.072,-0.099,0.959,1.463,3.171,1.28,0.0,0.0,0.0,0.0,0.0,0.0,0.0,0.0
1.877,0.07033333333333333,-0.09966666666666667,0.9566666666666667,0.305,2.378,1.22,0.0,0.0,0.0,0.0,0.0,0.0,0.0,0.0
1.887,0.06866666666666667,-0.10033333333333334,0.9543333333333333,-0.427,2.256,1.341,0.0,0.0,0.0,0.0,0.0,0.0,0.0,0.0
1.897,0.067,-0.101,0.952,-1.768,1.829,1.159,0.0,0.0,0.0,0.0,0.0,0.0,0.0,0.0
1.906,0.06620000000000001,-0.1014,0.953,-1.402,2.134,1.829,0.0,0.0,0.0,0.0,0.0,0.0,0.0,0.0
1.916,0.0654,-0.1018,0.954,0.061,1.646,1.402,0.0,0.0,0.0,0.0,0.0,0.0,0.0,0.0
1.927,0.0646,-0.1022,0.955,0.915,-0.305,0.366,0.0,0.0,0.0,0.0,0.0,0.0,0.0,0.0
1.937,0.0638,-0.1026,0.956,0.244,-1.098,-0.305,0.0,0.0,0.0,0.0,0.0,0.0,0.0,0.0
1.947,0.063,-0.103,0.957,0.732,-0.671,-0.183,0.0,0.0,0.0,0.0,0.0,0.0,0.0,0.0
1.957,0.063,-0.099,0.953,1.646,0.549,2.561,0.0,0.0,0.0,0.0,0.0,0.0,0.0,0.0
1.968,0.066,-0.0988,0.9558,-0.183,1.646,4.024,0.0,0.0,0.0,0.0,0.0,0.0,0.0,0.0
1.976,0.069,-0.09860000000000001,0.9586,-1.524,2.134,3.293,0.0,0.0,0.0,0.0,0.0,0.0,0.0,0.0
1.987,0.07200000000000001,-0.0984,0.9613999999999999,-0.427,2.317,1.707,0.0,0.0,0.0,0.0,0.0,0.0,0.0,0.0
1.997,0.075,-0.09820000000000001,0.9642,1.463,2.622,0.366,0.0,0.0,0.0,0.0,0.0,0.0,0.0,0.0
2.007,0.078,-0.098,0.967,0.915,2.805,0.549,0.0,0.0,0.0,0.0,0.0,0.0,0.0,0.0
2.017,0.075,-0.099,0.969,0.061,3.232,1.829,0.0,0.0,0.0,0.0,0.0,0.0,0.0,0.0
2.028,0.073,-0.0998,0.9666,0.244,4.024,2.805,0.0,0.0,0.0,0.0,0.0,0.0,0.0,0.0
2.036,0.071,-0.1006,0.9642,-0.732,3.659,2.561,0.0,0.0,0.0,0.0,0.0,0.0,0.0,0.0
2.047,0.069,-0.1014,0.9618,-1.28,3.171,2.5,0.0,0.0,0.0,0.0,0.0,0.0,0.0,0.0
2.057,0.067,-0.1022,0.9593999999999999,-0.61,3.78,2.927,0.0,0.0,0.0,0.0,0.0,0.0,0.0,0.0
2.067,0.065,-0.103,0.957,-1.037,3.171,2.683,0.0,0.0,0.0,0.0,0.0,0.0,0.0,0.0
2.077,0.072,-0.103,0.96,-1.341,2.866,3.659,0.0,0.0,0.0,0.0,0.0,0.0,0.0,0.0
2.088,0.0716,-0.102,0.9578,-1.402,2.805,3.598,0.0,0.0,0.0,0.0,0.0,0.0,0.0,0.0
2.098,0.0712,-0.10099999999999999,0.9556,-1.341,2.256,1.646,0.0,0.0,0.0,0.0,0.0,0.0,0.0,0.0
2.107,0.0708,-0.1,0.9533999999999999,-1.159,2.927,2.256,0.0,0.0,0.0,0.0,0.0,0.0,0.0,0.0
2.117,0.0704,-0.099,0.9511999999999999,-1.646,3.415,4.268,0.0,0.0,0.0,0.0,0.0,0.0,0.0,0.0
2.127,0.07,-0.098,0.949,-1.707,2.805,3.78,0.0,0.0,0.0,0.0,0.0,0.0,0.0,0.0
2.137,0.064,-0.102,0.954,-0.854,1.524,1.768,0.0,0.0,0.0,0.0,0.0,0.0,0.0,0.0
2.148,0.06366666666666666,-0.102,0.9556666666666667,0.793,0.305,0.854,0.0,0.0,0.0,0.0,0.0,0.0,0.0,0.0
2.158,0.06333333333333334,-0.102,0.9573333333333333,2.256,0.793,0.793,0.0,0.0,0.0,0.0,0.0,0.0,0.0,0.0
2.168,0.063,-0.102,0.959,0.427,1.829,1.829,0.0,0.0,0.0,0.0,0.0,0.0,0.0,0.0
2.177,0.064,-0.1012,0.9571999999999999,-0.793,2.683,2.195,0.0,0.0,0.0,0.0,0.0,0.0,0.0,0.0
2.187,0.065,-0.1004,0.9553999999999999,-1.707,3.415,2.866,0.0,0.0,0.0,0.0,0.0,0.0,0.0,0.0
2.198,0.066,-0.0996,0.9536,-2.744,4.329,3.72,0.0,0.0,0.0,0.0,0.0,0.0,0.0,0.0
2.208,0.067,-0.0988,0.9518,-2.683,5.61,5.488,0.0,0.0,0.0,0.0,0.0,0.0,0.0,0.0
2.218,0.068,-0.098,0.95,-1.28,5.427,5.061,0.0,0.0,0.0,0.0,0.0,0.0,0.0,0.0
2.228,0.062,-0.105,0.957,-0.549,3.415,2.561,0.0,0.0,0.0,0.0,0.0,0.0,0.0,0.0
2.239,0.0608,-0.105,0.9576,-0.732,2.683,2.622,0.0,0.0,0.0,0.0,0.0,0.0,0.0,0.0
2.247,0.0596,-0.105,0.9581999999999999,-0.244,1.524,1.707,0.0,0.0,0.0,0.0,0.0,0.0,0.0,0.0
2.258,0.0584,-0.105,0.9588,-0.549,0.122,0.305,0.0,0.0,0.0,0.0,0.0,0.0,0.0,0.0
2.268,0.0572,-0.105,0.9593999999999999,-1.341,2.744,2.256,0.0,0.0,0.0,0.0,0.0,0.0,0.0,0.0
2.278,0.056,-0.105,0.96,-2.012,2.256,2.622,0.0,0.0,0.0,0.0,0.0,0.0,0.0,0.0
2.288,0.056,-0.098,0.951,0.366,2.683,3.171,0.0,0.0,0.0,0.0,0.0,0.0,0.0,0.0
2.299,0.0572,-0.0992,0.9541999999999999,1.037,2.5,2.012,0.0,0.0,0.0,0.0,0.0,0.0,0.0,0.0
2.307,0.0584,-0.1004,0.9573999999999999,0.915,1.28,1.524,0.0,0.0,0.0,0.0,0.0,0.0,0.0,0.0
2.318,0.0596,-0.1016,0.9606,1.768,0.732,1.159,0.0,0.0,0.0,0.0,0.0,0.0,0.0,0.0
2.328,0.0608,-0.1028,0.9638,2.073,2.012,2.134,0.0,0.0,0.0,0.0,0.0,0.0,0.0,0.0
2.338,0.062,-0.104,0.967,0.732,3.415,3.11,0.0,0.0,0.0,0.0,0.0,0.0,0.0,0.0
2.348,0.073,-0.102,0.966,-1.22,3.598,2.927,0.0,0.0,0.0,0.0,0.0,0.0,0.0,0.0
2.359,0.0702,-0.10239999999999999,0.9633999999999999,-1.098,3.415,3.659,0.0,0.0,0.0,0.0,0.0,0.0,0.0,0.0
2.369,0.0674,-0.10279999999999999,0.9608,0.427,2.622,2.5,0.0,0.0,0.0,0.0,0.0,0.0,0.0,0.0
2.378,0.06459999999999999,-0.1032,0.9581999999999999,1.89,0.854,-0.488,0.0,0.0,0.0,0.0,0.0,0.0,0.0,0.0
2.388,0.061799999999999994,-0.1036,0.9556,1.463,-0.183,-0.732,0.0,0.0,0.0,0.0,0.0,0.0,0.0,0.0
2.398,0.059,-0.104,0.953,2.256,0.183,0.366,0.0,0.0,0.0,0.0,0.0,0.0,0.0,0.0
2.408,0.061,-0.101,0.954,4.085,1.829,2.561,0.0,0.0,0.0,0.0,0.0,0.0,0.0,0.0
2.419,0.06466666666666666,-0.097,0.9526666666666667,1.646,2.683,3.171,0.0,0.0,0.0,0.0,0.0,0.0,0.0,0.0
2.429,0.06833333333333333,-0.093,0.9513333333333333,-0.61,2.744,1.951,0.0,0.0,0.0,0.0,0.0,0.0,0.0,0.0
2.439,0.072,-0.089,0.95,0.0,3.11,2.683,0.0,0.0,0.0,0.0,0.0,0.0,0.0,0.0
2.448,0.066,-0.0938,0.9501999999999999,-0.793,4.207,5.122,0.0,0.0,0.0,0.0,0.0,0.0,0.0,0.0
2.458,0.06,-0.0986,0.9503999999999999,-3.293,4.329,4.695,0.0,0.0,0.0,0.0,0.0,0.0,0.0,0.0
2.469,0.054,-0.10339999999999999,0.9506,-3.232,3.415,4.39,0.0,0.0,0.0,0.0,0.0,0.0,0.0,0.0
2.479,0.048,-0.1082,0.9508,-1.829,2.134,3.11,0.0,0.0,0.0,0.0,0.0,0.0,0.0,0.0
2.489,0.042,-0.113,0.951,-0.427,1.159,1.28,0.0,0.0,0.0,0.0,0.0,0.0,0.0,0.0
2.499,0.044,-0.118,0.956,0.305,-0.061,0.366,0.0,0.0,0.0,0.0,0.0,0.0,0.0,0.0
2.51,0.046599999999999996,-0.1148,0.9568,1.585,-1.341,-0.793,0.0,0.0,0.0,0.0,0.0,0.0,0.0,0.0
2.518,0.0492,-0.11159999999999999,0.9576,2.5,-1.341,-1.524,0.0,0.0,0.0,0.0,0.0,0.0,0.0,0.0
2.529,0.0518,-0.1084,0.9583999999999999,2.317,0.0,0.427,0.0,0.0,0.0,0.0,0.0,0.0,0.0,0.0
2.539,0.054400000000000004,-0.10519999999999999,0.9591999999999999,1.524,0.854,1.646,0.0,0.0,0.0,0.0,0.0,0.0,0.0,0.0
2.549,0.057,-0.102,0.96,1.585,0.732,1.646,0.0,0.0,0.0,0.0,0.0,0.0,0.0,0.0
2.559,0.051,-0.095,0.954,0.61,1.341,2.927,0.0,0.0,0.0,0.0,0.0,0.0,0.0,0.0
2.57,0.0508,-0.0988,0.9558,0.061,2.439,3.841,0.0,0.0,0.0,0.0,0.0,0.0,0.0,0.0
2.58,0.0506,-0.1026,0.9576,0.427,2.561,3.537,0.0,0.0,0.0,0.0,0.0,0.0,0.0,0.0
2.589,0.0504,-0.1064,0.9593999999999999,0.549,2.256,4.085,0.0,0.0,0.0,0.0,0.0,0.0,0.0,0.0
2.599,0.0502,-0.1102,0.9611999999999999,1.646,1.707,3.049,0.0,0.0,0.0,0.0,0.0,0.0,0.0,0.0
2.609,0.05,-0.114,0.963,2.622,0.549,0.976,0.0,0.0,0.0,0.0,0.0,0.0,0.0,0.0
2.619,0.046,-0.108,0.958,1.768,-0.244,0.671,0.0,0.0,0.0,0.0,0.0,0.0,0.0,0.0
2.63,0.0498,-0.1064,0.9573999999999999,1.037,-0.183,1.768,0.0,0.0,0.0,0.0,0.0,0.0,0.0,0.0
2.64,0.0536,-0.1048,0.9568,1.585,0.244,2.683,0.0,0.0,0.0,0.0,0.0,0.0,0.0,0.0
2.649,0.0574,-0.1032,0.9561999999999999,1.341,1.098,3.659,0.0,0.0,0.0,0.0,0.0,0.0,0.0,0.0
2.659,0.061200000000000004,-0.10160000000000001,0.9556,0.244,1.829,4.024,0.0,0.0,0.0,0.0,0.0,0.0,0.0,0.0
2.669,0.065,-0.1,0.955,0.549,1.402,2.622,0.0,0.0,0.0,0.0,0.0,0.0,0.0,0.0
2.679,0.06,-0.096,0.951,2.134,0.244,1.341,0.0,0.0,0.0,0.0,0.0,0.0,0.0,0.0
2.69,0.05466666666666666,-0.09533333333333334,0.9516666666666667,1.951,-0.244,1.768,0.0,0.0,0.0,0.0,0.0,0.0,0.0,0.0
2.7,0.04933333333333333,-0.09466666666666666,0.9523333333333333,0.732,0.183,2.561,0.0,0.0,0.0,0.0,0.0,0.0,0.0,0.0
2.71,0.044,-0.094,0.953,0.122,0.671,3.902,0.0,0.0,0.0,0.0,0.0,0.0,0.0,0.0
2.719,0.046599999999999996,-0.0954,0.9566,-0.244,1.037,4.939,0.0,0.0,0.0,0.0,0.0,0.0,0.0,0.0
2.729,0.0492,-0.0968,0.9601999999999999,-1.037,0.549,4.39,0.0,0.0,0.0,0.0,0.0,0.0,0.0,0.0
2.74,0.0518,-0.09820000000000001,0.9638,-0.854,0.122,3.11,0.0,0.0,0.0,0.0,0.0,0.0,0.0,0.0
2.75,0.054400000000000004,-0.09960000000000001,0.9673999999999999,0.671,0.732,2.378,0.0,0.0,0.0,0.0,0.0,0.0,0.0,0.0
2.76,0.057,-0.101,0.971,1.768,0.671,1.463,0.0,0.0,0.0,0.0,0.0,0.0,0.0,0.0
2.77,0.057,-0.099,0.97,0.549,0.366,0.488,0.0,0.0,0.0,0.0,0.0,0.0,0.0,0.0
2.781,0.055600000000000004,-0.098,0.9676,0.427,1.524,1.463,0.0,0.0,0.0,0.0,0.0,0.0,0.0,0.0
2.789,0.054200000000000005,-0.097,0.9652,1.159,1.951,1.89,0.0,0.0,0.0,0.0,0.0,0.0,0.0,0.0
2.8,0.0528,-0.096,0.9628,0.549,1.341,0.488,0.0,0.0,0.0,0.0,0.0,0.0,0.0,0.0
2.81,0.0514,-0.095,0.9603999999999999,-0.244,1.585,0.061,0.0,0.0,0.0,0.0,0.0,0.0,0.0,0.0
2.82,0.05,-0.094,0.958,0.0,1.524,1.098,0.0,0.0,0.0,0.0,0.0,0.0,0.0,0.0
2.83,0.038,-0.094,0.952,0.122,0.732,1.524,0.0,0.0,0.0,0.0,0.0,0.0,0.0,0.0
2.841,0.0422,-0.094,0.9533999999999999,-0.244,0.671,1.585,0.0,0.0,0.0,0.0,0.0,0.0,0.0,0.0
2.849,0.0464,-0.094,0.9548,0.183,-0.061,1.341,0.0,0.0,0.0,0.0,0.0,0.0,0.0,0.0
2.86,0.0506,-0.094,0.9561999999999999,1.28,-1.159,-0.183,0.0,0.0,0.0,0.0,0.0,0.0,0.0,0.0
2.87,0.0548,-0.094,0.9576,0.793,-0.366,-0.122,0.0,0.0,0.0,0.0,0.0,0.0,0.0,0.0
2.88,0.059,-0.094,0.959,-0.976,1.037,1.341,0.0,0.0,0.0,0.0,0.0,0.0,0.0,0.0
2.89,0.074,-0.093,0.966,-0.549,1.951,1.951,0.0,0.0,0.0,0.0,0.0,0.0,0.0,0.0
2.901,0.0686,-0.0946,0.9652,0.244,2.317,1.28,0.0,0.0,0.0,0.0,0.0,0.0,0.0,0.0
2.911,0.06319999999999999,-0.09620000000000001,0.9643999999999999,0.061,2.073,0.854,0.0,0.0,0.0,0.0,0.0,0.0,0.0,0.0
2.92,0.0578,-0.0978,0.9636,0.427,1.22,0.793,0.0,0.0,0.0,0.0,0.0,0.0,0.0,0.0
2.93,0.0524,-0.0994,0.9628,0.549,0.915,0.244,0.0,0.0,0.0,0.0,0.0,0.0,0.0,0.0
2.94,0.047,-0.101,0.962,-0.061,1.28,-0.244,0.0,0.0,0.0,0.0,0.0,0.0,0.0,0.0
2.95,0.053,-0.093,0.954,-0.305,1.829,-0.061,0.0,0.0,0.0,0.0,0.0,0.0,0.0,0.0
2.961,0.04933333333333333,-0.093,0.9523333333333333,-1.646,2.073,1.341,0.0,0.0,0.0,0.0,0.0,0.0,0.0,0.0
2.971,0.04566666666666667,-0.093,0.9506666666666667,-2.439,2.683,2.927,0.0,0.0,0.0,0.0,0.0,0.0,0.0,0.0
2.981,0.042,-0.093,0.949,-2.134,2.683,3.659,0.0,0.0,0.0,0.0,0.0,0.0,0.0,0.0
2.99,0.0424,-0.0958,0.9523999999999999,-2.134,1.768,3.293,0.0,0.0,0.0,0.0,0.0,0.0,0.0,0.0
3.0,0.0428,-0.0986,0.9558,-1.037,1.098,1.768,0.0,0.0,0.0,0.0,0.0,0.0,0.0,0.0
3.011,0.0432,-0.10139999999999999,0.9591999999999999,-0.244,0.732,1.463,0.0,0.0,0.0,0.0,0.0,0.0,0.0,0.0
3.021,0.0436,-0.1042,0.9626,-0.976,0.854,2.927,0.0,0.0,0.0,0.0,0.0,0.0,0.0,0.0
3.031,0.044,-0.107,0.966,-0.549,0.793,2.988,0.0,0.0,0.0,0.0,0.0,0.0,0.0,0.0
3.041,0.046,-0.107,0.97,0.915,-0.061,1.28,0.0,0.0,0.0,0.0,0.0,0.0,0.0,0.0
3.052,0.05,-0.10339999999999999,0.9683999999999999,0.671,-0.976,0.427,0.0,0.0,0.0,0.0,0.0,0.0,0.0,0.0
3.06,0.054,-0.0998,0.9668,0.488,-0.793,1.098,0.0,0.0,0.0,0.0,0.0,0.0,0.0,0.0
3.071,0.058,-0.0962,0.9652,1.22,0.427,2.134,0.0,0.0,0.0,0.0,0.0,0.0,0.0,0.0
3.081,0.062,-0.0926,0.9636,1.402,0.976,2.195,0.0,0.0,0.0,0.0,0.0,0.0,0.0,0.0
3.091,0.066,-0.089,0.962,0.366,1.159,1.585,0.0,0.0,0.0,0.0,0.0,0.0,0.0,0.0
3.101,0.065,-0.089,0.965,1.28,1.707,1.402,0.0,0.0,0.0,0.0,0.0,0.0,0.0,0.0
3.112,0.061,-0.0876,0.9621999999999999,2.073,1.28,2.073,0.0,0.0,0.0,0.0,0.0,0.0,0.0,0.0
3.12,0.057,-0.0862,0.9593999999999999,1.402,-0.183,1.402,0.0,0.0,0.0,0.0,0.0,0.0,0.0,0.0
3.131,0.053,-0.0848,0.9566,2.195,-0.793,-0.366,0.0,0.0,0.0,0.0,0.0,0.0,0.0,0.0
3.141,0.049,-0.0834,0.9538,3.11,-1.585,-1.037,0.0,0.0,0.0,0.0,0.0,0.0,0.0,0.0
3.151,0.045,-0.082,0.951,1.463,-1.28,0.488,0.0,0.0,0.0,0.0,0.0,0.0,0.0,0.0
3.161,0.059,-0.09,0.962,0.427,0.305,1.524,0.0,0.0,0.0,0.0,0.0,0.0,0.0,0.0
3.172,0.0596,-0.0892,0.9613999999999999,-0.244,0.427,0.976,0.0,0.0,0.0,0.0,0.0,0.0,0.0,0.0
3.182,0.0602,-0.08839999999999999,0.9608,0.183,0.732,1.524,0.0,0.0,0.0,0.0,0.0,0.0,0.0,0.0
3.191,0.0608,-0.0876,0.9601999999999999,0.244,1.646,2.5,0.0,0.0,0.0,0.0,0.0,0.0,0.0,0.0
3.201,0.061399999999999996,-0.08679999999999999,0.9596,-0.549,1.463,1.707,0.0,0.0,0.0,0.0,0.0,0.0,0.0,0.0
3.211,0.062,-0.086,0.959,0.488,1.28,0.915,0.0,0.0,0.0,0.0,0.0,0.0,0.0,0.0
3.221,0.061,-0.089,0.961,1.402,0.793,-0.061,0.0,0.0,0.0,0.0,0.0,0.0,0.0,0.0
3.232,0.058333333333333334,-0.089,0.9606666666666667,1.22,-0.122,-1.22,0.0,0.0,0.0,0.0,0.0,0.0,0.0,0.0
3.242,0.05566666666666666,-0.089,0.9603333333333333,0.427,-0.366,-1.402,0.0,0.0,0.0,0.0,0.0,0.0,0.0,0.0
3.252,0.053,-0.089,0.96,-0.183,0.122,-1.037,0.0,0.0,0.0,0.0,0.0,0.0,0.0,0.0
3.261,0.0538,-0.0892,0.9593999999999999,-0.183,0.854,-0.061,0.0,0.0,0.0,0.0,0.0,0.0,0.0,0.0
3.271,0.0546,-0.0894,0.9588,-0.549,0.488,0.061,0.0,0.0,0.0,0.0,0.0,0.0,0.0,0.0
3.282,0.0554,-0.0896,0.9581999999999999,-0.61,0.244,-0.488,0.0,0.0,0.0,0.0,0.0,0.0,0.0,0.0
3.292,0.0562,-0.08979999999999999,0.9576,0.427,1.28,0.793,0.0,0.0,0.0,0.0,0.0,0.0,0.0,0.0
3.302,0.057,-0.09,0.957,0.61,2.439,1.585,0.0,0.0,0.0,0.0,0.0,0.0,0.0,0.0
3.312,0.058,-0.086,0.955,-0.366,2.561,2.378,0.0,0.0,0.0,0.0,0.0,0.0,0.0,0.0
3.323,0.060000000000000005,-0.0862,0.9558,0.305,2.256,2.195,0.0,0.0,0.0,0.0,0.0,0.0,0.0,0.0
3.331,0.062000000000000006,-0.08639999999999999,0.9566,0.0,2.317,1.585,0.0,0.0,0.0,0.0,0.0,0.0,0.0,0.0
3.342,0.064,-0.0866,0.9573999999999999,-0.854,2.256,1.098,0.0,0.0,0.0,0.0,0.0,0.0,0.0,0.0
3.352,0.066,-0.08679999999999999,0.9581999999999999,-1.341,2.622,0.732,0.0,0.0,0.0,0.0,0.0,0.0,0.0,0.0
3.362,0.068,-0.087,0.959,-1.463,2.988,1.524,0.0,0.0,0.0,0.0,0.0,0.0,0.0,0.0
3.372,0.061,-0.094,0.961,-1.646,1.463,0.671,0.0,0.0,0.0,0.0,0.0,0.0,0.0,0.0
3.383,0.0606,-0.092,0.958,-0.61,-2.195,-3.232,0.0,0.0,0.0,0.0,0.0,0.0,0.0,0.0
3.391,0.0602,-0.09,0.955,1.585,3.232,0.732,0.0,0.0,0.0,0.0,0.0,0.0,0.0,0.0
3.402,0.0598,-0.08800000000000001,0.952,-0.122,1.159,0.427,0.0,0.0,0.0,0.0,0.0,0.0,0.0,0.0
3.412,0.059399999999999994,-0.08600000000000001,0.949,0.671,-4.207,-3.354,0.0,0.0,0.0,0.0,0.0,0.0,0.0,0.0
3.422,0.059,-0.084,0.946,0.244,0.793,-1.463,0.0,0.0,0.0,0.0,0.0,0.0,0.0,0.0
3.432,0.026,-0.104,0.971,0.793,0.549,2.744,0.0,0.0,0.0,0.0,0.0,0.0,0.0,0.0
3.443,0.0332,-0.10099999999999999,0.9696,0.671,1.829,2.378,0.0,0.0,0.0,0.0,0.0,0.0,0.0,0.0
3.453,0.0404,-0.09799999999999999,0.9682,0.305,0.671,0.366,0.0,0.0,0.0,0.0,0.0,0.0,0.0,0.0
3.462,0.0476,-0.095,0.9668,0.915,1.768,1.951,0.0,0.0,0.0,0.0,0.0,0.0,0.0,0.0
3.472,0.0548,-0.092,0.9653999999999999,1.646,1.707,1.341,0.0,0.0,0.0,0.0,0.0,0.0,0.0,0.0
3.482,0.062,-0.089,0.964,2.866,1.159,0.061,0.0,0.0,0.0,0.0,0.0,0.0,0.0,0.0
3.492,0.063,-0.09,0.969,2.927,1.22,-0.976,0.0,0.0,0.0,0.0,0.0,0.0,0.0,0.0
3.503,0.063,-0.086,0.965,1.89,0.793,-1.22,0.0,0.0,0.0,0.0,0.0,0.0,0.0,0.0
3.513,0.063,-0.082,0.961,0.915,0.427,-1.707,0.0,0.0,0.0,0.0,0.0,0.0,0.0,0.0
3.523,0.063,-0.078,0.957,0.244,1.524,-0.61,0.0,0.0,0.0,0.0,0.0,0.0,0.0,0.0
3.532,0.061,-0.0802,0.9556,0.0,2.683,1.159,0.0,0.0,0.0,0.0,0.0,0.0,0.0,0.0
3.542,0.059,-0.0824,0.9541999999999999,-0.732,2.317,1.098,0.0,0.0,0.0,0.0,0.0,0.0,0.0,0.0
3.553,0.056999999999999995,-0.0846,0.9528,-0.976,1.585,-0.061,0.0,0.0,0.0,0.0,0.0,0.0,0.0,0.0
3.563,0.055,-0.0868,0.9513999999999999,-1.098,0.976,-0.488,0.0,0.0,0.0,0.0,0.0,0.0,0.0,0.0
3.573,0.053,-0.089,0.95,-1.951,0.61,-0.732,0.0,0.0,0.0,0.0,0.0,0.0,0.0,0.0
3.583,0.05,-0.09,0.951,-2.561,0.488,-0.671,0.0,0.0,0.0,0.0,0.0,0.0,0.0,0.0
3.592,0.0478,-0.091,0.9498,-2.805,0.61,-0.305,0.0,0.0,0.0,0.0,0.0,0.0,0.0,0.0
3.602,0.0456,-0.092,0.9486,-3.415,-0.366,-0.488,0.0,0.0,0.0,0.0,0.0,0.0,0.0,0.0
3.613,0.0434,-0.093,0.9473999999999999,-4.207,-1.524,-1.341,0.0,0.0,0.0,0.0,0.0,0.0,0.0,0.0
3.623,0.0412,-0.094,0.9461999999999999,-4.695,-2.134,-0.732,0.0,0.0,0.0,0.0,0.0,0.0,0.0,0.0
3.633,0.039,-0.095,0.945,-3.537,-1.646,0.549,0.0,0.0,0.0,0.0,0.0,0.0,0.0,0.0
3.643,0.048,-0.094,0.946,0.854,0.122,2.256,0.0,0.0,0.0,0.0,0.0,0.0,0.0,0.0
3.654,0.0526,-0.0942,0.952,1.037,0.122,2.5,0.0,0.0,0.0,0.0,0.0,0.0,0.0,0.0
3.662,0.0572,-0.0944,0.958,0.427,-0.244,1.829,0.0,0.0,0.0,0.0,0.0,0.0,0.0,0.0
3.673,0.061799999999999994,-0.0946,0.964,2.256,-0.244,0.732,0.0,0.0,0.0,0.0,0.0,0.0,0.0,0.0
3.683,0.06639999999999999,-0.0948,0.97,2.073,-0.793,-1.037,0.0,0.0,0.0,0.0,0.0,0.0,0.0,0.0
3.693,0.071,-0.095,0.976,0.854,-0.61,-2.134,0.0,0.0,0.0,0.0,0.0,0.0,0.0,0.0
3.703,0.078,-0.089,0.974,-0.427,0.854,-1.28,0.0,0.0,0.0,0.0,0.0,0.0,0.0,0.0
3.714,0.0718,-0.0906,0.9703999999999999,-1.463,2.378,0.061,0.0,0.0,0.0,0.0,0.0,0.0,0.0,0.0
3.724,0.0656,-0.0922,0.9668,-1.524,2.927,0.732,0.0,0.0,0.0,0.0,0.0,0.0,0.0,0.0
3.733,0.0594,-0.0938,0.9632,-0.671,2.927,0.671,0.0,0.0,0.0,0.0,0.0,0.0,0.0,0.0
3.743,0.0532,-0.0954,0.9596,1.159,1.951,-0.488,0.0,0.0,0.0,0.0,0.0,0.0,0.0,0.0
3.753,0.047,-0.097,0.956,2.256,0.732,-0.732,0.0,0.0,0.0,0.0,0.0,0.0,0.0,0.0
3.763,0.05,-0.1,0.958,1.89,0.549,-0.061,0.0,0.0,0.0,0.0,0.0,0.0,0.0,0.0
3.774,0.05433333333333334,-0.09733333333333334,0.958,0.488,0.854,0.427,0.0,0.0,0.0,0.0,0.0,0.0,0.0,0.0
3.784,0.058666666666666666,-0.09466666666666666,0.958,0.183,1.22,0.122,0.0,0.0,0.0,0.0,0.0,0.0,0.0,0.0
3.794,0.063,-0.092,0.958,0.0,1.402,0.122,0.0,0.0,0.0,0.0,0.0,0.0,0.0,0.0
3.803,0.055,-0.0895,0.9535,-1.22,1.037,0.366,0.0,0.0,0.0,0.0,0.0,0.0,0.0,0.0
3.813,0.047,-0.087,0.949,-1.707,0.366,1.585,0.0,0.0,0.0,0.0,0.0,0.0,0.0,0.0
3.824,0.046,-0.088,0.948,-1.951,0.183,3.598,0.0,0.0,0.0,0.0,0.0,0.0,0.0,0.0
3.834,0.045,-0.089,0.947,-2.256,0.061,3.659,0.0,0.0,0.0,0.0,0.0,0.0,0.0,0.0
3.844,0.044,-0.09,0.946,0.122,0.0,2.5,0.0,0.0,0.0,0.0,0.0,0.0,0.0,0.0
3.854,0.051,-0.094,0.957,3.476,0.976,1.585,0.0,0.0,0.0,0.0,0.0,0.0,0.0,0.0
3.863,0.053599999999999995,-0.0902,0.9586,3.598,1.768,0.244,0.0,0.0,0.0,0.0,0.0,0.0,0.0,0.0
3.873,0.0562,-0.0864,0.9601999999999999,3.537,1.89,-1.463,0.0,0.0,0.0,0.0,0.0,0.0,0.0,0.0
3.884,0.0588,-0.0826,0.9618,2.744,2.073,-1.098,0.0,0.0,0.0,0.0,0.0,0.0,0.0,0.0
3.894,0.061399999999999996,-0.0788,0.9633999999999999,0.183,2.195,-0.427,0.0,0.0,0.0,0.0,0.0,0.0,0.0,0.0
3.904,0.064,-0.075,0.965,-1.402,3.11,1.829,0.0,0.0,0.0,0.0,0.0,0.0,0.0,0.0
3.914,0.053,-0.075,0.952,-2.073,3.354,3.537,0.0,0.0,0.0,0.0,0.0,0.0,0.0,0.0
3.925,0.0526,-0.0786,0.9513999999999999,-2.195,1.768,2.5,0.0,0.0,0.0,0.0,0.0,0.0,0.0,0.0
3.933,0.052199999999999996,-0.0822,0.9508,-1.28,-0.549,0.732,0.0,0.0,0.0,0.0,0.0,0.0,0.0,0.0
3.944,0.0518,-0.0858,0.9501999999999999,-1.341,-1.22,0.61,0.0,0.0,0.0,0.0,0.0,0.0,0.0,0.0
3.954,0.051399999999999994,-0.0894,0.9496,-1.707,-1.037,1.037,0.0,0.0,0.0,0.0,0.0,0.0,0.0,0.0
3.964,0.051,-0.093,0.949,-0.732,-1.463,0.427,0.0,0.0,0.0,0.0,0.0,0.0,0.0,0.0
3.974,0.049,-0.091,0.946,1.585,-1.524,-1.159,0.0,0.0,0.0,0.0,0.0,0.0,0.0,0.0
3.985,0.0558,-0.08739999999999999,0.95,1.951,-1.524,-1.524,0.0,0.0,0.0,0.0,0.0,0.0,0.0,0.0
3.995,0.0626,-0.0838,0.954,2.012,-0.854,-0.854,0.0,0.0,0.0,0.0,0.0,0.0,0.0,0.0
4.004,0.0694,-0.0802,0.958,2.012,0.854,-0.305,0.0,0.0,0.0,0.0,0.0,0.0,0.0,0.0
4.014,0.0762,-0.0766,0.962,0.427,2.073,0.549,0.0,0.0,0.0,0.0,0.0,0.0,0.0,0.0
4.024,0.083,-0.073,0.966,-0.671,3.171,1.037,0.0,0.0,0.0,0.0,0.0,0.0,0.0,0.0
4.034,0.085,-0.083,0.973,-1.402,3.354,-0.488,0.0,0.0,0.0,0.0,0.0,0.0,0.0,0.0
4.045,0.07600000000000001,-0.08833333333333333,0.97,-1.159,2.378,-2.317,0.0,0.0,0.0,0.0,0.0,0.0,0.0,0.0
4.055,0.067,-0.09366666666666668,0.967,-0.61,1.524,-3.049,0.0,0.0,0.0,0.0,0.0,0.0,0.0,0.0
4.065,0.058,-0.099,0.964,-0.61,1.524,-2.378,0.0,0.0,0.0,0.0,0.0,0.0,0.0,0.0
4.074,0.055,-0.1014,0.9628,0.183,1.524,-1.463,0.0,0.0,0.0,0.0,0.0,0.0,0.0,0.0
4.084,0.052,-0.1038,0.9616,1.22,1.22,-1.707,0.0,0.0,0.0,0.0,0.0,0.0,0.0,0.0
4.095,0.049,-0.1062,0.9603999999999999,1.037,0.976,-0.732,0.0,0.0,0.0,0.0,0.0,0.0,0.0,0.0
4.105,0.046,-0.1086,0.9591999999999999,1.28,0.854,0.793,0.0,0.0,0.0,0.0,0.0,0.0,0.0,0.0
4.115,0.043,-0.111,0.958,0.976,0.976,1.524,0.0,0.0,0.0,0.0,0.0,0.0,0.0,0.0
4.125,0.048,-0.11,0.958,0.183,0.488,2.256,0.0,0.0,0.0,0.0,0.0,0.0,0.0,0.0
4.134,0.0512,-0.1036,0.9566,0.915,-0.183,1.646,0.0,0.0,0.0,0.0,0.0,0.0,0.0,0.0
4.144,0.054400000000000004,-0.0972,0.9551999999999999,1.89,-0.305,0.427,0.0,0.0,0.0,0.0,0.0,0.0,0.0,0.0
4.155,0.0576,-0.09079999999999999,0.9538,1.341,0.0,0.305,0.0,0.0,0.0,0.0,0.0,0.0,0.0,0.0
4.165,0.0608,-0.0844,0.9523999999999999,0.183,0.549,0.244,0.0,0.0,0.0,0.0,0.0,0.0,0.0,0.0
4.175,0.064,-0.078,0.951,0.061,1.098,-0.244,0.0,0.0,0.0,0.0,0.0,0.0,0.0,0.0
4.185,0.066,-0.074,0.948,-0.244,0.793,0.0,0.0,0.0,0.0,0.0,0.0,0.0,0.0,0.0
4.196,0.0672,-0.0764,0.9506,-1.28,0.488,0.793,0.0,0.0,0.0,0.0,0.0,0.0,0.0,0.0
4.204,0.0684,-0.0788,0.9531999999999999,-0.671,0.305,-0.122,0.0,0.0,0.0,0.0,0.0,0.0,0.0,0.0
4.215,0.0696,-0.0812,0.9558,0.122,-0.793,-1.463,0.0,0.0,0.0,0.0,0.0,0.0,0.0,0.0
4.225,0.0708,-0.0836,0.9583999999999999,-0.183,-0.305,-1.524,0.0,0.0,0.0,0.0,0.0,0.0,0.0,0.0
4.235,0.072,-0.086,0.961,0.183,1.22,-0.793,0.0,0.0,0.0,0.0,0.0,0.0,0.0,0.0
4.245,0.071,-0.081,0.961,-1.22,2.317,1.037,0.0,0.0,0.0,0.0,0.0,0.0,0.0,0.0
4.256,0.0652,-0.0856,0.961,-2.012,2.866,1.037,0.0,0.0,0.0,0.0,0.0,0.0,0.0,0.0
4.266,0.059399999999999994,-0.0902,0.961,-0.854,2.317,-0.244,0.0,0.0,0.0,0.0,0.0,0.0,0.0,0.0
4.275,0.0536,-0.0948,0.961,0.427,1.646,-0.793,0.0,0.0,0.0,0.0,0.0,0.0,0.0,0.0
4.285,0.0478,-0.09939999999999999,0.961,0.915,1.524,-0.488,0.0,0.0,0.0,0.0,0.0,0.0,0.0,0.0
4.295,0.042,-0.104,0.961,0.488,0.793,-0.488,0.0,0.0,0.0,0.0,0.0,0.0,0.0,0.0
4.305,0.044,-0.106,0.961,0.305,0.122,-0.183,0.0,0.0,0.0,0.0,0.0,0.0,0.0,0.0
4.316,0.04433333333333333,-0.10533333333333333,0.9603333333333333,0.122,0.0,0.488,0.0,0.0,0.0,0.0,0.0,0.0,0.0,0.0
4.326,0.04466666666666667,-0.10466666666666666,0.9596666666666667,0.305,-0.122,-0.183,0.0,0.0,0.0,0.0,0.0,0.0,0.0,0.0
4.336,0.045,-0.104,0.959,0.732,-0.854,-0.427,0.0,0.0,0.0,0.0,0.0,0.0,0.0,0.0
4.345,0.046,-0.10200000000000001,0.9615,1.037,-1.098,-0.061,0.0,0.0,0.0,0.0,0.0,0.0,0.0,0.0
4.355,0.047,-0.1,0.964,2.256,-1.159,-0.122,0.0,0.0,0.0,0.0,0.0,0.0,0.0,0.0
4.365,0.053,-0.09,0.957,1.524,-1.098,-0.549,0.0,0.0,0.0,0.0,0.0,0.0,0.0,0.0
4.376,0.056,-0.086,0.9563333333333333,0.61,-1.098,-0.976,0.0,0.0,0.0,0.0,0.0,0.0,0.0,0.0
4.386,0.059,-0.082,0.9556666666666667,0.671,-0.671,-1.098,0.0,0.0,0.0,0.0,0.0,0.0,0.0,0.0
4.396,0.062,-0.078,0.955,0.122,0.244,-0.244,0.0,0.0,0.0,0.0,0.0,0.0,0.0,0.0
4.405,0.0622,-0.0804,0.9568,-0.061,0.244,-0.549,0.0,0.0,0.0,0.0,0.0,0.0,0.0,0.0
4.415,0.0624,-0.0828,0.9586,0.122,-0.671,-1.524,0.0,0.0,0.0,0.0,0.0,0.0,0.0,0.0
4.426,0.0626,-0.0852,0.9603999999999999,0.183,-0.671,-0.854,0.0,0.0,0.0,0.0,0.0,0.0,0.0,0.0
4.436,0.0628,-0.0876,0.9621999999999999,-0.244,-0.671,-0.488,0.0,0.0,0.0,0.0,0.0,0.0,0.0,0.0
4.446,0.063,-0.09,0.964,-1.524,0.061,-0.366,0.0,0.0,0.0,0.0,0.0,0.0,0.0,0.0
4.456,0.066,-0.089,0.966,-1.463,1.28,0.671,0.0,0.0,0.0,0.0,0.0,0.0,0.0,0.0
4.467,0.063,-0.089,0.9626,-0.915,1.341,0.305,0.0,0.0,0.0,0.0,0.0,0.0,0.0,0.0
4.475,0.06,-0.089,0.9591999999999999,0.61,1.22,-1.098,0.0,0.0,0.0,0.0,0.0,0.0,0.0,0.0
4.486,0.056999999999999995,-0.089,0.9558,2.378,1.524,-0.976,0.0,0.0,0.0,0.0,0.0,0.0,0.0,0.0
4.496,0.054,-0.089,0.9523999999999999,1.22,1.22,0.244,0.0,0.0,0.0,0.0,0.0,0.0,0.0,0.0
4.506,0.051,-0.089,0.949,0.732,0.671,0.366,0.0,0.0,0.0,0.0,0.0,0.0,0.0,0.0
4.516,0.043,-0.089,0.947,0.732,0.183,0.427,0.0,0.0,0.0,0.0,0.0,0.0,0.0,0.0
4.527,0.0482,-0.088,0.9501999999999999,0.366,-0.305,0.305,0.0,0.0,0.0,0.0,0.0,0.0,0.0,0.0
4.537,0.0534,-0.087,0.9533999999999999,0.671,-0.61,0.61,0.0,0.0,0.0,0.0,0.0,0.0,0.0,0.0
4.546,0.0586,-0.08600000000000001,0.9566,0.488,-0.061,0.793,0.0,0.0,0.0,0.0,0.0,0.0,0.0,0.0
4.556,0.0638,-0.085,0.9598,0.854,0.549,-0.305,0.0,0.0,0.0,0.0,0.0,0.0,0.0,0.0
4.566,0.069,-0.084,0.963,1.402,0.427,-1.22,0.0,0.0,0.0,0.0,0.0,0.0,0.0,0.0
4.576,0.071,-0.083,0.962,1.22,0.427,-0.976,0.0,0.0,0.0,0.0,0.0,0.0,0.0,0.0
4.587,0.07066666666666667,-0.084,0.9643333333333333,0.061,1.098,-0.122,0.0,0.0,0.0,0.0,0.0,0.0,0.0,0.0
4.597,0.07033333333333333,-0.08499999999999999,0.9666666666666667,0.671,0.915,-0.793,0.0,0.0,0.0,0.0,0.0,0.0,0.0,0.0
4.607,0.07,-0.086,0.969,1.341,0.671,-1.89,0.0,0.0,0.0,0.0,0.0,0.0,0.0,0.0
4.616,0.069,-0.08299999999999999,0.9655,-0.061,1.524,-1.341,0.0,0.0,0.0,0.0,0.0,0.0,0.0,0.0
4.626,0.068,-0.08,0.962,-1.341,2.256,0.488,0.0,0.0,0.0,0.0,0.0,0.0,0.0,0.0
4.636,0.065,-0.08,0.957,-2.073,2.5,1.524,0.0,0.0,0.0,0.0,0.0,0.0,0.0,0.0
4.647,0.06233333333333334,-0.08433333333333333,0.956,-1.585,2.622,1.159,0.0,0.0,0.0,0.0,0.0,0.0,0.0,0.0
4.657,0.059666666666666666,-0.08866666666666667,0.955,-0.183,2.744,0.671,0.0,0.0,0.0,0.0,0.0,0.0,0.0,0.0
4.667,0.057,-0.093,0.954,0.671,2.5,-0.427,0.0,0.0,0.0,0.0,0.0,0.0,0.0,0.0
4.678,0.0576,-0.0936,0.955,0.732,1.585,-1.524,0.0,0.0,0.0,0.0,0.0,0.0,0.0,0.0
4.686,0.0582,-0.0942,0.956,0.122,1.402,-0.549,0.0,0.0,0.0,0.0,0.0,0.0,0.0,0.0
4.697,0.0588,-0.0948,0.957,-0.183,1.768,0.671,0.0,0.0,0.0,0.0,0.0,0.0,0.0,0.0
4.707,0.0594,-0.0954,0.958,0.122,1.524,0.671,0.0,0.0,0.0,0.0,0.0,0.0,0.0,0.0
4.717,0.06,-0.096,0.959,0.549,1.463,1.28,0.0,0.0,0.0,0.0,0.0,0.0,0.0,0.0
4.727,0.064,-0.098,0.961,0.488,1.28,1.768,0.0,0.0,0.0,0.0,0.0,0.0,0.0,0.0
4.738,0.0596,-0.0974,0.96,0.549,0.976,0.732,0.0,0.0,0.0,0.0,0.0,0.0,0.0,0.0
4.746,0.0552,-0.0968,0.959,0.122,0.549,0.427,0.0,0.0,0.0,0.0,0.0,0.0,0.0,0.0
4.757,0.050800000000000005,-0.09620000000000001,0.958,0.488,0.854,1.707,0.0,0.0,0.0,0.0,0.0,0.0,0.0,0.0
4.767,0.046400000000000004,-0.0956,0.957,1.463,1.585,2.439,0.0,0.0,0.0,0.0,0.0,0.0,0.0,0.0
4.777,0.042,-0.095,0.956,2.134,0.976,2.256,0.0,0.0,0.0,0.0,0.0,0.0,0.0,0.0
4.787,0.049,-0.097,0.966,2.012,0.0,1.22,0.0,0.0,0.0,0.0,0.0,0.0,0.0,0.0
4.798,0.054,-0.0942,0.965,2.256,-0.427,0.488,0.0,0.0,0.0,0.0,0.0,0.0,0.0,0.0
4.808,0.059,-0.09140000000000001,0.964,2.012,-0.122,0.671,0.0,0.0,0.0,0.0,0.0,0.0,0.0,0.0
4.817,0.064,-0.08860000000000001,0.963,0.671,0.0,0.061,0.0,0.0,0.0,0.0,0.0,0.0,0.0,0.0
4.827,0.069,-0.0858,0.962,1.037,0.305,-0.183,0.0,0.0,0.0,0.0,0.0,0.0,0.0,0.0
4.837,0.074,-0.083,0.961,0.366,0.854,0.549,0.0,0.0,0.0,0.0,0.0,0.0,0.0,0.0
4.847,0.072,-0.083,0.957,0.61,1.037,0.244,0.0,0.0,0.0,0.0,0.0,0.0,0.0,0.0
4.858,0.06799999999999999,-0.08433333333333333,0.9536666666666667,1.707,0.305,-0.244,0.0,0.0,0.0,0.0,0.0,0.0,0.0,0.0
4.868,0.064,-0.08566666666666667,0.9503333333333333,0.61,-0.244,0.061,0.0,0.0,0.0,0.0,0.0,0.0,0.0,0.0
4.878,0.06,-0.087,0.947,0.854,-0.366,-0.732,0.0,0.0,0.0,0.0,0.0,0.0,0.0,0.0
4.887,0.055999999999999994,-0.088,0.947,2.561,-0.976,-0.61,0.0,0.0,0.0,0.0,0.0,0.0,0.0,0.0
4.897,0.052,-0.089,0.947,2.134,-1.098,-0.305,0.0,0.0,0.0,0.0,0.0,0.0,0.0,0.0
4.907,0.056,-0.094,0.957,0.915,-1.341,-1.098,0.0,0.0,0.0,0.0,0.0,0.0,0.0,0.0
4.918,0.05566666666666667,-0.09266666666666666,0.955,0.366,-1.524,-0.488,0.0,0.0,0.0,0.0,0.0,0.0,0.0,0.0
4.928,0.05533333333333333,-0.09133333333333334,0.953,-0.488,-1.341,0.244,0.0,0.0,0.0,0.0,0.0,0.0,0.0,0.0
4.938,0.055,-0.09,0.951,-1.524,-0.854,1.037,0.0,0.0,0.0,0.0,0.0,0.0,0.0,0.0
4.949,0.0552,-0.0904,0.9516,-0.976,-0.671,1.707,0.0,0.0,0.0,0.0,0.0,0.0,0.0,0.0
4.957,0.0554,-0.09079999999999999,0.9521999999999999,1.037,-1.585,0.854,0.0,0.0,0.0,0.0,0.0,0.0,0.0,0.0
4.968,0.055600000000000004,-0.0912,0.9528,3.415,-3.354,-0.244,0.0,0.0,0.0,0.0,0.0,0.0,0.0,0.0
4.978,0.0558,-0.0916,0.9533999999999999,3.293,-4.146,-0.61,0.0,0.0,0.0,0.0,0.0,0.0,0.0,0.0
4.988,0.056,-0.092,0.954,2.195,-3.11,-0.244,0.0,0.0,0.0,0.0,0.0,0.0,0.0,0.0
4.998,0.056,-0.088,0.956,1.89,-2.5,0.549,0.0,0.0,0.0,0.0,0.0,0.0,0.0,0.0
5.009,0.0576,-0.09079999999999999,0.9576,0.671,-2.744,0.732,0.0,0.0,0.0,0.0,0.0,0.0,0.0,0.0
5.017,0.0592,-0.09359999999999999,0.9591999999999999,0.061,-2.5,1.037,0.0,0.0,0.0,0.0,0.0,0.0,0.0,0.0
5.028,0.0608,-0.09639999999999999,0.9608,0.488,-3.049,0.915,0.0,0.0,0.0,0.0,0.0,0.0,0.0,0.0
5.038,0.062400000000000004,-0.0992,0.9623999999999999,1.098,-2.988,1.098,0.0,0.0,0.0,0.0,0.0,0.0,0.0,0.0
5.048,0.064,-0.102,0.964,2.134,-2.5,0.732,0.0,0.0,0.0,0.0,0.0,0.0,0.0,0.0
5.058,0.07,-0.102,0.965,3.476,-2.866,-1.402,0.0,0.0,0.0,0.0,0.0,0.0,0.0,0.0
5.069,0.06820000000000001,-0.0986,0.9611999999999999,3.415,-3.11,-1.89,0.0,0.0,0.0,0.0,0.0,0.0,0.0,0.0
5.079,0.0664,-0.09519999999999999,0.9573999999999999,2.622,-2.5,-0.183,0.0,0.0,0.0,0.0,0.0,0.0,0.0,0.0
5.088,0.0646,-0.09179999999999999,0.9536,0.976,-1.341,0.732,0.0,0.0,0.0,0.0,0.0,0.0,0.0,0.0
5.098,0.0628,-0.0884,0.9498,-0.732,-0.61,2.012,0.0,0.0,0.0,0.0,0.0,0.0,0.0,0.0
5.108,0.061,-0.085,0.946,-0.854,-1.585,2.012,0.0,0.0,0.0,0.0,0.0,0.0,0.0,0.0
5.118,0.048,-0.096,0.947,0.427,-3.78,0.549,0.0,0.0,0.0,0.0,0.0,0.0,0.0,0.0
5.129,0.046,-0.098,0.9516666666666667,1.646,-5.366,-0.549,0.0,0.0,0.0,0.0,0.0,0.0,0.0,0.0
5.139,0.044000000000000004,-0.09999999999999999,0.9563333333333333,2.195,-5.122,-0.976,0.0,0.0,0.0,0.0,0.0,0.0,0.0,0.0
5.149,0.042,-0.102,0.961,1.341,-3.72,-0.244,0.0,0.0,0.0,0.0,0.0,0.0,0.0,0.0
5.158,0.051333333333333335,-0.09699999999999999,0.9626666666666667,0.061,-1.524,1.585,0.0,0.0,0.0,0.0,0.0,0.0,0.0,0.0
5.168,0.060666666666666674,-0.092,0.9643333333333333,-0.976,0.244,3.049,0.0,0.0,0.0,0.0,0.0,0.0,0.0,0.0
5.178,0.07,-0.087,0.966,-1.341,0.976,2.805,0.0,0.0,0.0,0.0,0.0,0.0,0.0,0.0
5.189,0.061000000000000006,-0.086,0.9596666666666667,-1.402,-0.061,1.524,0.0,0.0,0.0,0.0,0.0,0.0,0.0,0.0
5.199,0.052000000000000005,-0.085,0.9533333333333333,0.366,-1.89,0.61,0.0,0.0,0.0,0.0,0.0,0.0,0.0,0.0
5.209,0.043,-0.084,0.947,1.707,-2.866,-0.122,0.0,0.0,0.0,0.0,0.0,0.0,0.0,0.0
5.218,0.050199999999999995,-0.085,0.9521999999999999,1.463,-3.232,-0.915,0.0,0.0,0.0,0.0,0.0,0.0,0.0,0.0
5.228,0.0574,-0.08600000000000001,0.9573999999999999,2.134,-3.476,-1.341,0.0,0.0,0.0,0.0,0.0,0.0,0.0,0.0
5.239,0.06459999999999999,-0.087,0.9626,2.5,-2.744,-0.976,0.0,0.0,0.0,0.0,0.0,0.0,0.0,0.0
5.249,0.0718,-0.088,0.9678,2.012,-1.402,-0.488,0.0,0.0,0.0,0.0,0.0,0.0,0.0,0.0
5.259,0.079,-0.089,0.973,1.22,-0.915,0.305,0.0,0.0,0.0,0.0,0.0,0.0,0.0,0.0
5.269,0.084,-0.088,0.969,0.854,-0.732,-0.244,0.0,0.0,0.0,0.0,0.0,0.0,0.0,0.0
5.28,0.07880000000000001,-0.088,0.9673999999999999,0.427,-0.671,-1.585,0.0,0.0,0.0,0.0,0.0,0.0,0.0,0.0
5.288,0.0736,-0.088,0.9658,0.793,-0.671,-1.768,0.0,0.0,0.0,0.0,0.0,0.0,0.0,0.0
5.299,0.0684,-0.088,0.9642,1.037,-1.22,-2.195,0.0,0.0,0.0,0.0,0.0,0.0,0.0,0.0
5.309,0.0632,-0.088,0.9626,1.402,-1.098,-3.537,0.0,0.0,0.0,0.0,0.0,0.0,0.0,0.0
5.319,0.058,-0.088,0.961,2.317,-0.122,-4.024,0.0,0.0,0.0,0.0,0.0,0.0,0.0,0.0
5.329,0.055,-0.086,0.958,2.256,0.61,-2.439,0.0,0.0,0.0,0.0,0.0,0.0,0.0,0.0
5.34,0.0506,-0.08779999999999999,0.9586,1.951,0.854,-1.037,0.0,0.0,0.0,0.0,0.0,0.0,0.0,0.0
5.35,0.046200000000000005,-0.0896,0.9591999999999999,2.317,0.488,-1.28,0.0,0.0,0.0,0.0,0.0,0.0,0.0,0.0
5.359,0.041800000000000004,-0.0914,0.9598,4.024,-0.915,-2.683,0.0,0.0,0.0,0.0,0.0,0.0,0.0,0.0
5.369,0.0374,-0.0932,0.9603999999999999,4.512,-1.463,-3.598,0.0,0.0,0.0,0.0,0.0,0.0,0.0,0.0
5.379,0.033,-0.095,0.961,2.744,-0.976,-2.866,0.0,0.0,0.0,0.0,0.0,0.0,0.0,0.0
5.389,0.043,-0.091,0.966,1.89,-0.427,-2.073,0.0,0.0,0.0,0.0,0.0,0.0,0.0,0.0
5.4,0.044,-0.0912,0.9662,1.768,0.61,-1.89,0.0,0.0,0.0,0.0,0.0,0.0,0.0,0.0
5.41,0.045,-0.0914,0.9663999999999999,2.5,0.915,-2.744,0.0,0.0,0.0,0.0,0.0,0.0,0.0,0.0
5.419,0.046,-0.0916,0.9666,2.256,0.427,-4.207,0.0,0.0,0.0,0.0,0.0,0.0,0.0,0.0
5.429,0.047,-0.09179999999999999,0.9668,2.378,0.549,-4.573,0.0,0.0,0.0,0.0,0.0,0.0,0.0,0.0
5.439,0.048,-0.092,0.967,2.561,-0.061,-5.183,0.0,0.0,0.0,0.0,0.0,0.0,0.0,0.0
5.449,0.038,-0.086,0.959,2.012,-0.183,-5.0,0.0,0.0,0.0,0.0,0.0,0.0,0.0,0.0
5.46,0.044333333333333336,-0.08533333333333333,0.9596666666666667,2.256,0.732,-3.537,0.0,0.0,0.0,0.0,0.0,0.0,0.0,0.0
5.47,0.050666666666666665,-0.08466666666666667,0.9603333333333333,2.378,0.61,-3.415,0.0,0.0,0.0,0.0,0.0,0.0,0.0,0.0
5.48,0.057,-0.084,0.961,2.317,0.915,-2.927,0.0,0.0,0.0,0.0,0.0,0.0,0.0,0.0
5.489,0.0576,-0.08600000000000001,0.9616,1.951,2.012,-2.561,0.0,0.0,0.0,0.0,0.0,0.0,0.0,0.0
5.499,0.0582,-0.08800000000000001,0.9621999999999999,1.463,2.256,-3.11,0.0,0.0,0.0,0.0,0.0,0.0,0.0,0.0
5.51,0.0588,-0.09,0.9628,1.159,1.463,-3.72,0.0,0.0,0.0,0.0,0.0,0.0,0.0,0.0
5.52,0.0594,-0.092,0.9633999999999999,2.744,1.341,-4.939,0.0,0.0,0.0,0.0,0.0,0.0,0.0,0.0
5.53,0.06,-0.094,0.964,3.963,0.854,-6.22,0.0,0.0,0.0,0.0,0.0,0.0,0.0,0.0
5.54,0.059,-0.09,0.962,3.293,0.732,-5.732,0.0,0.0,0.0,0.0,0.0,0.0,0.0,0.0
5.551,0.0584,-0.089,0.9583999999999999,1.89,2.317,-4.939,0.0,0.0,0.0,0.0,0.0,0.0,0.0,0.0
5.559,0.0578,-0.088,0.9548,-0.061,2.988,-4.573,0.0,0.0,0.0,0.0,0.0,0.0,0.0,0.0
5.57,0.0572,-0.08700000000000001,0.9511999999999999,-1.037,3.598,-3.963,0.0,0.0,0.0,0.0,0.0,0.0,0.0,0.0
5.58,0.0566,-0.08600000000000001,0.9476,-0.61,4.39,-2.744,0.0,0.0,0.0,0.0,0.0,0.0,0.0,0.0
5.59,0.056,-0.085,0.944,-0.305,3.902,-3.232,0.0,0.0,0.0,0.0,0.0,0.0,0.0,0.0
5.6,0.052,-0.092,0.945,-0.915,2.683,-3.841,0.0,0.0,0.0,0.0,0.0,0.0,0.0,0.0
5.611,0.0506,-0.0912,0.946,-0.671,1.341,-3.902,0.0,0.0,0.0,0.0,0.0,0.0,0.0,0.0
5.621,0.0492,-0.0904,0.947,0.488,0.427,-3.963,0.0,0.0,0.0,0.0,0.0,0.0,0.0,0.0
5.63,0.047799999999999995,-0.0896,0.948,1.829,-0.122,-4.024,0.0,0.0,0.0,0.0,0.0,0.0,0.0,0.0
5.64,0.0464,-0.08879999999999999,0.949,0.732,-1.22,-4.085,0.0,0.0,0.0,0.0,0.0,0.0,0.0,0.0
5.65,0.045,-0.088,0.95,-0.671,-1.341,-4.146,0.0,0.0,0.0,0.0,0.0,0.0,0.0,0.0
5.66,0.057,-0.087,0.957,-0.915,-1.463,-5.061,0.0,0.0,0.0,0.0,0.0,0.0,0.0,0.0
5.671,0.064,-0.087,0.963,-0.732,-1.829,-5.671,0.0,0.0,0.0,0.0,0.0,0.0,0.0,0.0
5.681,0.07100000000000001,-0.087,0.969,-0.122,-1.159,-5.427,0.0,0.0,0.0,0.0,0.0,0.0,0.0,0.0
5.691,0.078,-0.087,0.975,0.549,-0.854,-6.463,0.0,0.0,0.0,0.0,0.0,0.0,0.0,0.0
5.7,0.087,-0.08299999999999999,0.9744999999999999,1.341,-0.732,-6.951,0.0,0.0,0.0,0.0,0.0,0.0,0.0,0.0
5.71,0.096,-0.079,0.974,1.28,-0.244,-6.646,0.0,0.0,0.0,0.0,0.0,0.0,0.0,0.0
5.72,0.104,-0.078,0.972,0.854,-0.671,-7.683,0.0,0.0,0.0,0.0,0.0,0.0,0.0,0.0
5.731,0.09533333333333333,-0.07033333333333333,0.9613333333333333,1.159,1.28,-6.402,0.0,0.0,0.0,0.0,0.0,0.0,0.0,0.0
5.741,0.08666666666666667,-0.06266666666666666,0.9506666666666667,1.89,1.28,-7.439,0.0,0.0,0.0,0.0,0.0,0.0,0.0,0.0
5.751,0.078,-0.055,0.94,2.5,-1.28,-9.39,0.0,0.0,0.0,0.0,0.0,0.0,0.0,0.0
5.76,0.0742,-0.0424,0.9374,1.89,-2.439,-9.573,0.0,0.0,0.0,0.0,0.0,0.0,0.0,0.0
5.77,0.0704,-0.0298,0.9348,2.134,-5.305,-10.366,0.0,0.0,0.0,0.0,0.0,0.0,0.0,0.0
5.781,0.06659999999999999,-0.0172,0.9322,2.134,-7.683,-11.22,0.0,0.0,0.0,0.0,0.0,0.0,0.0,0.0
5.791,0.0628,-0.0046,0.9296,-0.183,-7.622,-9.756,0.0,0.0,0.0,0.0,0.0,0.0,0.0,0.0
5.801,0.059,0.008,0.927,-2.012,-5.671,-6.524,0.0,0.0,0.0,0.0,0.0,0.0,0.0,0.0
5.811,0.075,0.002,0.942,-1.89,-2.805,-3.963,0.0,0.0,0.0,0.0,0.0,0.0,0.0,0.0
5.822,0.0718,-0.006,0.947,-1.098,-0.915,-3.476,0.0,0.0,0.0,0.0,0.0,0.0,0.0,0.0
5.83,0.0686,-0.014,0.952,1.098,-0.122,-4.573,0.0,0.0,0.0,0.0,0.0,0.0,0.0,0.0
5.841,0.0654,-0.022,0.957,2.256,0.183,-6.28,0.0,0.0,0.0,0.0,0.0,0.0,0.0,0.0
5.851,0.0622,-0.03,0.962,3.049,-1.098,-8.232,0.0,0.0,0.0,0.0,0.0,0.0,0.0,0.0
5.861,0.059,-0.038,0.967,4.451,-1.646,-8.598,0.0,0.0,0.0,0.0,0.0,0.0,0.0,0.0
5.871,0.032,-0.025,0.945,3.902,-2.317,-7.073,0.0,0.0,0.0,0.0,0.0,0.0,0.0,0.0
5.882,0.0298,-0.019000000000000003,0.9473999999999999,3.415,-4.39,-5.793,0.0,0.0,0.0,0.0,0.0,0.0,0.0,0.0
5.892,0.0276,-0.013000000000000001,0.9498,4.085,-6.585,-5.671,0.0,0.0,0.0,0.0,0.0,0.0,0.0,0.0
5.901,0.025400000000000002,-0.006999999999999999,0.9521999999999999,4.146,-8.598,-5.549,0.0,0.0,0.0,0.0,0.0,0.0,0.0,0.0
5.911,0.023200000000000002,-0.0010000000000000009,0.9546,4.39,-9.512,-4.939,0.0,0.0,0.0,0.0,0.0,0.0,0.0,0.0
5.921,0.021,0.005,0.957,4.329,-8.963,-3.232,0.0,0.0,0.0,0.0,0.0,0.0,0.0,0.0
5.931,0.028,0.007,0.965,3.293,-7.927,-0.549,0.0,0.0,0.0,0.0,0.0,0.0,0.0,0.0
5.942,0.0388,-0.003999999999999999,0.9778,3.415,-6.768,1.951,0.0,0.0,0.0,0.0,0.0,0.0,0.0,0.0
5.952,0.049600000000000005,-0.015,0.9905999999999999,3.963,-6.22,2.256,0.0,0.0,0.0,0.0,0.0,0.0,0.0,0.0
5.961,0.060399999999999995,-0.026000000000000002,1.0033999999999998,5.0,-6.22,1.707,0.0,0.0,0.0,0.0,0.0,0.0,0.0,0.0
5.971,0.0712,-0.037,1.0162,7.683,-5.549,-0.427,0.0,0.0,0.0,0.0,0.0,0.0,0.0,0.0
5.981,0.082,-0.048,1.029,10.61,-4.329,-4.207,0.0,0.0,0.0,0.0,0.0,0.0,0.0,0.0
5.991,0.087,-0.049,1.022,9.756,-2.622,-5.976,0.0,0.0,0.0,0.0,0.0,0.0,0.0,0.0
6.002,0.08933333333333333,-0.03933333333333333,1.006,7.256,0.61,-6.402,0.0,0.0,0.0,0.0,0.0,0.0,0.0,0.0
6.012,0.09166666666666666,-0.029666666666666668,0.99,5.427,3.963,-5.976,0.0,0.0,0.0,0.0,0.0,0.0,0.0,0.0
6.022,0.094,-0.02,0.974,2.317,6.098,-5.305,0.0,0.0,0.0,0.0,0.0,0.0,0.0,0.0
6.031,0.0668,-0.0254,0.9571999999999999,-0.244,7.988,-3.415,0.0,0.0,0.0,0.0,0.0,0.0,0.0,0.0
6.041,0.039599999999999996,-0.0308,0.9404,-1.768,7.988,-0.427,0.0,0.0,0.0,0.0,0.0,0.0,0.0,0.0
6.052,0.012399999999999994,-0.036199999999999996,0.9236,-2.012,5.61,0.854,0.0,0.0,0.0,0.0,0.0,0.0,0.0,0.0
6.062,-0.014800000000000008,-0.0416,0.9068,0.427,1.829,-1.524,0.0,0.0,0.0,0.0,0.0,0.0,0.0,0.0
6.072,-0.042,-0.047,0.89,2.927,-1.402,-2.5,0.0,0.0,0.0,0.0,0.0,0.0,0.0,0.0
6.082,-0.018,-0.043,0.896,4.146,-4.512,-5.183,0.0,0.0,0.0,0.0,0.0,0.0,0.0,0.0
6.093,-0.0011999999999999962,-0.030799999999999998,0.8994,4.512,-6.463,-7.988,0.0,0.0,0.0,0.0,0.0,0.0,0.0,0.0
6.101,0.015600000000000006,-0.0186,0.9028,3.598,-6.22,-8.354,0.0,0.0,0.0,0.0,0.0,0.0,0.0,0.0
6.112,0.03240000000000001,-0.006400000000000003,0.9062,1.098,-4.817,-7.195,0.0,0.0,0.0,0.0,0.0,0.0,0.0,0.0
6.122,0.04920000000000001,0.0058,0.9096000000000001,-2.134,-2.073,-5.488,0.0,0.0,0.0,0.0,0.0,0.0,0.0,0.0
6.132,0.066,0.018,0.913,-5.366,0.366,-3.78,0.0,0.0,0.0,0.0,0.0,0.0,0.0,0.0
6.142,0.062,0.013,0.924,-6.951,1.22,-2.927,0.0,0.0,0.0,0.0,0.0,0.0,0.0,0.0
6.153,0.0538,-0.0014000000000000002,0.927,-6.28,2.561,-1.524,0.0,0.0,0.0,0.0,0.0,0.0,0.0,0.0
6.163,0.0456,-0.0158,0.93,-5.305,2.866,-0.183,0.0,0.0,0.0,0.0,0.0,0.0,0.0,0.0
6.172,0.0374,-0.030200000000000005,0.9329999999999999,-4.268,1.341,-0.976,0.0,0.0,0.0,0.0,0.0,0.0,0.0,0.0
6.182,0.029200000000000004,-0.0446,0.9359999999999999,-2.012,-0.549,-2.317,0.0,0.0,0.0,0.0,0.0,0.0,0.0,0.0
6.192,0.021,-0.059,0.939,-0.976,-2.073,-2.439,0.0,0.0,0.0,0.0,0.0,0.0,0.0,0.0
6.202,0.025,-0.069,0.947,-1.037,-2.195,-2.317,0.0,0.0,0.0,0.0,0.0,0.0,0.0,0.0
6.213,0.0204,-0.0632,0.9351999999999999,-1.524,-1.037,-0.915,0.0,0.0,0.0,0.0,0.0,0.0,0.0,0.0
6.223,0.0158,-0.05740000000000001,0.9234,-2.439,0.488,0.793,0.0,0.0,0.0,0.0,0.0,0.0,0.0,0.0
6.232,0.011200000000000002,-0.0516,0.9116,-4.085,1.037,1.768,0.0,0.0,0.0,0.0,0.0,0.0,0.0,0.0
6.242,0.006600000000000002,-0.0458,0.8998,-5.732,0.671,2.683,0.0,0.0,0.0,0.0,0.0,0.0,0.0,0.0
6.252,0.002,-0.04,0.888,-7.439,0.61,4.756,0.0,0.0,0.0,0.0,0.0,0.0,0.0,0.0
6.262,-0.01,-0.052,0.886,-8.659,0.488,6.768,0.0,0.0,0.0,0.0,0.0,0.0,0.0,0.0
6.273,-0.019333333333333334,-0.06166666666666667,0.893,-8.293,-0.976,7.683,0.0,0.0,0.0,0.0,0.0,0.0,0.0,0.0
6.283,-0.028666666666666667,-0.07133333333333333,0.9,-6.585,-2.317,7.683,0.0,0.0,0.0,0.0,0.0,0.0,0.0,0.0
6.293,-0.038,-0.081,0.907,-6.098,-3.476,6.402,0.0,0.0,0.0,0.0,0.0,0.0,0.0,0.0
6.302,-0.0382,-0.079,0.913,-5.671,-2.012,7.805,0.0,0.0,0.0,0.0,0.0,0.0,0.0,0.0
6.312,-0.0384,-0.077,0.919,-6.098,-0.305,9.817,0.0,0.0,0.0,0.0,0.0,0.0,0.0,0.0
6.323,-0.0386,-0.075,0.925,-5.122,-0.366,11.098,0.0,0.0,0.0,0.0,0.0,0.0,0.0,0.0
6.333,-0.0388,-0.073,0.931,-4.207,-1.951,9.329,0.0,0.0,0.0,0.0,0.0,0.0,0.0,0.0
6.343,-0.039,-0.071,0.937,-3.78,-2.561,8.902,0.0,0.0,0.0,0.0,0.0,0.0,0.0,0.0
6.353,-0.036,-0.058,0.938,-4.573,-1.89,10.0,0.0,0.0,0.0,0.0,0.0,0.0,0.0,0.0
6.364,-0.026199999999999998,-0.0506,0.9471999999999999,-5.183,-1.341,10.122,0.0,0.0,0.0,0.0,0.0,0.0,0.0,0.0
6.372,-0.016399999999999998,-0.0432,0.9563999999999999,-6.22,-0.244,10.549,0.0,0.0,0.0,0.0,0.0,0.0,0.0,0.0
6.383,-0.006599999999999998,-0.0358,0.9656,-6.768,2.195,10.732,0.0,0.0,0.0,0.0,0.0,0.0,0.0,0.0
6.393,0.0032000000000000015,-0.028399999999999998,0.9748,-6.098,4.512,10.427,0.0,0.0,0.0,0.0,0.0,0.0,0.0,0.0
6.403,0.013,-0.021,0.984,-5.61,5.061,8.659,0.0,0.0,0.0,0.0,0.0,0.0,0.0,0.0
6.413,-0.001,-0.002,1.0,-4.878,2.439,5.854,0.0,0.0,0.0,0.0,0.0,0.0,0.0,0.0
6.424,-0.0262,-0.0148,1.0186,-3.659,-1.22,6.159,0.0,0.0,0.0,0.0,0.0,0.0,0.0,0.0
6.432,-0.0514,-0.0276,1.0372,-5.305,-4.39,12.866,0.0,0.0,0.0,0.0,0.0,0.0,0.0,0.0
6.443,-0.0766,-0.040400000000000005,1.0558,-6.159,-8.293,22.439,0.0,0.0,0.0,0.0,0.0,0.0,0.0,0.0
6.453,-0.1018,-0.053200000000000004,1.0744,-2.134,-16.098,26.037,0.0,0.0,0.0,0.0,0.0,0.0,0.0,0.0
6.463,-0.127,-0.066,1.093,4.634,-25.61,23.354,0.0,0.0,0.0,0.0,0.0,0.0,0.0,0.0
6.473,-0.049,-0.092,1.154,11.098,-32.866,16.524,0.0,0.0,0.0,0.0,0.0,0.0,0.0,0.0
6.484,0.021199999999999997,-0.07139999999999999,1.1594,18.841,-37.439,10.183,0.0,0.0,0.0,0.0,0.0,0.0,0.0,0.0
6.494,0.0914,-0.0508,1.1648,26.524,-38.232,1.098,0.0,0.0,0.0,0.0,0.0,0.0,0.0,0.0
6.503,0.16160000000000002,-0.030199999999999998,1.1702,26.28,-34.329,-6.524,0.0,0.0,0.0,0.0,0.0,0.0,0.0,0.0
6.513,0.2318,-0.009599999999999997,1.1756,22.012,-24.939,-7.805,0.0,0.0,0.0,0.0,0.0,0.0,0.0,0.0
6.523,0.302,0.011,1.181,16.28,-14.329,-7.439,0.0,0.0,0.0,0.0,0.0,0.0,0.0,0.0
6.533,0.312,0.071,1.121,7.622,-4.573,-6.22,0.0,0.0,0.0,0.0,0.0,0.0,0.0,0.0
6.544,0.30266666666666664,0.05433333333333333,1.1116666666666666,-1.28,5.854,-0.549,0.0,0.0,0.0,0.0,0.0,0.0,0.0,0.0
6.554,0.29333333333333333,0.03766666666666667,1.1023333333333334,-8.537,15.366,5.0,0.0,0.0,0.0,0.0,0.0,0.0,0.0,0.0
6.564,0.284,0.021,1.093,-11.463,21.098,4.207,0.0,0.0,0.0,0.0,0.0,0.0,0.0,0.0
6.573,0.253,-0.0282,1.0908,-8.476,25.61,2.195,0.0,0.0,0.0,0.0,0.0,0.0,0.0,0.0
6.583,0.22199999999999998,-0.0774,1.0886,-4.695,26.89,-0.549,0.0,0.0,0.0,0.0,0.0,0.0,0.0,0.0
6.594,0.191,-0.12660000000000002,1.0864,-1.646,23.963,-2.622,0.0,0.0,0.0,0.0,0.0,0.0,0.0,0.0
6.604,0.16,-0.1758,1.0842,3.537,21.22,-0.793,0.0,0.0,0.0,0.0,0.0,0.0,0.0,0.0
6.614,0.129,-0.225,1.082,6.89,18.78,2.988,0.0,0.0,0.0,0.0,0.0,0.0,0.0,0.0
6.624,0.107,-0.22,1.029,12.073,17.683,10.305,0.0,0.0,0.0,0.0,0.0,0.0,0.0,0.0
6.635,0.1394,-0.1946,1.0042,12.927,14.878,13.841,0.0,0.0,0.0,0.0,0.0,0.0,0.0,0.0
6.643,0.1718,-0.16920000000000002,0.9793999999999999,16.159,12.256,11.89,0.0,0.0,0.0,0.0,0.0,0.0,0.0,0.0
6.654,0.2042,-0.1438,0.9546,17.622,11.585,11.585,0.0,0.0,0.0,0.0,0.0,0.0,0.0,0.0
6.664,0.23660000000000003,-0.1184,0.9298,15.305,13.659,12.073,0.0,0.0,0.0,0.0,0.0,0.0,0.0,0.0
6.674,0.269,-0.093,0.905,11.463,16.28,12.744,0.0,0.0,0.0,0.0,0.0,0.0,0.0,0.0
6.684,0.303,-0.083,0.895,7.378,18.902,13.232,0.0,0.0,0.0,0.0,0.0,0.0,0.0,0.0
6.695,0.28959999999999997,-0.0886,0.8864,5.793,21.585,13.415,0.0,0.0,0.0,0.0,0.0,0.0,0.0,0.0
6.705,0.2762,-0.0942,0.8778,4.817,22.927,11.951,0.0,0.0,0.0,0.0,0.0,0.0,0.0,0.0
6.714,0.2628,-0.0998,0.8692,3.72,22.622,11.524,0.0,0.0,0.0,0.0,0.0,0.0,0.0,0.0
6.724,0.24939999999999998,-0.1054,0.8606,3.78,20.854,11.28,0.0,0.0,0.0,0.0,0.0,0.0,0.0,0.0
6.734,0.236,-0.111,0.852,4.756,17.866,9.756,0.0,0.0,0.0,0.0,0.0,0.0,0.0,0.0
6.744,0.205,-0.117,0.847,8.232,14.39,7.5,0.0,0.0,0.0,0.0,0.0,0.0,0.0,0.0
6.755,0.1928,-0.09820000000000001,0.845,10.61,10.183,4.756,0.0,0.0,0.0,0.0,0.0,0.0,0.0,0.0
6.765,0.18059999999999998,-0.0794,0.843,9.634,6.707,2.317,0.0,0.0,0.0,0.0,0.0,0.0,0.0,0.0
6.774,0.1684,-0.0606,0.841,7.317,5.427,3.293,0.0,0.0,0.0,0.0,0.0,0.0,0.0,0.0
6.784,0.1562,-0.041800000000000004,0.839,4.39,6.646,5.549,0.0,0.0,0.0,0.0,0.0,0.0,0.0,0.0
6.794,0.144,-0.023,0.837,1.341,8.476,5.549,0.0,0.0,0.0,0.0,0.0,0.0,0.0,0.0
6.804,0.15,-0.006,0.842,-1.707,9.512,5.244,0.0,0.0,0.0,0.0,0.0,0.0,0.0,0.0
6.815,0.13933333333333334,-0.009999999999999998,0.858,-4.695,11.646,8.11,0.0,0.0,0.0,0.0,0.0,0.0,0.0,0.0
6.825,0.12866666666666665,-0.013999999999999999,0.874,-6.951,12.622,8.415,0.0,0.0,0.0,0.0,0.0,0.0,0.0,0.0
6.835,0.118,-0.018,0.89,-6.707,11.402,6.707,0.0,0.0,0.0,0.0,0.0,0.0,0.0,0.0
6.844,0.1054,-0.024,0.9056,-5.549,8.293,5.061,0.0,0.0,0.0,0.0,0.0,0.0,0.0,0.0
6.854,0.0928,-0.03,0.9212,-2.866,5.061,3.841,0.0,0.0,0.0,0.0,0.0,0.0,0.0,0.0
6.865,0.0802,-0.036000000000000004,0.9368,-1.22,2.744,2.561,0.0,0.0,0.0,0.0,0.0,0.0,0.0,0.0
6.875,0.0676,-0.041999999999999996,0.9524,-1.524,0.427,3.476,0.0,0.0,0.0,0.0,0.0,0.0,0.0,0.0
6.885,0.055,-0.048,0.968,-0.61,-1.89,3.841,0.0,0.0,0.0,0.0,0.0,0.0,0.0,0.0
6.895,0.06,-0.045,0.974,1.463,-3.293,2.744,0.0,0.0,0.0,0.0,0.0,0.0,0.0,0.0
6.906,0.0842,-0.053599999999999995,0.988,5.0,-2.073,2.378,0.0,0.0,0.0,0.0,0.0,0.0,0.0,0.0
6.914,0.1084,-0.0622,1.002,7.134,0.305,2.622,0.0,0.0,0.0,0.0,0.0,0.0,0.0,0.0
6.925,0.1326,-0.0708,1.016,5.976,2.866,3.902,0.0,0.0,0.0,0.0,0.0,0.0,0.0,0.0
6.935,0.1568,-0.0794,1.03,4.451,6.707,3.293,0.0,0.0,0.0,0.0,0.0,0.0,0.0,0.0
6.945,0.181,-0.088,1.044,5.305,9.451,0.244,0.0,0.0,0.0,0.0,0.0,0.0,0.0,0.0
6.955,0.175,-0.085,1.017,5.549,10.976,-3.598,0.0,0.0,0.0,0.0,0.0,0.0,0.0,0.0
6.966,0.14279999999999998,-0.07680000000000001,0.9773999999999999,4.024,11.463,-6.402,0.0,0.0,0.0,0.0,0.0,0.0,0.0,0.0
6.974,0.1106,-0.0686,0.9378,1.22,12.256,-4.878,0.0,0.0,0.0,0.0,0.0,0.0,0.0,0.0
6.985,0.07840000000000001,-0.060399999999999995,0.8981999999999999,-2.988,13.841,-0.183,0.0,0.0,0.0,0.0,0.0,0.0,0.0,0.0
6.995,0.04620000000000002,-0.052199999999999996,0.8585999999999999,-7.805,15.061,5.366,0.0,0.0,0.0,0.0,0.0,0.0,0.0,0.0
7.005,0.014,-0.044,0.819,-10.732,15.549,9.817,0.0,0.0,0.0,0.0,0.0,0.0,0.0,0.0
7.015,-0.009,-0.07,0.819,-13.415,16.22,15.305,0.0,0.0,0.0,0.0,0.0,0.0,0.0,0.0
7.026,-0.0124,-0.0792,0.828,-13.537,15.0,22.012,0.0,0.0,0.0,0.0,0.0,0.0,0.0,0.0
