Timestamp,Acc x (g),Acc y (g),Acc z (g),Gyro x (deg/s),Gyro y (deg/s),Gyro z (deg/s),Beccheggio/Pitch (deg/s),Rollio/Roll (deg/s),Imbardata/Yaw (deg/s),Mag x (microTesla),Mag y (microTesla),Mag z (microTesla),Pressione (milliBar),Altitudine (m)
0.0,0.215,-0.233,0.964,4.878,1.951,0.305,0.0,0.0,0.0,0.0,0.0,0.0,0.0,0.0
0.01,0.222,-0.237,0.972,4.329,1.951,0.305,0.0,0.0,0.0,0.0,0.0,0.0,0.0,0.0
0.02,0.21933333333333332,-0.239,0.9713333333333333,3.963,3.232,0.854,0.0,0.0,0.0,0.0,0.0,0.0,0.0,0.0
0.03,0.21666666666666667,-0.241,0.9706666666666667,3.72,5.122,1.768,0.0,0.0,0.0,0.0,0.0,0.0,0.0,0.0
0.041,0.214,-0.243,0.97,3.902,6.707,2.866,0.0,0.0,0.0,0.0,0.0,0.0,0.0,0.0
0.049,0.21266666666666667,-0.238,0.9583333333333334,5.366,6.768,4.146,0.0,0.0,0.0,0.0,0.0,0.0,0.0,0.0
0.06,0.21133333333333332,-0.233,0.9466666666666667,8.537,7.988,5.549,0.0,0.0,0.0,0.0,0.0,0.0,0.0,0.0
0.07,0.21,-0.228,0.935,12.195,9.451,6.22,0.0,0.0,0.0,0.0,0.0,0.0,0.0,0.0
0.08,0.2085,-0.218,0.931,12.744,8.415,5.854,0.0,0.0,0.0,0.0,0.0,0.0,0.0,0.0
0.091,0.207,-0.208,0.927,11.098,7.134,5.366,0.0,0.0,0.0,0.0,0.0,0.0,0.0,0.0
0.101,0.204,-0.2,0.933,9.207,7.256,4.573,0.0,0.0,0.0,0.0,0.0,0.0,0.0,0.0
0.111,0.2034,-0.19640000000000002,0.934,5.854,7.073,3.476,0.0,0.0,0.0,0.0,0.0,0.0,0.0,0.0
0.12,0.2028,-0.1928,0.935,0.976,5.732,2.622,0.0,0.0,0.0,0.0,0.0,0.0,0.0,0.0
0.13,0.2022,-0.1892,0.9359999999999999,-1.829,5.244,2.134,0.0,0.0,0.0,0.0,0.0,0.0,0.0,0.0
0.14,0.2016,-0.1856,0.9369999999999999,-1.829,5.915,1.707,0.0,0.0,0.0,0.0,0.0,0.0,0.0,0.0
0.151,0.201,-0.182,0.938,-0.732,5.854,1.098,0.0,0.0,0.0,0.0,0.0,0.0,0.0,0.0
0.161,0.196,-0.174,0.928,0.976,4.878,0.122,0.0,0.0,0.0,0.0,0.0,0.0,0.0,0.0
0.171,0.19920000000000002,-0.1754,0.9364,3.598,3.659,-1.585,0.0,0.0,0.0,0.0,0.0,0.0,0.0,0.0
0.181,0.2024,-0.17679999999999998,0.9448,3.841,2.134,-3.598,0.0,0.0,0.0,0.0,0.0,0.0,0.0,0.0
0.19,0.2056,-0.1782,0.9532,1.159,0.854,-5.671,0.0,0.0,0.0,0.0,0.0,0.0,0.0,0.0
0.2,0.20879999999999999,-0.17959999999999998,0.9616,-1.951,0.061,-6.829,0.0,0.0,0.0,0.0,0.0,0.0,0.0,0.0
0.211,0.212,-0.181,0.97,-4.634,0.0,-6.524,0.0,0.0,0.0,0.0,0.0,0.0,0.0,0.0
0.221,0.222,-0.195,0.975,-5.366,0.488,-5.915,0.0,0.0,0.0,0.0,0.0,0.0,0.0,0.0
0.231,0.22466666666666668,-0.20333333333333334,0.9733333333333333,-4.512,1.585,-4.634,0.0,0.0,0.0,0.0,0.0,0.0,0.0,0.0
0.241,0.22733333333333333,-0.21166666666666667,0.9716666666666667,-3.963,2.744,-4.268,0.0,0.0,0.0,0.0,0.0,0.0,0.0,0.0
0.252,0.23,-0.22,0.97,-4.329,2.195,-4.634,0.0,0.0,0.0,0.0,0.0,0.0,0.0,0.0
0.26,0.22766666666666668,-0.223,0.9646666666666667,-2.988,2.317,-4.817,0.0,0.0,0.0,0.0,0.0,0.0,0.0,0.0
0.271,0.22533333333333333,-0.226,0.9593333333333333,0.671,3.902,-4.939,0.0,0.0,0.0,0.0,0.0,0.0,0.0,0.0
0.281,0.223,-0.229,0.954,2.561,4.451,-4.268,0.0,0.0,0.0,0.0,0.0,0.0,0.0,0.0
0.291,0.218,-0.23033333333333333,0.9503333333333333,3.537,3.72,-3.72,0.0,0.0,0.0,0.0,0.0,0.0,0.0,0.0
0.301,0.213,-0.2316666666666667,0.9466666666666667,5.0,2.378,-3.537,0.0,0.0,0.0,0.0,0.0,0.0,0.0,0.0
0.312,0.208,-0.233,0.943,5.122,1.646,-4.207,0.0,0.0,0.0,0.0,0.0,0.0,0.0,0.0
0.32,0.20633333333333334,-0.22933333333333333,0.947,4.817,0.61,-5.122,0.0,0.0,0.0,0.0,0.0,0.0,0.0,0.0
0.331,0.20466666666666666,-0.22566666666666668,0.951,5.854,0.427,-5.305,0.0,0.0,0.0,0.0,0.0,0.0,0.0,0.0
0.341,0.203,-0.222,0.955,6.341,2.683,-4.817,0.0,0.0,0.0,0.0,0.0,0.0,0.0,0.0
0.351,0.20633333333333334,-0.229,0.9616666666666667,6.341,5.122,-3.72,0.0,0.0,0.0,0.0,0.0,0.0,0.0,0.0
0.361,0.20966666666666667,-0.236,0.9683333333333333,5.0,7.988,-2.012,0.0,0.0,0.0,0.0,0.0,0.0,0.0,0.0
0.372,0.213,-0.243,0.975,3.476,9.817,-0.671,0.0,0.0,0.0,0.0,0.0,0.0,0.0,0.0
0.382,0.213,-0.239,0.969,2.317,9.939,-0.183,0.0,0.0,0.0,0.0,0.0,0.0,0.0,0.0
0.391,0.20675,-0.235,0.9592499999999999,-0.061,7.805,-0.122,0.0,0.0,0.0,0.0,0.0,0.0,0.0,0.0
0.401,0.2005,-0.23099999999999998,0.9495,-3.963,3.598,-0.549,0.0,0.0,0.0,0.0,0.0,0.0,0.0,0.0
0.411,0.19425,-0.227,0.9397500000000001,-5.427,1.402,-0.427,0.0,0.0,0.0,0.0,0.0,0.0,0.0,0.0
0.422,0.188,-0.223,0.93,-3.293,0.183,-0.488,0.0,0.0,0.0,0.0,0.0,0.0,0.0,0.0
0.432,0.191,-0.229,0.921,0.793,0.061,-0.244,0.0,0.0,0.0,0.0,0.0,0.0,0.0,0.0
0.442,0.1936,-0.2278,0.9296,5.061,2.378,0.305,0.0,0.0,0.0,0.0,0.0,0.0,0.0,0.0
0.452,0.19619999999999999,-0.2266,0.9382,6.463,3.963,0.305,0.0,0.0,0.0,0.0,0.0,0.0,0.0,0.0
0.461,0.1988,-0.22540000000000002,0.9468,4.39,4.207,0.671,0.0,0.0,0.0,0.0,0.0,0.0,0.0,0.0
0.471,0.2014,-0.2242,0.9554,0.427,3.11,1.585,0.0,0.0,0.0,0.0,0.0,0.0,0.0,0.0
0.482,0.204,-0.223,0.964,-1.768,2.073,2.805,0.0,0.0,0.0,0.0,0.0,0.0,0.0,0.0
0.492,0.207,-0.229,0.957,-0.549,1.463,3.537,0.0,0.0,0.0,0.0,0.0,0.0,0.0,0.0
0.502,0.20066666666666666,-0.222,0.94,1.463,0.244,3.963,0.0,0.0,0.0,0.0,0.0,0.0,0.0,0.0
0.512,0.19433333333333333,-0.215,0.923,3.598,-0.976,3.415,0.0,0.0,0.0,0.0,0.0,0.0,0.0,0.0
0.523,0.188,-0.208,0.906,5.061,-0.122,2.683,0.0,0.0,0.0,0.0,0.0,0.0,0.0,0.0
0.531,0.1895,-0.203,0.9115,5.244,2.012,2.561,0.0,0.0,0.0,0.0,0.0,0.0,0.0,0.0
0.542,0.191,-0.198,0.917,3.537,2.317,3.049,0.0,0.0,0.0,0.0,0.0,0.0,0.0,0.0
0.552,0.19,-0.205,0.926,2.5,2.5,3.293,0.0,0.0,0.0,0.0,0.0,0.0,0.0,0.0
0.562,0.19133333333333333,-0.20133333333333334,0.9256666666666667,2.195,2.805,3.049,0.0,0.0,0.0,0.0,0.0,0.0,0.0,0.0
0.572,0.19266666666666668,-0.19766666666666666,0.9253333333333333,0.122,1.524,2.134,0.0,0.0,0.0,0.0,0.0,0.0,0.0,0.0
0.583,0.194,-0.194,0.925,-1.463,-0.793,1.22,0.0,0.0,0.0,0.0,0.0,0.0,0.0,0.0
0.591,0.19033333333333333,-0.19866666666666666,0.9276666666666668,-2.317,-3.78,0.183,0.0,0.0,0.0,0.0,0.0,0.0,0.0,0.0
0.602,0.18666666666666668,-0.20333333333333334,0.9303333333333333,-2.134,-5.732,-0.427,0.0,0.0,0.0,0.0,0.0,0.0,0.0,0.0
0.612,0.183,-0.208,0.933,-0.183,-5.244,-0.671,0.0,0.0,0.0,0.0,0.0,0.0,0.0,0.0
0.622,0.19,-0.212,0.9363333333333334,2.927,-2.988,-0.488,0.0,0.0,0.0,0.0,0.0,0.0,0.0,0.0
0.632,0.19699999999999998,-0.216,0.9396666666666667,4.817,-1.22,0.305,0.0,0.0,0.0,0.0,0.0,0.0,0.0,0.0
0.643,0.204,-0.22,0.943,5.244,0.976,0.732,0.0,0.0,0.0,0.0,0.0,0.0,0.0,0.0
0.653,0.205,-0.221,0.956,3.415,2.012,0.854,0.0,0.0,0.0,0.0,0.0,0.0,0.0,0.0
0.662,0.2045,-0.22225,0.95675,-0.549,0.793,1.098,0.0,0.0,0.0,0.0,0.0,0.0,0.0,0.0
0.672,0.20400000000000001,-0.2235,0.9575,-3.476,-0.427,1.402,0.0,0.0,0.0,0.0,0.0,0.0,0.0,0.0
0.682,0.20350000000000001,-0.22475,0.9582499999999999,-4.146,-1.037,1.341,0.0,0.0,0.0,0.0,0.0,0.0,0.0,0.0
0.693,0.203,-0.226,0.959,-2.073,-1.341,1.28,0.0,0.0,0.0,0.0,0.0,0.0,0.0,0.0
0.703,0.196,-0.224,0.94,-0.488,-1.22,0.244,0.0,0.0,0.0,0.0,0.0,0.0,0.0,0.0
0.713,0.1962,-0.2256,0.9443999999999999,-0.732,-0.671,-0.793,0.0,0.0,0.0,0.0,0.0,0.0,0.0,0.0
0.722,0.19640000000000002,-0.2272,0.9488,-1.951,-0.488,-1.402,0.0,0.0,0.0,0.0,0.0,0.0,0.0,0.0
0.732,0.1966,-0.2288,0.9531999999999999,-3.72,-1.159,-1.585,0.0,0.0,0.0,0.0,0.0,0.0,0.0,0.0
0.742,0.1968,-0.23040000000000002,0.9576,-5.366,-1.89,-1.402,0.0,0.0,0.0,0.0,0.0,0.0,0.0,0.0
0.753,0.197,-0.232,0.962,-6.646,-1.341,-0.549,0.0,0.0,0.0,0.0,0.0,0.0,0.0,0.0
0.763,0.205,-0.238,0.967,-6.463,-0.488,0.549,0.0,0.0,0.0,0.0,0.0,0.0,0.0,0.0
0.773,0.20199999999999999,-0.2352,0.965,-4.573,0.0,1.402,0.0,0.0,0.0,0.0,0.0,0.0,0.0,0.0
0.783,0.19899999999999998,-0.2324,0.963,-2.073,1.341,1.463,0.0,0.0,0.0,0.0,0.0,0.0,0.0,0.0
0.792,0.196,-0.2296,0.961,-1.22,2.317,1.098,0.0,0.0,0.0,0.0,0.0,0.0,0.0,0.0
0.802,0.193,-0.2268,0.959,-1.524,2.561,0.854,0.0,0.0,0.0,0.0,0.0,0.0,0.0,0.0
0.813,0.19,-0.224,0.957,-1.89,2.317,1.098,0.0,0.0,0.0,0.0,0.0,0.0,0.0,0.0
0.823,0.195,-0.224,0.949,-1.28,2.073,1.646,0.0,0.0,0.0,0.0,0.0,0.0,0.0,0.0
0.833,0.19766666666666668,-0.22566666666666668,0.9463333333333332,-0.305,2.5,2.439,0.0,0.0,0.0,0.0,0.0,0.0,0.0,0.0
0.843,0.20033333333333334,-0.22733333333333333,0.9436666666666667,0.305,2.561,3.354,0.0,0.0,0.0,0.0,0.0,0.0,0.0,0.0
0.854,0.203,-0.229,0.941,1.524,1.829,3.902,0.0,0.0,0.0,0.0,0.0,0.0,0.0,0.0
0.862,0.1996666666666667,-0.22633333333333333,0.942,0.793,0.671,3.659,0.0,0.0,0.0,0.0,0.0,0.0,0.0,0.0
0.873,0.19633333333333333,-0.22366666666666668,0.943,-0.732,-1.585,3.415,0.0,0.0,0.0,0.0,0.0,0.0,0.0,0.0
0.883,0.193,-0.221,0.944,-0.732,-1.585,3.415,0.0,0.0,0.0,0.0,0.0,0.0,0.0,0.0
0.893,0.198,-0.22166666666666668,0.9416666666666667,-0.183,-0.488,3.963,0.0,0.0,0.0,0.0,0.0,0.0,0.0,0.0
0.903,0.20299999999999999,-0.22233333333333333,0.9393333333333334,0.488,-0.061,4.756,0.0,0.0,0.0,0.0,0.0,0.0,0.0,0.0
0.914,0.208,-0.223,0.937,0.732,0.915,5.732,0.0,0.0,0.0,0.0,0.0,0.0,0.0,0.0
0.924,0.214,-0.219,0.94,1.524,1.524,5.854,0.0,0.0,0.0,0.0,0.0,0.0,0.0,0.0
0.933,0.2135,-0.21575,0.9422499999999999,1.463,-0.488,5.244,0.0,0.0,0.0,0.0,0.0,0.0,0.0,0.0
0.943,0.213,-0.2125,0.9444999999999999,0.183,-2.683,4.268,0.0,0.0,0.0,0.0,0.0,0.0,0.0,0.0
0.953,0.2125,-0.20925,0.94675,-0.61,-1.646,3.354,0.0,0.0,0.0,0.0,0.0,0.0,0.0,0.0
0.964,0.212,-0.206,0.949,-1.037,0.732,2.317,0.0,0.0,0.0,0.0,0.0,0.0,0.0,0.0
0.974,0.214,-0.208,0.955,-2.988,1.28,1.22,0.0,0.0,0.0,0.0,0.0,0.0,0.0,0.0
0.984,0.2132,-0.2098,0.9466,-4.512,-0.122,0.427,0.0,0.0,0.0,0.0,0.0,0.0,0.0,0.0
0.993,0.2124,-0.21159999999999998,0.9382,-5.244,-1.159,0.061,0.0,0.0,0.0,0.0,0.0,0.0,0.0,0.0
1.003,0.21159999999999998,-0.2134,0.9298,-3.415,-2.073,-0.366,0.0,0.0,0.0,0.0,0.0,0.0,0.0,0.0
1.013,0.2108,-0.2152,0.9214,-0.183,-2.317,-0.549,0.0,0.0,0.0,0.0,0.0,0.0,0.0,0.0
1.024,0.21,-0.217,0.913,2.805,-1.89,-0.671,0.0,0.0,0.0,0.0,0.0,0.0,0.0,0.0
1.034,0.209,-0.215,0.912,4.451,-1.341,-0.671,0.0,0.0,0.0,0.0,0.0,0.0,0.0,0.0
1.044,0.2092,-0.2162,0.9206,3.415,-1.524,-0.854,0.0,0.0,0.0,0.0,0.0,0.0,0.0,0.0
1.054,0.2094,-0.2174,0.9292,0.793,-1.829,-0.915,0.0,0.0,0.0,0.0,0.0,0.0,0.0,0.0
1.063,0.20959999999999998,-0.2186,0.9378,-0.366,-1.22,-0.793,0.0,0.0,0.0,0.0,0.0,0.0,0.0,0.0
1.073,0.2098,-0.2198,0.9464,-1.951,-1.585,-0.488,0.0,0.0,0.0,0.0,0.0,0.0,0.0,0.0
1.084,0.21,-0.221,0.955,-2.561,-1.463,-0.122,0.0,0.0,0.0,0.0,0.0,0.0,0.0,0.0
1.094,0.209,-0.222,0.953,-0.915,-1.28,0.0,0.0,0.0,0.0,0.0,0.0,0.0,0.0,0.0
1.104,0.20766666666666667,-0.22366666666666668,0.9546666666666667,0.244,-1.89,0.244,0.0,0.0,0.0,0.0,0.0,0.0,0.0,0.0
1.114,0.2063333333333333,-0.22533333333333333,0.9563333333333333,0.671,-2.134,0.488,0.0,0.0,0.0,0.0,0.0,0.0,0.0,0.0
1.125,0.205,-0.227,0.958,2.012,-2.012,0.427,0.0,0.0,0.0,0.0,0.0,0.0,0.0,0.0
1.133,0.206,-0.226,0.9584999999999999,1.829,-0.61,0.366,0.0,0.0,0.0,0.0,0.0,0.0,0.0,0.0
1.144,0.207,-0.225,0.959,0.244,0.976,0.854,0.0,0.0,0.0,0.0,0.0,0.0,0.0,0.0
1.154,0.209,-0.225,0.978,0.061,3.354,1.89,0.0,0.0,0.0,0.0,0.0,0.0,0.0,0.0
1.164,0.21133333333333332,-0.22966666666666666,0.974,-0.732,3.963,3.171,0.0,0.0,0.0,0.0,0.0,0.0,0.0,0.0
1.174,0.21366666666666667,-0.23433333333333334,0.97,-1.707,3.293,3.598,0.0,0.0,0.0,0.0,0.0,0.0,0.0,0.0
1.185,0.216,-0.239,0.966,-2.5,2.744,3.537,0.0,0.0,0.0,0.0,0.0,0.0,0.0,0.0
1.195,0.216,-0.23,0.959,-2.073,2.256,3.415,0.0,0.0,0.0,0.0,0.0,0.0,0.0,0.0
1.204,0.21125,-0.226,0.95075,-0.183,2.317,2.927,0.0,0.0,0.0,0.0,0.0,0.0,0.0,0.0
1.214,0.20650000000000002,-0.222,0.9425,-0.061,1.22,2.256,0.0,0.0,0.0,0.0,0.0,0.0,0.0,0.0
1.224,0.20175,-0.218,0.93425,-0.793,-0.976,1.463,0.0,0.0,0.0,0.0,0.0,0.0,0.0,0.0
1.235,0.197,-0.214,0.926,-0.183,-0.854,1.28,0.0,0.0,0.0,0.0,0.0,0.0,0.0,0.0
1.245,0.202,-0.217,0.926,-0.366,-0.244,1.037,0.0,0.0,0.0,0.0,0.0,0.0,0.0,0.0
1.255,0.2048,-0.2164,0.9282,-0.488,0.366,0.549,0.0,0.0,0.0,0.0,0.0,0.0,0.0,0.0
1.264,0.2076,-0.2158,0.9304,-0.61,1.402,0.549,0.0,0.0,0.0,0.0,0.0,0.0,0.0,0.0
1.274,0.2104,-0.2152,0.9326000000000001,-0.915,2.012,0.549,0.0,0.0,0.0,0.0,0.0,0.0,0.0,0.0
1.284,0.2132,-0.21459999999999999,0.9348000000000001,-1.28,1.585,0.183,0.0,0.0,0.0,0.0,0.0,0.0,0.0,0.0
1.295,0.216,-0.214,0.937,-2.317,-0.061,0.061,0.0,0.0,0.0,0.0,0.0,0.0,0.0,0.0
1.305,0.212,-0.22,0.934,-3.171,-2.012,-0.549,0.0,0.0,0.0,0.0,0.0,0.0,0.0,0.0
1.315,0.2112,-0.2206,0.9378000000000001,-2.256,-1.89,-0.854,0.0,0.0,0.0,0.0,0.0,0.0,0.0,0.0
1.325,0.2104,-0.2212,0.9416,-0.854,-0.061,-1.037,0.0,0.0,0.0,0.0,0.0,0.0,0.0,0.0
1.334,0.20959999999999998,-0.2218,0.9454,-0.427,1.22,-0.732,0.0,0.0,0.0,0.0,0.0,0.0,0.0,0.0
1.344,0.20879999999999999,-0.22240000000000001,0.9491999999999999,-0.61,1.707,0.183,0.0,0.0,0.0,0.0,0.0,0.0,0.0,0.0
1.355,0.208,-0.223,0.953,0.915,2.378,0.488,0.0,0.0,0.0,0.0,0.0,0.0,0.0,0.0
1.365,0.211,-0.228,0.946,1.159,1.463,0.427,0.0,0.0,0.0,0.0,0.0,0.0,0.0,0.0
1.375,0.20833333333333334,-0.22266666666666668,0.9486666666666667,-0.671,1.037,0.427,0.0,0.0,0.0,0.0,0.0,0.0,0.0,0.0
1.385,0.20566666666666666,-0.21733333333333332,0.9513333333333333,-0.488,1.524,-0.244,0.0,0.0,0.0,0.0,0.0,0.0,0.0,0.0
1.396,0.203,-0.212,0.954,0.183,1.037,-0.671,0.0,0.0,0.0,0.0,0.0,0.0,0.0,0.0
1.404,0.20400000000000001,-0.21533333333333332,0.95,0.427,0.915,-0.61,0.0,0.0,0.0,0.0,0.0,0.0,0.0,0.0
1.415,0.205,-0.21866666666666668,0.946,1.098,1.768,-0.732,0.0,0.0,0.0,0.0,0.0,0.0,0.0,0.0
1.425,0.206,-0.222,0.942,0.488,1.524,-0.793,0.0,0.0,0.0,0.0,0.0,0.0,0.0,0.0
1.435,0.208,-0.22566666666666668,0.9463333333333332,-1.89,0.427,-0.732,0.0,0.0,0.0,0.0,0.0,0.0,0.0,0.0
1.445,0.21,-0.22933333333333333,0.9506666666666667,-3.293,0.793,-0.183,0.0,0.0,0.0,0.0,0.0,0.0,0.0,0.0
1.456,0.212,-0.233,0.955,-2.805,1.524,0.427,0.0,0.0,0.0,0.0,0.0,0.0,0.0,0.0
1.465,0.211,-0.2318,0.9514,-1.707,1.707,1.28,0.0,0.0,0.0,0.0,0.0,0.0,0.0,0.0
1.475,0.21,-0.2306,0.9478,0.122,2.561,2.012,0.0,0.0,0.0,0.0,0.0,0.0,0.0,0.0
1.485,0.209,-0.22940000000000002,0.9442,2.317,3.354,2.012,0.0,0.0,0.0,0.0,0.0,0.0,0.0,0.0
1.495,0.208,-0.22820000000000001,0.9406,2.744,2.073,1.402,0.0,0.0,0.0,0.0,0.0,0.0,0.0,0.0
1.506,0.207,-0.227,0.937,1.037,0.671,1.037,0.0,0.0,0.0,0.0,0.0,0.0,0.0,0.0
1.516,0.204,-0.22,0.94,0.244,1.463,1.037,0.0,0.0,0.0,0.0,0.0,0.0,0.0,0.0
1.526,0.2054,-0.22,0.9394,-0.122,2.805,0.732,0.0,0.0,0.0,0.0,0.0,0.0,0.0,0.0
1.535,0.20679999999999998,-0.22,0.9388,-2.439,2.622,0.183,0.0,0.0,0.0,0.0,0.0,0.0,0.0,0.0
1.545,0.2082,-0.22,0.9382,-5.0,1.585,0.183,0.0,0.0,0.0,0.0,0.0,0.0,0.0,0.0
1.555,0.20959999999999998,-0.22,0.9376,-5.183,1.037,0.061,0.0,0.0,0.0,0.0,0.0,0.0,0.0,0.0
1.566,0.211,-0.22,0.937,-3.354,0.61,0.305,0.0,0.0,0.0,0.0,0.0,0.0,0.0,0.0
1.576,0.208,-0.23,0.931,-1.159,0.915,0.366,0.0,0.0,0.0,0.0,0.0,0.0,0.0,0.0
1.586,0.20959999999999998,-0.23120000000000002,0.9338000000000001,-0.427,0.854,-0.061,0.0,0.0,0.0,0.0,0.0,0.0,0.0,0.0
1.596,0.2112,-0.2324,0.9366,-1.585,-0.854,-0.671,0.0,0.0,0.0,0.0,0.0,0.0,0.0,0.0
1.605,0.2128,-0.2336,0.9394,-2.5,-1.829,-0.183,0.0,0.0,0.0,0.0,0.0,0.0,0.0,0.0
1.615,0.2144,-0.23479999999999998,0.9421999999999999,-0.732,-0.488,0.366,0.0,0.0,0.0,0.0,0.0,0.0,0.0,0.0
1.626,0.216,-0.236,0.945,0.732,0.732,0.549,0.0,0.0,0.0,0.0,0.0,0.0,0.0,0.0
1.636,0.215,-0.238,0.945,0.549,0.671,0.671,0.0,0.0,0.0,0.0,0.0,0.0,0.0,0.0
1.646,0.21333333333333332,-0.236,0.9486666666666667,-0.366,0.732,0.61,0.0,0.0,0.0,0.0,0.0,0.0,0.0,0.0
1.656,0.21166666666666667,-0.234,0.9523333333333333,-0.854,0.732,0.732,0.0,0.0,0.0,0.0,0.0,0.0,0.0,0.0
1.667,0.21,-0.232,0.956,-0.976,0.732,1.037,0.0,0.0,0.0,0.0,0.0,0.0,0.0,0.0
1.675,0.2075,-0.229,0.947,-1.037,-0.427,0.976,0.0,0.0,0.0,0.0,0.0,0.0,0.0,0.0
1.686,0.205,-0.226,0.938,-0.488,-0.854,0.366,0.0,0.0,0.0,0.0,0.0,0.0,0.0,0.0
1.696,0.205,-0.22,0.926,-0.427,-1.28,-0.488,0.0,0.0,0.0,0.0,0.0,0.0,0.0,0.0
1.706,0.206,-0.22233333333333333,0.937,-1.159,-1.402,-0.671,0.0,0.0,0.0,0.0,0.0,0.0,0.0,0.0
1.716,0.207,-0.22466666666666668,0.948,-2.256,-0.915,-0.061,0.0,0.0,0.0,0.0,0.0,0.0,0.0,0.0
1.727,0.208,-0.227,0.959,-1.402,0.793,1.098,0.0,0.0,0.0,0.0,0.0,0.0,0.0,0.0
1.736,0.208,-0.2262,0.9536,1.037,1.768,2.317,0.0,0.0,0.0,0.0,0.0,0.0,0.0,0.0
1.746,0.208,-0.22540000000000002,0.9482,1.707,1.768,3.171,0.0,0.0,0.0,0.0,0.0,0.0,0.0,0.0
1.756,0.208,-0.2246,0.9428,0.732,0.61,3.537,0.0,0.0,0.0,0.0,0.0,0.0,0.0,0.0
1.766,0.208,-0.2238,0.9374,1.098,0.183,3.72,0.0,0.0,0.0,0.0,0.0,0.0,0.0,0.0
1.777,0.208,-0.223,0.932,2.256,0.488,3.72,0.0,0.0,0.0,0.0,0.0,0.0,0.0,0.0
1.787,0.216,-0.226,0.935,2.988,1.159,3.537,0.0,0.0,0.0,0.0,0.0,0.0,0.0,0.0
1.797,0.21459999999999999,-0.2246,0.9408000000000001,3.232,1.037,2.561,0.0,0.0,0.0,0.0,0.0,0.0,0.0,0.0
1.806,0.2132,-0.2232,0.9466,-0.976,-0.549,1.037,0.0,0.0,0.0,0.0,0.0,0.0,0.0,0.0
1.816,0.2118,-0.2218,0.9524,-2.866,-0.305,0.305,0.0,0.0,0.0,0.0,0.0,0.0,0.0,0.0
1.826,0.2104,-0.2204,0.9581999999999999,-3.293,0.976,0.427,0.0,0.0,0.0,0.0,0.0,0.0,0.0,0.0
1.837,0.209,-0.219,0.964,-1.89,1.341,1.098,0.0,0.0,0.0,0.0,0.0,0.0,0.0,0.0
1.847,0.212,-0.229,0.95,0.854,2.378,1.951,0.0,0.0,0.0,0.0,0.0,0.0,0.0,0.0
1.857,0.2108,-0.2286,0.9493999999999999,2.5,4.512,2.439,0.0,0.0,0.0,0.0,0.0,0.0,0.0,0.0
1.866,0.20959999999999998,-0.22820000000000001,0.9488,4.085,6.585,2.744,0.0,0.0,0.0,0.0,0.0,0.0,0.0,0.0
1.876,0.2084,-0.2278,0.9481999999999999,3.354,5.671,2.439,0.0,0.0,0.0,0.0,0.0,0.0,0.0,0.0
1.886,0.2072,-0.22740000000000002,0.9476,0.976,3.415,2.378,0.0,0.0,0.0,0.0,0.0,0.0,0.0,0.0
1.897,0.206,-0.227,0.947,-0.549,2.622,2.744,0.0,0.0,0.0,0.0,0.0,0.0,0.0,0.0
1.907,0.21,-0.227,0.945,-1.341,3.171,2.744,0.0,0.0,0.0,0.0,0.0,0.0,0.0,0.0
1.917,0.2092,-0.2272,0.9406,-1.28,4.329,2.012,0.0,0.0,0.0,0.0,0.0,0.0,0.0,0.0
1.927,0.2084,-0.22740000000000002,0.9362,-1.707,4.268,1.341,0.0,0.0,0.0,0.0,0.0,0.0,0.0,0.0
1.936,0.20759999999999998,-0.2276,0.9318,-2.683,3.11,1.037,0.0,0.0,0.0,0.0,0.0,0.0,0.0,0.0
1.946,0.20679999999999998,-0.2278,0.9274,-1.28,2.439,0.793,0.0,0.0,0.0,0.0,0.0,0.0,0.0,0.0
1.957,0.206,-0.228,0.923,0.366,1.646,0.732,0.0,0.0,0.0,0.0,0.0,0.0,0.0,0.0
1.967,0.203,-0.232,0.928,1.098,0.732,0.732,0.0,0.0,0.0,0.0,0.0,0.0,0.0,0.0
1.977,0.20466666666666666,-0.229,0.9296666666666668,1.341,-0.183,0.61,0.0,0.0,0.0,0.0,0.0,0.0,0.0,0.0
1.987,0.20633333333333334,-0.226,0.9313333333333333,-0.183,-1.768,0.61,0.0,0.0,0.0,0.0,0.0,0.0,0.0,0.0
1.998,0.208,-0.223,0.933,-0.305,-1.707,0.732,0.0,0.0,0.0,0.0,0.0,0.0,0.0,0.0
2.007,0.20759999999999998,-0.22340000000000002,0.9358000000000001,0.976,-0.244,0.976,0.0,0.0,0.0,0.0,0.0,0.0,0.0,0.0
2.017,0.2072,-0.2238,0.9386,1.22,1.341,1.585,0.0,0.0,0.0,0.0,0.0,0.0,0.0,0.0
2.027,0.20679999999999998,-0.2242,0.9414,1.037,1.951,1.951,0.0,0.0,0.0,0.0,0.0,0.0,0.0,0.0
2.037,0.2064,-0.2246,0.9441999999999999,1.402,2.195,1.951,0.0,0.0,0.0,0.0,0.0,0.0,0.0,0.0
2.048,0.206,-0.225,0.947,1.341,2.073,1.707,0.0,0.0,0.0,0.0,0.0,0.0,0.0,0.0
2.058,0.207,-0.221,0.943,0.366,1.28,1.098,0.0,0.0,0.0,0.0,0.0,0.0,0.0,0.0
2.068,0.20679999999999998,-0.2232,0.9441999999999999,-0.366,0.793,0.915,0.0,0.0,0.0,0.0,0.0,0.0,0.0,0.0
2.077,0.20659999999999998,-0.22540000000000002,0.9453999999999999,-0.549,0.976,0.915,0.0,0.0,0.0,0.0,0.0,0.0,0.0,0.0
2.087,0.2064,-0.2276,0.9466,-0.549,1.524,0.793,0.0,0.0,0.0,0.0,0.0,0.0,0.0,0.0
2.097,0.2062,-0.2298,0.9478,-1.22,1.707,1.037,0.0,0.0,0.0,0.0,0.0,0.0,0.0,0.0
2.108,0.206,-0.232,0.949,-1.707,1.28,1.098,0.0,0.0,0.0,0.0,0.0,0.0,0.0,0.0
2.118,0.206,-0.229,0.945,-1.037,0.366,0.732,0.0,0.0,0.0,0.0,0.0,0.0,0.0,0.0
2.128,0.2064,-0.2308,0.945,-0.366,0.61,0.854,0.0,0.0,0.0,0.0,0.0,0.0,0.0,0.0
2.137,0.20679999999999998,-0.2326,0.945,0.732,2.317,1.585,0.0,0.0,0.0,0.0,0.0,0.0,0.0,0.0
2.147,0.2072,-0.2344,0.945,0.854,2.866,2.5,0.0,0.0,0.0,0.0,0.0,0.0,0.0,0.0
2.157,0.20759999999999998,-0.2362,0.945,0.122,2.195,3.049,0.0,0.0,0.0,0.0,0.0,0.0,0.0,0.0
2.168,0.208,-0.238,0.945,-0.427,1.829,3.293,0.0,0.0,0.0,0.0,0.0,0.0,0.0,0.0
2.178,0.209,-0.236,0.945,-0.244,1.463,3.232,0.0,0.0,0.0,0.0,0.0,0.0,0.0,0.0
2.188,0.20879999999999999,-0.2342,0.9443999999999999,0.61,0.915,3.293,0.0,0.0,0.0,0.0,0.0,0.0,0.0,0.0
2.198,0.20859999999999998,-0.2324,0.9438,1.402,0.549,3.476,0.0,0.0,0.0,0.0,0.0,0.0,0.0,0.0
2.207,0.2084,-0.2306,0.9431999999999999,2.195,0.061,3.354,0.0,0.0,0.0,0.0,0.0,0.0,0.0,0.0
2.217,0.2082,-0.2288,0.9426,3.293,-0.061,3.415,0.0,0.0,0.0,0.0,0.0,0.0,0.0,0.0
2.228,0.208,-0.227,0.942,3.11,0.0,3.415,0.0,0.0,0.0,0.0,0.0,0.0,0.0,0.0
2.238,0.213,-0.227,0.944,2.012,0.183,3.293,0.0,0.0,0.0,0.0,0.0,0.0,0.0,0.0
2.248,0.21033333333333332,-0.22433333333333333,0.9473333333333332,1.402,1.22,2.927,0.0,0.0,0.0,0.0,0.0,0.0,0.0,0.0
2.258,0.20766666666666667,-0.22166666666666668,0.9506666666666667,1.159,2.256,2.866,0.0,0.0,0.0,0.0,0.0,0.0,0.0,0.0
2.269,0.205,-0.219,0.954,1.098,2.683,2.927,0.0,0.0,0.0,0.0,0.0,0.0,0.0,0.0
2.278,0.20299999999999999,-0.2174,0.9523999999999999,0.793,2.134,2.866,0.0,0.0,0.0,0.0,0.0,0.0,0.0,0.0
2.288,0.20099999999999998,-0.2158,0.9508,0.0,1.89,2.5,0.0,0.0,0.0,0.0,0.0,0.0,0.0,0.0
2.298,0.199,-0.2142,0.9491999999999999,-0.122,2.073,1.951,0.0,0.0,0.0,0.0,0.0,0.0,0.0,0.0
2.308,0.197,-0.21259999999999998,0.9476,-1.829,0.915,0.915,0.0,0.0,0.0,0.0,0.0,0.0,0.0,0.0
2.319,0.195,-0.211,0.946,-4.39,-0.671,0.061,0.0,0.0,0.0,0.0,0.0,0.0,0.0,0.0
2.329,0.189,-0.207,0.95,-4.634,0.122,-0.427,0.0,0.0,0.0,0.0,0.0,0.0,0.0,0.0
2.339,0.1906,-0.2094,0.9458,-2.378,1.463,-0.854,0.0,0.0,0.0,0.0,0.0,0.0,0.0,0.0
2.348,0.1922,-0.2118,0.9416,-0.854,1.098,-1.22,0.0,0.0,0.0,0.0,0.0,0.0,0.0,0.0
2.358,0.1938,-0.2142,0.9374,-0.61,1.341,-1.22,0.0,0.0,0.0,0.0,0.0,0.0,0.0,0.0
2.368,0.19540000000000002,-0.2166,0.9332,0.671,1.768,-1.037,0.0,0.0,0.0,0.0,0.0,0.0,0.0,0.0
2.379,0.197,-0.219,0.929,0.915,0.976,-1.098,0.0,0.0,0.0,0.0,0.0,0.0,0.0,0.0
2.389,0.204,-0.224,0.931,-0.976,-0.732,-1.098,0.0,0.0,0.0,0.0,0.0,0.0,0.0,0.0
2.399,0.205,-0.226,0.9328000000000001,-3.598,-0.915,-1.037,0.0,0.0,0.0,0.0,0.0,0.0,0.0,0.0
2.408,0.206,-0.228,0.9346,-3.537,0.183,-0.732,0.0,0.0,0.0,0.0,0.0,0.0,0.0,0.0
2.418,0.207,-0.23,0.9364,-2.195,0.427,-0.427,0.0,0.0,0.0,0.0,0.0,0.0,0.0,0.0
2.428,0.208,-0.232,0.9381999999999999,-0.549,1.037,-0.122,0.0,0.0,0.0,0.0,0.0,0.0,0.0,0.0
2.439,0.209,-0.234,0.94,0.671,2.5,0.305,0.0,0.0,0.0,0.0,0.0,0.0,0.0,0.0
2.449,0.208,-0.229,0.942,1.098,2.683,0.427,0.0,0.0,0.0,0.0,0.0,0.0,0.0,0.0
2.459,0.207,-0.22940000000000002,0.9413999999999999,1.159,1.585,0.305,0.0,0.0,0.0,0.0,0.0,0.0,0.0,0.0
2.469,0.206,-0.2298,0.9408,1.707,1.037,0.366,0.0,0.0,0.0,0.0,0.0,0.0,0.0,0.0
2.478,0.20500000000000002,-0.23020000000000002,0.9401999999999999,2.439,1.585,0.061,0.0,0.0,0.0,0.0,0.0,0.0,0.0,0.0
2.488,0.20400000000000001,-0.2306,0.9396,1.951,1.402,-0.061,0.0,0.0,0.0,0.0,0.0,0.0,0.0,0.0
2.499,0.203,-0.231,0.939,0.732,0.244,-0.061,0.0,0.0,0.0,0.0,0.0,0.0,0.0,0.0
2.509,0.204,-0.23,0.943,1.098,0.488,0.0,0.0,0.0,0.0,0.0,0.0,0.0,0.0,0.0
2.519,0.2063333333333333,-0.23333333333333334,0.945,1.22,0.793,0.427,0.0,0.0,0.0,0.0,0.0,0.0,0.0,0.0
2.529,0.20866666666666667,-0.23666666666666666,0.947,0.183,0.61,1.159,0.0,0.0,0.0,0.0,0.0,0.0,0.0,0.0
2.54,0.211,-0.24,0.949,-0.061,0.488,1.707,0.0,0.0,0.0,0.0,0.0,0.0,0.0,0.0
2.549,0.20879999999999999,-0.23679999999999998,0.9464,0.854,1.341,2.012,0.0,0.0,0.0,0.0,0.0,0.0,0.0,0.0
2.559,0.2066,-0.2336,0.9438,1.28,1.707,1.951,0.0,0.0,0.0,0.0,0.0,0.0,0.0,0.0
2.569,0.2044,-0.2304,0.9412,1.341,1.585,1.524,0.0,0.0,0.0,0.0,0.0,0.0,0.0,0.0
2.579,0.20220000000000002,-0.2272,0.9386,1.159,1.951,0.915,0.0,0.0,0.0,0.0,0.0,0.0,0.0,0.0
2.59,0.2,-0.224,0.936,0.366,1.768,0.488,0.0,0.0,0.0,0.0,0.0,0.0,0.0,0.0
2.6,0.2,-0.224,0.941,-0.61,1.037,0.061,0.0,0.0,0.0,0.0,0.0,0.0,0.0,0.0
2.61,0.1998,-0.22240000000000001,0.9428,-1.037,0.732,-0.488,0.0,0.0,0.0,0.0,0.0,0.0,0.0,0.0
2.619,0.1996,-0.2208,0.9446,-1.89,-0.061,-1.402,0.0,0.0,0.0,0.0,0.0,0.0,0.0,0.0
2.629,0.19940000000000002,-0.2192,0.9463999999999999,-3.415,-1.402,-1.89,0.0,0.0,0.0,0.0,0.0,0.0,0.0,0.0
2.639,0.19920000000000002,-0.2176,0.9481999999999999,-3.659,-1.22,-1.585,0.0,0.0,0.0,0.0,0.0,0.0,0.0,0.0
2.65,0.199,-0.216,0.95,-1.951,0.122,-1.098,0.0,0.0,0.0,0.0,0.0,0.0,0.0,0.0
2.66,0.209,-0.228,0.949,-0.854,1.646,-0.305,0.0,0.0,0.0,0.0,0.0,0.0,0.0,0.0
2.67,0.2076,-0.22740000000000002,0.9493999999999999,0.183,3.232,-0.061,0.0,0.0,0.0,0.0,0.0,0.0,0.0,0.0
2.679,0.2062,-0.2268,0.9498,0.061,3.659,-0.488,0.0,0.0,0.0,0.0,0.0,0.0,0.0,0.0
2.689,0.2048,-0.2262,0.9501999999999999,-1.524,2.805,-1.037,0.0,0.0,0.0,0.0,0.0,0.0,0.0,0.0
2.699,0.2034,-0.2256,0.9506,-2.683,2.256,-1.28,0.0,0.0,0.0,0.0,0.0,0.0,0.0,0.0
2.71,0.202,-0.225,0.951,-2.683,2.439,-0.976,0.0,0.0,0.0,0.0,0.0,0.0,0.0,0.0
2.72,0.2,-0.229,0.95,-1.28,2.439,-0.976,0.0,0.0,0.0,0.0,0.0,0.0,0.0,0.0
2.73,0.1998,-0.22940000000000002,0.9478,-0.122,1.768,-1.341,0.0,0.0,0.0,0.0,0.0,0.0,0.0,0.0
2.74,0.1996,-0.2298,0.9456,0.122,1.402,-1.524,0.0,0.0,0.0,0.0,0.0,0.0,0.0,0.0
2.749,0.19940000000000002,-0.23020000000000002,0.9433999999999999,-0.061,1.22,-1.646,0.0,0.0,0.0,0.0,0.0,0.0,0.0,0.0
2.759,0.19920000000000002,-0.2306,0.9411999999999999,-0.305,1.037,-1.341,0.0,0.0,0.0,0.0,0.0,0.0,0.0,0.0
2.77,0.199,-0.231,0.939,0.0,0.976,-1.22,0.0,0.0,0.0,0.0,0.0,0.0,0.0,0.0
2.78,0.207,-0.236,0.934,0.854,0.488,-1.28,0.0,0.0,0.0,0.0,0.0,0.0,0.0,0.0
2.79,0.208,-0.2383333333333333,0.935,0.976,0.122,-1.037,0.0,0.0,0.0,0.0,0.0,0.0,0.0,0.0
2.8,0.209,-0.24066666666666667,0.936,1.28,0.61,-0.793,0.0,0.0,0.0,0.0,0.0,0.0,0.0,0.0
2.811,0.21,-0.243,0.937,1.159,1.341,-0.183,0.0,0.0,0.0,0.0,0.0,0.0,0.0,0.0
2.82,0.212,-0.244,0.9450000000000001,-0.183,0.793,0.183,0.0,0.0,0.0,0.0,0.0,0.0,0.0,0.0
2.83,0.214,-0.245,0.953,-1.037,0.244,0.732,0.0,0.0,0.0,0.0,0.0,0.0,0.0,0.0
2.84,0.21366666666666667,-0.24366666666666667,0.9503333333333333,-0.915,1.159,1.402,0.0,0.0,0.0,0.0,0.0,0.0,0.0,0.0
2.85,0.21333333333333332,-0.24233333333333332,0.9476666666666667,0.61,2.683,1.463,0.0,0.0,0.0,0.0,0.0,0.0,0.0,0.0
2.861,0.213,-0.241,0.945,1.707,3.171,1.037,0.0,0.0,0.0,0.0,0.0,0.0,0.0,0.0
2.871,0.203,-0.233,0.94,1.22,2.256,0.732,0.0,0.0,0.0,0.0,0.0,0.0,0.0,0.0
2.88,0.20120000000000002,-0.23,0.9426,1.707,1.585,0.854,0.0,0.0,0.0,0.0,0.0,0.0,0.0,0.0
2.89,0.19940000000000002,-0.227,0.9451999999999999,2.439,1.829,0.671,0.0,0.0,0.0,0.0,0.0,0.0,0.0,0.0
2.9,0.1976,-0.224,0.9478,0.915,1.22,0.244,0.0,0.0,0.0,0.0,0.0,0.0,0.0,0.0
2.91,0.1958,-0.221,0.9503999999999999,-0.488,0.732,-0.305,0.0,0.0,0.0,0.0,0.0,0.0,0.0,0.0
2.921,0.194,-0.218,0.953,-0.732,0.915,-0.732,0.0,0.0,0.0,0.0,0.0,0.0,0.0,0.0
2.931,0.193,-0.225,0.951,-1.402,1.28,-0.488,0.0,0.0,0.0,0.0,0.0,0.0,0.0,0.0
2.941,0.195,-0.2258,0.9506,-1.829,1.402,-0.183,0.0,0.0,0.0,0.0,0.0,0.0,0.0,0.0
2.95,0.197,-0.2266,0.9501999999999999,-1.098,1.829,0.183,0.0,0.0,0.0,0.0,0.0,0.0,0.0,0.0
2.96,0.199,-0.22740000000000002,0.9498,-0.366,2.134,0.732,0.0,0.0,0.0,0.0,0.0,0.0,0.0,0.0
2.97,0.201,-0.22820000000000001,0.9493999999999999,0.183,2.744,0.915,0.0,0.0,0.0,0.0,0.0,0.0,0.0,0.0
2.981,0.203,-0.229,0.949,0.244,2.805,0.671,0.0,0.0,0.0,0.0,0.0,0.0,0.0,0.0
2.991,0.202,-0.229,0.948,-0.366,1.951,0.305,0.0,0.0,0.0,0.0,0.0,0.0,0.0,0.0
3.001,0.2016,-0.2276,0.9481999999999999,-0.671,1.341,-0.183,0.0,0.0,0.0,0.0,0.0,0.0,0.0,0.0
3.011,0.20120000000000002,-0.2262,0.9483999999999999,-1.159,1.463,-0.549,0.0,0.0,0.0,0.0,0.0,0.0,0.0,0.0
3.02,0.2008,-0.2248,0.9486,-1.707,1.707,-0.854,0.0,0.0,0.0,0.0,0.0,0.0,0.0,0.0
3.03,0.20040000000000002,-0.22340000000000002,0.9488,-2.744,1.22,-1.098,0.0,0.0,0.0,0.0,0.0,0.0,0.0,0.0
3.041,0.2,-0.222,0.949,-2.927,1.707,-0.61,0.0,0.0,0.0,0.0,0.0,0.0,0.0,0.0
3.051,0.203,-0.231,0.95,-1.951,3.232,0.305,0.0,0.0,0.0,0.0,0.0,0.0,0.0,0.0
3.061,0.19940000000000002,-0.2298,0.9451999999999999,-0.061,4.451,1.159,0.0,0.0,0.0,0.0,0.0,0.0,0.0,0.0
3.071,0.1958,-0.2286,0.9404,0.61,4.756,1.585,0.0,0.0,0.0,0.0,0.0,0.0,0.0,0.0
3.08,0.1922,-0.22740000000000002,0.9356,1.037,4.085,1.463,0.0,0.0,0.0,0.0,0.0,0.0,0.0,0.0
3.091,0.1886,-0.2262,0.9308000000000001,1.341,2.744,0.671,0.0,0.0,0.0,0.0,0.0,0.0,0.0,0.0
3.101,0.185,-0.225,0.926,1.159,1.098,-0.671,0.0,0.0,0.0,0.0,0.0,0.0,0.0,0.0
3.111,0.189,-0.22766666666666668,0.9333333333333333,-0.122,-0.732,-1.585,0.0,0.0,0.0,0.0,0.0,0.0,0.0,0.0
3.121,0.193,-0.23033333333333333,0.9406666666666667,-0.915,-0.305,-1.341,0.0,0.0,0.0,0.0,0.0,0.0,0.0,0.0
3.132,0.197,-0.233,0.948,-1.098,0.793,-0.488,0.0,0.0,0.0,0.0,0.0,0.0,0.0,0.0
3.142,0.21,-0.239,0.96,-1.22,1.341,0.244,0.0,0.0,0.0,0.0,0.0,0.0,0.0,0.0
3.151,0.2052,-0.23779999999999998,0.954,-1.037,2.012,0.854,0.0,0.0,0.0,0.0,0.0,0.0,0.0,0.0
3.161,0.2004,-0.2366,0.948,-0.061,3.598,1.341,0.0,0.0,0.0,0.0,0.0,0.0,0.0,0.0
3.171,0.1956,-0.2354,0.9420000000000001,0.549,3.598,1.707,0.0,0.0,0.0,0.0,0.0,0.0,0.0,0.0
3.181,0.1908,-0.23420000000000002,0.936,0.793,2.012,1.585,0.0,0.0,0.0,0.0,0.0,0.0,0.0,0.0
3.192,0.186,-0.233,0.93,2.012,1.463,0.915,0.0,0.0,0.0,0.0,0.0,0.0,0.0,0.0
3.202,0.189,-0.223,0.924,3.171,1.098,0.061,0.0,0.0,0.0,0.0,0.0,0.0,0.0,0.0
3.212,0.1916,-0.2236,0.9324,2.744,0.427,-0.488,0.0,0.0,0.0,0.0,0.0,0.0,0.0,0.0
3.221,0.1942,-0.2242,0.9408,1.524,0.427,-1.037,0.0,0.0,0.0,0.0,0.0,0.0,0.0,0.0
3.231,0.1968,-0.2248,0.9492,-1.28,0.122,-1.463,0.0,0.0,0.0,0.0,0.0,0.0,0.0,0.0
3.241,0.19940000000000002,-0.22540000000000002,0.9576,-5.305,-0.915,-1.524,0.0,0.0,0.0,0.0,0.0,0.0,0.0,0.0
3.252,0.202,-0.226,0.966,-6.89,-0.549,-0.793,0.0,0.0,0.0,0.0,0.0,0.0,0.0,0.0
3.262,0.204,-0.234,0.969,-5.122,1.646,0.61,0.0,0.0,0.0,0.0,0.0,0.0,0.0,0.0
3.272,0.2012,-0.2316,0.9608,-2.073,3.293,1.585,0.0,0.0,0.0,0.0,0.0,0.0,0.0,0.0
3.282,0.1984,-0.22920000000000001,0.9526,1.098,3.902,1.585,0.0,0.0,0.0,0.0,0.0,0.0,0.0,0.0
3.291,0.1956,-0.2268,0.9444,3.11,3.415,1.037,0.0,0.0,0.0,0.0,0.0,0.0,0.0,0.0
3.301,0.1928,-0.22440000000000002,0.9362,2.561,2.256,0.488,0.0,0.0,0.0,0.0,0.0,0.0,0.0,0.0
3.312,0.19,-0.222,0.928,2.012,1.768,-0.122,0.0,0.0,0.0,0.0,0.0,0.0,0.0,0.0
3.322,0.188,-0.222,0.937,1.28,1.829,-0.305,0.0,0.0,0.0,0.0,0.0,0.0,0.0,0.0
3.332,0.1878,-0.2232,0.9364,-0.183,2.439,-0.305,0.0,0.0,0.0,0.0,0.0,0.0,0.0,0.0
3.342,0.1876,-0.22440000000000002,0.9358000000000001,-2.134,1.707,-0.793,0.0,0.0,0.0,0.0,0.0,0.0,0.0,0.0
3.351,0.1874,-0.2256,0.9352,-4.024,0.488,-1.402,0.0,0.0,0.0,0.0,0.0,0.0,0.0,0.0
3.361,0.1872,-0.2268,0.9346000000000001,-3.78,0.61,-1.524,0.0,0.0,0.0,0.0,0.0,0.0,0.0,0.0
3.372,0.187,-0.228,0.934,-2.439,0.976,-0.915,0.0,0.0,0.0,0.0,0.0,0.0,0.0,0.0
3.382,0.197,-0.238,0.938,-0.854,1.707,-0.427,0.0,0.0,0.0,0.0,0.0,0.0,0.0,0.0
3.392,0.197,-0.2405,0.938,1.463,2.439,-0.122,0.0,0.0,0.0,0.0,0.0,0.0,0.0,0.0
3.403,0.197,-0.243,0.938,2.927,2.988,0.244,0.0,0.0,0.0,0.0,0.0,0.0,0.0,0.0
3.413,0.198,-0.239,0.938,2.927,2.378,0.244,0.0,0.0,0.0,0.0,0.0,0.0,0.0,0.0
3.422,0.19640000000000002,-0.23879999999999998,0.9388,1.28,1.098,0.122,0.0,0.0,0.0,0.0,0.0,0.0,0.0,0.0
3.432,0.1948,-0.23859999999999998,0.9396,0.244,1.341,0.549,0.0,0.0,0.0,0.0,0.0,0.0,0.0,0.0
3.442,0.1932,-0.2384,0.9403999999999999,-0.183,1.829,0.671,0.0,0.0,0.0,0.0,0.0,0.0,0.0,0.0
3.452,0.1916,-0.2382,0.9411999999999999,-1.037,1.585,0.793,0.0,0.0,0.0,0.0,0.0,0.0,0.0,0.0
3.463,0.19,-0.238,0.942,-0.549,1.768,0.854,0.0,0.0,0.0,0.0,0.0,0.0,0.0,0.0
3.473,0.191,-0.234,0.938,0.0,1.951,0.732,0.0,0.0,0.0,0.0,0.0,0.0,0.0,0.0
3.483,0.1916,-0.2328,0.9411999999999999,0.854,1.22,0.549,0.0,0.0,0.0,0.0,0.0,0.0,0.0,0.0
3.492,0.1922,-0.2316,0.9443999999999999,1.951,0.915,0.549,0.0,0.0,0.0,0.0,0.0,0.0,0.0,0.0
3.502,0.1928,-0.23040000000000002,0.9476,2.5,0.366,0.061,0.0,0.0,0.0,0.0,0.0,0.0,0.0,0.0
3.512,0.19340000000000002,-0.22920000000000001,0.9508,1.707,-0.183,0.244,0.0,0.0,0.0,0.0,0.0,0.0,0.0,0.0
3.523,0.194,-0.228,0.954,0.366,-0.244,0.366,0.0,0.0,0.0,0.0,0.0,0.0,0.0,0.0
3.533,0.197,-0.229,0.957,-0.488,-0.183,0.488,0.0,0.0,0.0,0.0,0.0,0.0,0.0,0.0
3.543,0.19540000000000002,-0.22920000000000001,0.9548,-0.549,0.976,0.793,0.0,0.0,0.0,0.0,0.0,0.0,0.0,0.0
3.553,0.1938,-0.22940000000000002,0.9526,-0.915,1.768,0.427,0.0,0.0,0.0,0.0,0.0,0.0,0.0,0.0
3.562,0.1922,-0.2296,0.9503999999999999,-2.439,0.976,0.305,0.0,0.0,0.0,0.0,0.0,0.0,0.0,0.0
3.572,0.1906,-0.2298,0.9481999999999999,-2.988,-0.122,0.0,0.0,0.0,0.0,0.0,0.0,0.0,0.0,0.0
3.583,0.189,-0.23,0.946,-1.585,-0.305,0.183,0.0,0.0,0.0,0.0,0.0,0.0,0.0,0.0
3.593,0.193,-0.239,0.94,-0.305,0.305,0.61,0.0,0.0,0.0,0.0,0.0,0.0,0.0,0.0
3.603,0.19240000000000002,-0.2376,0.9411999999999999,0.061,0.305,0.61,0.0,0.0,0.0,0.0,0.0,0.0,0.0,0.0
3.613,0.1918,-0.2362,0.9423999999999999,0.366,0.122,0.488,0.0,0.0,0.0,0.0,0.0,0.0,0.0,0.0
3.622,0.1912,-0.2348,0.9436,0.488,0.976,0.671,0.0,0.0,0.0,0.0,0.0,0.0,0.0,0.0
3.632,0.1906,-0.2334,0.9448,0.427,1.829,0.732,0.0,0.0,0.0,0.0,0.0,0.0,0.0,0.0
3.643,0.19,-0.232,0.946,-0.549,1.646,0.732,0.0,0.0,0.0,0.0,0.0,0.0,0.0,0.0
3.653,0.187,-0.229,0.947,-0.976,1.402,0.549,0.0,0.0,0.0,0.0,0.0,0.0,0.0,0.0
3.663,0.188,-0.2285,0.944,-0.732,1.28,0.366,0.0,0.0,0.0,0.0,0.0,0.0,0.0,0.0
3.674,0.189,-0.228,0.941,-0.305,0.854,0.366,0.0,0.0,0.0,0.0,0.0,0.0,0.0,0.0
3.684,0.188,-0.222,0.939,1.341,0.366,0.244,0.0,0.0,0.0,0.0,0.0,0.0,0.0,0.0
3.693,0.187,-0.2218,0.9428,2.988,0.244,-0.244,0.0,0.0,0.0,0.0,0.0,0.0,0.0,0.0
3.703,0.186,-0.2216,0.9466,3.841,0.915,-0.854,0.0,0.0,0.0,0.0,0.0,0.0,0.0,0.0
3.713,0.185,-0.2214,0.9503999999999999,2.561,1.098,-1.402,0.0,0.0,0.0,0.0,0.0,0.0,0.0,0.0
3.723,0.184,-0.2212,0.9541999999999999,0.183,0.61,-1.585,0.0,0.0,0.0,0.0,0.0,0.0,0.0,0.0
3.734,0.183,-0.221,0.958,-0.549,1.098,-1.28,0.0,0.0,0.0,0.0,0.0,0.0,0.0,0.0
3.744,0.187,-0.231,0.954,-0.854,1.585,-0.915,0.0,0.0,0.0,0.0,0.0,0.0,0.0,0.0
3.754,0.1888,-0.2336,0.9523999999999999,-2.012,1.463,-0.854,0.0,0.0,0.0,0.0,0.0,0.0,0.0,0.0
3.763,0.1906,-0.2362,0.9508,-3.049,1.463,-1.037,0.0,0.0,0.0,0.0,0.0,0.0,0.0,0.0
3.773,0.19240000000000002,-0.2388,0.9491999999999999,-1.89,1.951,-0.549,0.0,0.0,0.0,0.0,0.0,0.0,0.0,0.0
3.783,0.1942,-0.2414,0.9476,0.732,3.354,0.061,0.0,0.0,0.0,0.0,0.0,0.0,0.0,0.0
3.794,0.196,-0.244,0.946,2.134,4.207,0.366,0.0,0.0,0.0,0.0,0.0,0.0,0.0,0.0
3.804,0.196,-0.241,0.942,2.073,4.085,0.488,0.0,0.0,0.0,0.0,0.0,0.0,0.0,0.0
3.814,0.19440000000000002,-0.2382,0.9418,0.732,3.598,0.183,0.0,0.0,0.0,0.0,0.0,0.0,0.0,0.0
3.823,0.1928,-0.2354,0.9416,-0.183,3.049,-0.305,0.0,0.0,0.0,0.0,0.0,0.0,0.0,0.0
3.833,0.1912,-0.2326,0.9413999999999999,-0.915,2.439,-0.915,0.0,0.0,0.0,0.0,0.0,0.0,0.0,0.0
3.843,0.1896,-0.2298,0.9411999999999999,-1.341,1.585,-1.707,0.0,0.0,0.0,0.0,0.0,0.0,0.0,0.0
3.854,0.188,-0.227,0.941,-0.976,1.22,-2.134,0.0,0.0,0.0,0.0,0.0,0.0,0.0,0.0
3.864,0.19,-0.228,0.944,-1.28,1.402,-1.829,0.0,0.0,0.0,0.0,0.0,0.0,0.0,0.0
3.874,0.1898,-0.2288,0.939,-1.341,1.768,-0.793,0.0,0.0,0.0,0.0,0.0,0.0,0.0,0.0
3.884,0.1896,-0.2296,0.9339999999999999,-0.61,2.134,0.427,0.0,0.0,0.0,0.0,0.0,0.0,0.0,0.0
3.893,0.1894,-0.23040000000000002,0.929,0.183,1.89,1.098,0.0,0.0,0.0,0.0,0.0,0.0,0.0,0.0
3.903,0.1892,-0.23120000000000002,0.924,0.976,0.854,1.28,0.0,0.0,0.0,0.0,0.0,0.0,0.0,0.0
3.914,0.189,-0.232,0.919,2.561,1.098,1.098,0.0,0.0,0.0,0.0,0.0,0.0,0.0,0.0
3.924,0.186,-0.232,0.916,3.171,1.098,0.793,0.0,0.0,0.0,0.0,0.0,0.0,0.0,0.0
3.934,0.1825,-0.2295,0.9225000000000001,2.256,0.122,0.366,0.0,0.0,0.0,0.0,0.0,0.0,0.0,0.0
3.945,0.179,-0.227,0.929,1.524,-1.037,-0.061,0.0,0.0,0.0,0.0,0.0,0.0,0.0,0.0
3.955,0.178,-0.232,0.932,0.549,-1.22,-0.427,0.0,0.0,0.0,0.0,0.0,0.0,0.0,0.0
3.964,0.18259999999999998,-0.2348,0.9378000000000001,-1.159,-1.28,-0.366,0.0,0.0,0.0,0.0,0.0,0.0,0.0,0.0
3.974,0.1872,-0.2376,0.9436,-0.732,-0.976,0.122,0.0,0.0,0.0,0.0,0.0,0.0,0.0,0.0
3.984,0.1918,-0.2404,0.9494,1.159,0.915,0.732,0.0,0.0,0.0,0.0,0.0,0.0,0.0,0.0
3.994,0.19640000000000002,-0.2432,0.9551999999999999,2.012,2.439,1.463,0.0,0.0,0.0,0.0,0.0,0.0,0.0,0.0
4.005,0.201,-0.246,0.961,1.829,3.232,2.073,0.0,0.0,0.0,0.0,0.0,0.0,0.0,0.0
4.015,0.197,-0.242,0.965,1.341,3.11,1.768,0.0,0.0,0.0,0.0,0.0,0.0,0.0,0.0
4.025,0.1948,-0.2382,0.9594,-0.671,1.463,1.28,0.0,0.0,0.0,0.0,0.0,0.0,0.0,0.0
4.034,0.1926,-0.2344,0.9538,-2.744,0.061,0.915,0.0,0.0,0.0,0.0,0.0,0.0,0.0,0.0
4.044,0.1904,-0.2306,0.9482,-2.195,0.793,0.793,0.0,0.0,0.0,0.0,0.0,0.0,0.0,0.0
4.054,0.1882,-0.2268,0.9426,-0.305,2.5,0.671,0.0,0.0,0.0,0.0,0.0,0.0,0.0,0.0
4.065,0.186,-0.223,0.937,0.305,3.598,0.366,0.0,0.0,0.0,0.0,0.0,0.0,0.0,0.0
4.075,0.182,-0.214,0.931,-0.183,3.293,-0.366,0.0,0.0,0.0,0.0,0.0,0.0,0.0,0.0
4.085,0.18259999999999998,-0.215,0.9314,-1.037,1.22,-1.037,0.0,0.0,0.0,0.0,0.0,0.0,0.0,0.0
4.094,0.1832,-0.216,0.9318000000000001,-0.976,0.366,-1.402,0.0,0.0,0.0,0.0,0.0,0.0,0.0,0.0
4.104,0.1838,-0.217,0.9322,0.244,0.549,-1.829,0.0,0.0,0.0,0.0,0.0,0.0,0.0,0.0
4.114,0.1844,-0.218,0.9326000000000001,0.366,-0.305,-2.256,0.0,0.0,0.0,0.0,0.0,0.0,0.0,0.0
4.125,0.185,-0.219,0.933,-0.427,-1.28,-2.5,0.0,0.0,0.0,0.0,0.0,0.0,0.0,0.0
4.135,0.186,-0.219,0.938,-0.915,-1.463,-2.5,0.0,0.0,0.0,0.0,0.0,0.0,0.0,0.0
4.145,0.1866,-0.2226,0.9401999999999999,-0.915,-1.037,-2.256,0.0,0.0,0.0,0.0,0.0,0.0,0.0,0.0
4.155,0.1872,-0.22619999999999998,0.9423999999999999,-0.488,0.366,-1.89,0.0,0.0,0.0,0.0,0.0,0.0,0.0,0.0
4.164,0.1878,-0.2298,0.9446,-0.915,1.098,-1.28,0.0,0.0,0.0,0.0,0.0,0.0,0.0,0.0
4.174,0.1884,-0.2334,0.9468,-0.427,1.28,-0.915,0.0,0.0,0.0,0.0,0.0,0.0,0.0,0.0
4.185,0.189,-0.237,0.949,0.488,1.22,-0.793,0.0,0.0,0.0,0.0,0.0,0.0,0.0,0.0
4.195,0.188,-0.238,0.943,0.122,0.732,-0.61,0.0,0.0,0.0,0.0,0.0,0.0,0.0,0.0
4.205,0.186,-0.24,0.9424999999999999,0.366,0.732,-0.427,0.0,0.0,0.0,0.0,0.0,0.0,0.0,0.0
4.216,0.184,-0.242,0.942,1.159,0.305,-0.549,0.0,0.0,0.0,0.0,0.0,0.0,0.0,0.0
4.226,0.187,-0.242,0.937,1.28,-0.732,-0.671,0.0,0.0,0.0,0.0,0.0,0.0,0.0,0.0
4.235,0.1886,-0.241,0.9400000000000001,1.037,-0.549,-0.488,0.0,0.0,0.0,0.0,0.0,0.0,0.0,0.0
4.245,0.1902,-0.24,0.9430000000000001,1.28,0.183,-0.366,0.0,0.0,0.0,0.0,0.0,0.0,0.0,0.0
4.255,0.1918,-0.239,0.946,1.341,0.183,0.0,0.0,0.0,0.0,0.0,0.0,0.0,0.0,0.0
4.265,0.19340000000000002,-0.238,0.949,1.341,0.976,0.366,0.0,0.0,0.0,0.0,0.0,0.0,0.0,0.0
4.276,0.195,-0.237,0.952,0.793,1.402,0.183,0.0,0.0,0.0,0.0,0.0,0.0,0.0,0.0
4.286,0.193,-0.23,0.946,-0.549,0.671,-0.305,0.0,0.0,0.0,0.0,0.0,0.0,0.0,0.0
4.295,0.1928,-0.2308,0.9426,-1.037,0.427,-0.793,0.0,0.0,0.0,0.0,0.0,0.0,0.0,0.0
4.305,0.1926,-0.2316,0.9392,-0.549,-0.061,-0.793,0.0,0.0,0.0,0.0,0.0,0.0,0.0,0.0
4.315,0.19240000000000002,-0.23240000000000002,0.9358,0.183,-0.915,-0.732,0.0,0.0,0.0,0.0,0.0,0.0,0.0,0.0
4.325,0.1922,-0.23320000000000002,0.9324,0.732,-0.671,-0.732,0.0,0.0,0.0,0.0,0.0,0.0,0.0,0.0
4.336,0.192,-0.234,0.929,1.463,-0.61,-0.793,0.0,0.0,0.0,0.0,0.0,0.0,0.0,0.0
4.346,0.189,-0.231,0.936,2.073,-0.244,-0.793,0.0,0.0,0.0,0.0,0.0,0.0,0.0,0.0
4.356,0.1888,-0.23,0.9392,1.159,-0.061,-0.61,0.0,0.0,0.0,0.0,0.0,0.0,0.0,0.0
4.365,0.1886,-0.229,0.9424,0.305,0.244,-0.244,0.0,0.0,0.0,0.0,0.0,0.0,0.0,0.0
4.375,0.1884,-0.228,0.9456,-0.488,0.427,-0.061,0.0,0.0,0.0,0.0,0.0,0.0,0.0,0.0
4.385,0.1882,-0.227,0.9488,-1.22,-0.488,-0.427,0.0,0.0,0.0,0.0,0.0,0.0,0.0,0.0
4.396,0.188,-0.226,0.952,-2.5,-0.671,-0.549,0.0,0.0,0.0,0.0,0.0,0.0,0.0,0.0
4.406,0.191,-0.22,0.949,-1.646,0.122,-0.427,0.0,0.0,0.0,0.0,0.0,0.0,0.0,0.0
4.416,0.1892,-0.2208,0.9473999999999999,0.915,1.402,-0.61,0.0,0.0,0.0,0.0,0.0,0.0,0.0,0.0
4.426,0.1874,-0.2216,0.9458,0.854,1.585,-0.793,0.0,0.0,0.0,0.0,0.0,0.0,0.0,0.0
4.435,0.1856,-0.22240000000000001,0.9441999999999999,-0.427,0.488,-1.159,0.0,0.0,0.0,0.0,0.0,0.0,0.0,0.0
4.445,0.1838,-0.2232,0.9426,-0.244,0.183,-1.646,0.0,0.0,0.0,0.0,0.0,0.0,0.0,0.0
4.456,0.182,-0.224,0.941,-0.671,-0.122,-1.768,0.0,0.0,0.0,0.0,0.0,0.0,0.0,0.0
4.466,0.191,-0.227,0.943,-1.28,-0.61,-1.646,0.0,0.0,0.0,0.0,0.0,0.0,0.0,0.0
4.476,0.193,-0.22966666666666666,0.9433333333333332,-0.915,-0.427,-1.402,0.0,0.0,0.0,0.0,0.0,0.0,0.0,0.0
4.486,0.195,-0.23233333333333334,0.9436666666666667,-0.061,-0.122,-0.976,0.0,0.0,0.0,0.0,0.0,0.0,0.0,0.0
4.497,0.197,-0.235,0.944,0.976,0.427,-0.61,0.0,0.0,0.0,0.0,0.0,0.0,0.0,0.0
4.506,0.199,-0.235,0.945,1.829,1.646,0.0,0.0,0.0,0.0,0.0,0.0,0.0,0.0,0.0
4.516,0.201,-0.235,0.946,2.256,2.866,0.61,0.0,0.0,0.0,0.0,0.0,0.0,0.0,0.0
4.526,0.19933333333333333,-0.23199999999999998,0.9486666666666667,1.707,3.354,0.976,0.0,0.0,0.0,0.0,0.0,0.0,0.0,0.0
4.536,0.19766666666666668,-0.229,0.9513333333333333,0.244,3.293,0.854,0.0,0.0,0.0,0.0,0.0,0.0,0.0,0.0
4.547,0.196,-0.226,0.954,-0.915,1.951,0.244,0.0,0.0,0.0,0.0,0.0,0.0,0.0,0.0
4.557,0.184,-0.228,0.947,-1.22,0.732,-0.488,0.0,0.0,0.0,0.0,0.0,0.0,0.0,0.0
4.567,0.1866,-0.2304,0.95,0.0,0.244,-1.524,0.0,0.0,0.0,0.0,0.0,0.0,0.0,0.0
4.576,0.1892,-0.2328,0.953,0.488,0.61,-2.561,0.0,0.0,0.0,0.0,0.0,0.0,0.0,0.0
4.586,0.1918,-0.2352,0.956,0.793,0.427,-2.5,0.0,0.0,0.0,0.0,0.0,0.0,0.0,0.0
4.596,0.19440000000000002,-0.2376,0.959,0.244,0.488,-1.89,0.0,0.0,0.0,0.0,0.0,0.0,0.0,0.0
4.607,0.197,-0.24,0.962,-0.488,2.134,-0.427,0.0,0.0,0.0,0.0,0.0,0.0,0.0,0.0
4.617,0.2,-0.248,0.971,-0.305,3.841,1.037,0.0,0.0,0.0,0.0,0.0,0.0,0.0,0.0
4.627,0.195,-0.2412,0.9628,0.183,4.085,1.829,0.0,0.0,0.0,0.0,0.0,0.0,0.0,0.0
4.636,0.19,-0.2344,0.9546,1.402,4.024,1.585,0.0,0.0,0.0,0.0,0.0,0.0,0.0,0.0
4.646,0.185,-0.2276,0.9464,2.134,3.78,0.915,0.0,0.0,0.0,0.0,0.0,0.0,0.0,0.0
4.656,0.18,-0.2208,0.9382,1.037,2.073,0.0,0.0,0.0,0.0,0.0,0.0,0.0,0.0,0.0
4.667,0.175,-0.214,0.93,0.305,1.098,-0.671,0.0,0.0,0.0,0.0,0.0,0.0,0.0,0.0
4.677,0.178,-0.214,0.936,0.732,1.037,-1.402,0.0,0.0,0.0,0.0,0.0,0.0,0.0,0.0
4.687,0.18259999999999998,-0.2174,0.9406,0.305,0.244,-1.829,0.0,0.0,0.0,0.0,0.0,0.0,0.0,0.0
4.697,0.1872,-0.2208,0.9452,0.244,0.122,-1.646,0.0,0.0,0.0,0.0,0.0,0.0,0.0,0.0
4.706,0.1918,-0.2242,0.9498,0.854,1.402,-1.098,0.0,0.0,0.0,0.0,0.0,0.0,0.0,0.0
4.716,0.19640000000000002,-0.2276,0.9544,0.732,2.439,-0.427,0.0,0.0,0.0,0.0,0.0,0.0,0.0,0.0
4.727,0.201,-0.231,0.959,0.305,2.195,0.244,0.0,0.0,0.0,0.0,0.0,0.0,0.0,0.0
4.737,0.203,-0.23,0.954,0.061,1.707,0.366,0.0,0.0,0.0,0.0,0.0,0.0,0.0,0.0
4.747,0.2006666666666667,-0.23,0.9496666666666667,0.427,2.012,0.427,0.0,0.0,0.0,0.0,0.0,0.0,0.0,0.0
4.757,0.19833333333333333,-0.23,0.9453333333333332,1.341,1.585,0.549,0.0,0.0,0.0,0.0,0.0,0.0,0.0,0.0
4.768,0.196,-0.23,0.941,1.951,2.073,0.671,0.0,0.0,0.0,0.0,0.0,0.0,0.0,0.0
4.777,0.1932,-0.2278,0.9408,1.829,2.195,0.427,0.0,0.0,0.0,0.0,0.0,0.0,0.0,0.0
4.787,0.1904,-0.2256,0.9406,1.402,2.439,0.061,0.0,0.0,0.0,0.0,0.0,0.0,0.0,0.0
4.797,0.1876,-0.22340000000000002,0.9403999999999999,0.61,2.134,-0.305,0.0,0.0,0.0,0.0,0.0,0.0,0.0,0.0
4.807,0.1848,-0.2212,0.9401999999999999,-0.671,0.915,-0.549,0.0,0.0,0.0,0.0,0.0,0.0,0.0,0.0
4.818,0.182,-0.219,0.94,-0.671,0.793,-0.793,0.0,0.0,0.0,0.0,0.0,0.0,0.0,0.0
4.828,0.185,-0.22,0.938,0.183,0.854,-0.793,0.0,0.0,0.0,0.0,0.0,0.0,0.0,0.0
4.837,0.1852,-0.2218,0.9428,1.098,0.854,-0.732,0.0,0.0,0.0,0.0,0.0,0.0,0.0,0.0
4.847,0.1854,-0.2236,0.9476,1.463,1.037,-1.037,0.0,0.0,0.0,0.0,0.0,0.0,0.0,0.0
4.857,0.1856,-0.22540000000000002,0.9523999999999999,0.61,0.366,-1.524,0.0,0.0,0.0,0.0,0.0,0.0,0.0,0.0
4.867,0.1858,-0.2272,0.9571999999999999,-0.732,0.61,-1.585,0.0,0.0,0.0,0.0,0.0,0.0,0.0,0.0
4.878,0.186,-0.229,0.962,-2.134,1.89,-1.098,0.0,0.0,0.0,0.0,0.0,0.0,0.0,0.0
4.888,0.192,-0.235,0.975,-3.841,2.134,-0.366,0.0,0.0,0.0,0.0,0.0,0.0,0.0,0.0
4.898,0.1904,-0.23279999999999998,0.9652,-3.11,2.378,0.305,0.0,0.0,0.0,0.0,0.0,0.0,0.0,0.0
4.907,0.1888,-0.2306,0.9554,-0.61,3.78,0.915,0.0,0.0,0.0,0.0,0.0,0.0,0.0,0.0
4.917,0.1872,-0.2284,0.9456,1.098,4.085,0.915,0.0,0.0,0.0,0.0,0.0,0.0,0.0,0.0
4.927,0.1856,-0.2262,0.9358000000000001,1.28,3.11,0.549,0.0,0.0,0.0,0.0,0.0,0.0,0.0,0.0
4.938,0.184,-0.224,0.926,0.61,1.524,0.366,0.0,0.0,0.0,0.0,0.0,0.0,0.0,0.0
4.948,0.183,-0.221,0.927,0.854,1.159,0.122,0.0,0.0,0.0,0.0,0.0,0.0,0.0,0.0
4.958,0.1854,-0.2236,0.9292,0.976,1.341,-0.183,0.0,0.0,0.0,0.0,0.0,0.0,0.0,0.0
4.968,0.1878,-0.2262,0.9314,-0.366,0.549,0.0,0.0,0.0,0.0,0.0,0.0,0.0,0.0,0.0
4.977,0.1902,-0.2288,0.9336,-1.159,0.183,0.305,0.0,0.0,0.0,0.0,0.0,0.0,0.0,0.0
4.987,0.1926,-0.23140000000000002,0.9358,-1.159,0.427,0.305,0.0,0.0,0.0,0.0,0.0,0.0,0.0,0.0
4.998,0.195,-0.234,0.938,-1.098,0.854,0.366,0.0,0.0,0.0,0.0,0.0,0.0,0.0,0.0
5.008,0.196,-0.235,0.944,-0.732,1.28,0.427,0.0,0.0,0.0,0.0,0.0,0.0,0.0,0.0
5.018,0.1946,-0.23299999999999998,0.9436,-0.61,1.22,0.549,0.0,0.0,0.0,0.0,0.0,0.0,0.0,0.0
5.028,0.1932,-0.23099999999999998,0.9431999999999999,0.0,0.122,0.793,0.0,0.0,0.0,0.0,0.0,0.0,0.0,0.0
5.037,0.1918,-0.229,0.9428,0.366,-0.122,0.976,0.0,0.0,0.0,0.0,0.0,0.0,0.0,0.0
5.048,0.1904,-0.227,0.9423999999999999,-0.122,0.427,0.976,0.0,0.0,0.0,0.0,0.0,0.0,0.0,0.0
5.058,0.189,-0.225,0.942,-0.366,0.488,0.976,0.0,0.0,0.0,0.0,0.0,0.0,0.0,0.0
5.068,0.187,-0.225,0.9406666666666667,-0.427,0.122,0.732,0.0,0.0,0.0,0.0,0.0,0.0,0.0,0.0
5.078,0.185,-0.225,0.9393333333333332,-0.305,0.305,0.427,0.0,0.0,0.0,0.0,0.0,0.0,0.0,0.0
5.089,0.183,-0.225,0.938,-0.366,0.61,0.244,0.0,0.0,0.0,0.0,0.0,0.0,0.0,0.0
5.099,0.186,-0.22,0.936,0.061,0.183,0.366,0.0,0.0,0.0,0.0,0.0,0.0,0.0,0.0
5.108,0.1858,-0.2202,0.9380000000000001,0.793,0.244,0.732,0.0,0.0,0.0,0.0,0.0,0.0,0.0,0.0
5.118,0.1856,-0.2204,0.9400000000000001,1.707,1.524,0.854,0.0,0.0,0.0,0.0,0.0,0.0,0.0,0.0
5.128,0.1854,-0.2206,0.942,1.341,0.915,0.854,0.0,0.0,0.0,0.0,0.0,0.0,0.0,0.0
5.138,0.1852,-0.2208,0.944,0.122,-0.122,0.915,0.0,0.0,0.0,0.0,0.0,0.0,0.0,0.0
5.149,0.185,-0.221,0.946,0.915,0.427,0.976,0.0,0.0,0.0,0.0,0.0,0.0,0.0,0.0
5.159,0.185,-0.225,0.939,2.012,1.341,0.549,0.0,0.0,0.0,0.0,0.0,0.0,0.0,0.0
5.169,0.1862,-0.2258,0.9388,0.0,0.366,-0.366,0.0,0.0,0.0,0.0,0.0,0.0,0.0,0.0
5.178,0.1874,-0.2266,0.9386,-2.622,-1.463,-0.915,0.0,0.0,0.0,0.0,0.0,0.0,0.0,0.0
5.188,0.1886,-0.22740000000000002,0.9383999999999999,-2.5,-0.854,-0.793,0.0,0.0,0.0,0.0,0.0,0.0,0.0,0.0
5.198,0.1898,-0.22820000000000001,0.9381999999999999,-0.183,0.732,-0.488,0.0,0.0,0.0,0.0,0.0,0.0,0.0,0.0
5.209,0.191,-0.229,0.938,1.524,0.976,-0.244,0.0,0.0,0.0,0.0,0.0,0.0,0.0,0.0
5.219,0.186,-0.231,0.936,2.012,1.159,-0.183,0.0,0.0,0.0,0.0,0.0,0.0,0.0,0.0
5.229,0.1858,-0.229,0.9364,1.646,1.159,-0.061,0.0,0.0,0.0,0.0,0.0,0.0,0.0,0.0
5.239,0.1856,-0.227,0.9368,1.463,1.037,0.0,0.0,0.0,0.0,0.0,0.0,0.0,0.0,0.0
5.248,0.1854,-0.225,0.9372,0.976,0.366,-0.122,0.0,0.0,0.0,0.0,0.0,0.0,0.0,0.0
5.258,0.1852,-0.223,0.9376,-0.061,-0.732,-0.549,0.0,0.0,0.0,0.0,0.0,0.0,0.0,0.0
5.269,0.185,-0.221,0.938,-0.732,-1.463,-1.22,0.0,0.0,0.0,0.0,0.0,0.0,0.0,0.0
5.279,0.183,-0.219,0.941,-1.159,-1.707,-1.646,0.0,0.0,0.0,0.0,0.0,0.0,0.0,0.0
5.289,0.1846,-0.223,0.9428,-0.793,-1.341,-1.402,0.0,0.0,0.0,0.0,0.0,0.0,0.0,0.0
5.299,0.1862,-0.227,0.9446,0.122,-1.159,-0.854,0.0,0.0,0.0,0.0,0.0,0.0,0.0,0.0
5.308,0.1878,-0.23099999999999998,0.9463999999999999,1.28,-0.793,-0.122,0.0,0.0,0.0,0.0,0.0,0.0,0.0,0.0
5.319,0.1894,-0.235,0.9481999999999999,2.683,0.366,0.488,0.0,0.0,0.0,0.0,0.0,0.0,0.0,0.0
5.329,0.191,-0.239,0.95,3.049,1.463,0.854,0.0,0.0,0.0,0.0,0.0,0.0,0.0,0.0
5.339,0.18866666666666668,-0.23633333333333334,0.953,2.439,1.951,0.671,0.0,0.0,0.0,0.0,0.0,0.0,0.0,0.0
5.349,0.18633333333333332,-0.23366666666666666,0.956,1.28,1.524,0.671,0.0,0.0,0.0,0.0,0.0,0.0,0.0,0.0
5.36,0.184,-0.231,0.959,0.122,1.098,0.305,0.0,0.0,0.0,0.0,0.0,0.0,0.0,0.0
5.37,0.183,-0.226,0.96,-1.341,0.488,-0.244,0.0,0.0,0.0,0.0,0.0,0.0,0.0,0.0
5.379,0.1824,-0.224,0.9581999999999999,-2.5,0.244,-0.305,0.0,0.0,0.0,0.0,0.0,0.0,0.0,0.0
5.389,0.1818,-0.222,0.9563999999999999,-1.829,1.707,-0.366,0.0,0.0,0.0,0.0,0.0,0.0,0.0,0.0
5.399,0.1812,-0.22,0.9546,-1.037,2.195,-0.732,0.0,0.0,0.0,0.0,0.0,0.0,0.0,0.0
5.409,0.18059999999999998,-0.218,0.9528,-1.037,1.402,-1.037,0.0,0.0,0.0,0.0,0.0,0.0,0.0,0.0
5.42,0.18,-0.216,0.951,-0.549,1.89,-1.28,0.0,0.0,0.0,0.0,0.0,0.0,0.0,0.0
5.43,0.185,-0.22,0.947,-0.183,1.646,-1.341,0.0,0.0,0.0,0.0,0.0,0.0,0.0,0.0
5.44,0.1844,-0.2196,0.9456,-0.122,1.402,-1.341,0.0,0.0,0.0,0.0,0.0,0.0,0.0,0.0
5.449,0.1838,-0.2192,0.9441999999999999,-0.061,2.561,-1.768,0.0,0.0,0.0,0.0,0.0,0.0,0.0,0.0
5.459,0.1832,-0.2188,0.9428,-0.732,2.256,-2.378,0.0,0.0,0.0,0.0,0.0,0.0,0.0,0.0
5.469,0.18259999999999998,-0.2184,0.9413999999999999,-1.768,1.098,-2.561,0.0,0.0,0.0,0.0,0.0,0.0,0.0,0.0
5.48,0.182,-0.218,0.94,-1.951,0.549,-2.317,0.0,0.0,0.0,0.0,0.0,0.0,0.0,0.0
5.49,0.192,-0.226,0.938,-0.671,1.28,-1.89,0.0,0.0,0.0,0.0,0.0,0.0,0.0,0.0
5.5,0.1912,-0.2278,0.9361999999999999,0.732,2.561,-1.463,0.0,0.0,0.0,0.0,0.0,0.0,0.0,0.0
5.509,0.1904,-0.2296,0.9344,0.061,1.829,-1.829,0.0,0.0,0.0,0.0,0.0,0.0,0.0,0.0
5.519,0.1896,-0.2314,0.9326,-0.976,0.427,-1.951,0.0,0.0,0.0,0.0,0.0,0.0,0.0,0.0
5.529,0.1888,-0.2332,0.9308000000000001,-0.366,0.732,-1.463,0.0,0.0,0.0,0.0,0.0,0.0,0.0,0.0
5.54,0.188,-0.235,0.929,0.854,1.646,-0.915,0.0,0.0,0.0,0.0,0.0,0.0,0.0,0.0
5.55,0.185,-0.24,0.928,1.524,2.378,-0.549,0.0,0.0,0.0,0.0,0.0,0.0,0.0,0.0
5.56,0.1838,-0.23879999999999998,0.9316,0.183,1.829,-0.549,0.0,0.0,0.0,0.0,0.0,0.0,0.0,0.0
5.57,0.18259999999999998,-0.2376,0.9352,-0.976,0.61,-0.793,0.0,0.0,0.0,0.0,0.0,0.0,0.0,0.0
5.579,0.1814,-0.2364,0.9388,-1.585,0.183,-0.915,0.0,0.0,0.0,0.0,0.0,0.0,0.0,0.0
5.59,0.1802,-0.23520000000000002,0.9424,-1.829,0.671,-0.793,0.0,0.0,0.0,0.0,0.0,0.0,0.0,0.0
5.6,0.179,-0.234,0.946,-1.646,0.671,-0.488,0.0,0.0,0.0,0.0,0.0,0.0,0.0,0.0
5.61,0.178,-0.23466666666666666,0.944,-1.22,0.976,0.0,0.0,0.0,0.0,0.0,0.0,0.0,0.0,0.0
5.62,0.177,-0.23533333333333334,0.942,-0.427,1.707,-0.305,0.0,0.0,0.0,0.0,0.0,0.0,0.0,0.0
5.631,0.176,-0.236,0.94,-0.183,0.915,-0.549,0.0,0.0,0.0,0.0,0.0,0.0,0.0,0.0
5.641,0.169,-0.227,0.936,1.707,1.098,0.0,0.0,0.0,0.0,0.0,0.0,0.0,0.0,0.0
5.65,0.1726,-0.2304,0.9378000000000001,2.683,2.378,-1.159,0.0,0.0,0.0,0.0,0.0,0.0,0.0,0.0
5.66,0.1762,-0.2338,0.9396,-0.488,-0.061,-1.524,0.0,0.0,0.0,0.0,0.0,0.0,0.0,0.0
5.67,0.17980000000000002,-0.2372,0.9414,-3.11,-2.073,-1.098,0.0,0.0,0.0,0.0,0.0,0.0,0.0,0.0
5.68,0.1834,-0.2406,0.9431999999999999,-2.012,-0.732,-0.732,0.0,0.0,0.0,0.0,0.0,0.0,0.0,0.0
5.691,0.187,-0.244,0.945,-0.122,0.122,-0.671,0.0,0.0,0.0,0.0,0.0,0.0,0.0,0.0
5.701,0.187,-0.241,0.94,0.244,0.0,-0.671,0.0,0.0,0.0,0.0,0.0,0.0,0.0,0.0
5.711,0.1854,-0.2392,0.9396,-0.183,-0.793,-0.488,0.0,0.0,0.0,0.0,0.0,0.0,0.0,0.0
5.72,0.1838,-0.2374,0.9391999999999999,0.183,-0.549,0.183,0.0,0.0,0.0,0.0,0.0,0.0,0.0,0.0
5.73,0.1822,-0.2356,0.9388,0.976,-0.183,0.671,0.0,0.0,0.0,0.0,0.0,0.0,0.0,0.0
5.74,0.18059999999999998,-0.2338,0.9383999999999999,0.854,-0.061,0.732,0.0,0.0,0.0,0.0,0.0,0.0,0.0,0.0
5.751,0.179,-0.232,0.938,0.122,-0.427,0.305,0.0,0.0,0.0,0.0,0.0,0.0,0.0,0.0
5.761,0.175,-0.223,0.938,-0.427,-1.28,-0.305,0.0,0.0,0.0,0.0,0.0,0.0,0.0,0.0
5.771,0.17579999999999998,-0.225,0.9408,0.183,-1.037,-0.488,0.0,0.0,0.0,0.0,0.0,0.0,0.0,0.0
5.78,0.17659999999999998,-0.227,0.9436,1.22,-0.61,-0.488,0.0,0.0,0.0,0.0,0.0,0.0,0.0,0.0
5.79,0.1774,-0.229,0.9463999999999999,2.134,-0.549,-0.183,0.0,0.0,0.0,0.0,0.0,0.0,0.0,0.0
5.8,0.1782,-0.231,0.9491999999999999,2.317,-1.463,-0.061,0.0,0.0,0.0,0.0,0.0,0.0,0.0,0.0
5.811,0.179,-0.233,0.952,2.561,-1.585,-0.183,0.0,0.0,0.0,0.0,0.0,0.0,0.0,0.0
5.821,0.178,-0.23,0.948,2.073,-1.585,0.0,0.0,0.0,0.0,0.0,0.0,0.0,0.0,0.0
5.831,0.1766,-0.2308,0.95,1.463,-1.159,0.427,0.0,0.0,0.0,0.0,0.0,0.0,0.0,0.0
5.841,0.1752,-0.2316,0.952,1.524,-0.488,0.427,0.0,0.0,0.0,0.0,0.0,0.0,0.0,0.0
5.85,0.1738,-0.23240000000000002,0.954,0.854,-0.671,0.366,0.0,0.0,0.0,0.0,0.0,0.0,0.0,0.0
5.861,0.1724,-0.23320000000000002,0.956,0.366,-0.793,0.549,0.0,0.0,0.0,0.0,0.0,0.0,0.0,0.0
5.871,0.171,-0.234,0.958,0.61,-0.244,0.61,0.0,0.0,0.0,0.0,0.0,0.0,0.0,0.0
5.881,0.1706666666666667,-0.234,0.953,1.22,0.427,0.976,0.0,0.0,0.0,0.0,0.0,0.0,0.0,0.0
5.891,0.17033333333333334,-0.234,0.948,2.439,0.427,0.793,0.0,0.0,0.0,0.0,0.0,0.0,0.0,0.0
5.902,0.17,-0.234,0.943,3.841,0.793,0.366,0.0,0.0,0.0,0.0,0.0,0.0,0.0,0.0
5.912,0.173,-0.232,0.932,3.293,0.976,0.366,0.0,0.0,0.0,0.0,0.0,0.0,0.0,0.0
5.921,0.1745,-0.228,0.9415,2.195,1.098,0.427,0.0,0.0,0.0,0.0,0.0,0.0,0.0,0.0
5.931,0.176,-0.224,0.951,1.098,1.037,0.183,0.0,0.0,0.0,0.0,0.0,0.0,0.0,0.0
5.941,0.1753333333333333,-0.22166666666666668,0.948,-0.244,0.488,-0.427,0.0,0.0,0.0,0.0,0.0,0.0,0.0,0.0
5.951,0.17466666666666666,-0.21933333333333332,0.945,-1.098,0.488,-0.732,0.0,0.0,0.0,0.0,0.0,0.0,0.0,0.0
5.962,0.174,-0.217,0.942,-0.488,0.915,-0.549,0.0,0.0,0.0,0.0,0.0,0.0,0.0,0.0
5.972,0.176,-0.219,0.932,-0.793,0.305,-0.122,0.0,0.0,0.0,0.0,0.0,0.0,0.0,0.0
5.982,0.1774,-0.221,0.928,-1.341,0.122,-2.256,0.0,0.0,0.0,0.0,0.0,0.0,0.0,0.0
5.991,0.1788,-0.223,0.924,-1.707,-2.439,-3.78,0.0,0.0,0.0,0.0,0.0,0.0,0.0,0.0
6.001,0.1802,-0.225,0.92,-1.463,-3.171,-4.39,0.0,0.0,0.0,0.0,0.0,0.0,0.0,0.0
6.011,0.18159999999999998,-0.227,0.916,0.976,-2.439,-5.122,0.0,0.0,0.0,0.0,0.0,0.0,0.0,0.0
6.022,0.183,-0.229,0.912,0.976,-2.561,-5.427,0.0,0.0,0.0,0.0,0.0,0.0,0.0,0.0
6.032,0.184,-0.233,0.919,-0.915,-2.561,-5.854,0.0,0.0,0.0,0.0,0.0,0.0,0.0,0.0
6.042,0.188,-0.23600000000000002,0.9182,-2.5,-2.866,-5.793,0.0,0.0,0.0,0.0,0.0,0.0,0.0,0.0
6.051,0.192,-0.23900000000000002,0.9174,-2.927,-2.988,-4.756,0.0,0.0,0.0,0.0,0.0,0.0,0.0,0.0
6.061,0.19599999999999998,-0.242,0.9166000000000001,-1.22,-2.561,-3.598,0.0,0.0,0.0,0.0,0.0,0.0,0.0,0.0
6.071,0.19999999999999998,-0.245,0.9158000000000001,1.707,-1.524,-2.622,0.0,0.0,0.0,0.0,0.0,0.0,0.0,0.0
6.082,0.204,-0.248,0.915,2.683,-1.768,-2.073,0.0,0.0,0.0,0.0,0.0,0.0,0.0,0.0
6.092,0.2,-0.24,0.915,1.524,-3.11,-2.256,0.0,0.0,0.0,0.0,0.0,0.0,0.0,0.0
6.102,0.19920000000000002,-0.2374,0.9176000000000001,0.183,-4.939,-2.561,0.0,0.0,0.0,0.0,0.0,0.0,0.0,0.0
6.112,0.19840000000000002,-0.2348,0.9202,-0.793,-5.915,-2.744,0.0,0.0,0.0,0.0,0.0,0.0,0.0,0.0
6.121,0.1976,-0.2322,0.9228000000000001,-0.793,-5.793,-2.5,0.0,0.0,0.0,0.0,0.0,0.0,0.0,0.0
6.132,0.1968,-0.2296,0.9254,0.305,-4.634,-2.134,0.0,0.0,0.0,0.0,0.0,0.0,0.0,0.0
6.142,0.196,-0.227,0.928,2.195,-4.268,-2.195,0.0,0.0,0.0,0.0,0.0,0.0,0.0,0.0
6.152,0.19366666666666668,-0.22133333333333333,0.9326666666666666,2.988,-4.756,-2.317,0.0,0.0,0.0,0.0,0.0,0.0,0.0,0.0
6.162,0.19133333333333333,-0.21566666666666667,0.9373333333333334,2.378,-4.756,-2.744,0.0,0.0,0.0,0.0,0.0,0.0,0.0,0.0
6.173,0.189,-0.21,0.942,1.585,-4.146,-3.232,0.0,0.0,0.0,0.0,0.0,0.0,0.0,0.0
6.183,0.186,-0.214,0.95,0.549,-4.024,-3.354,0.0,0.0,0.0,0.0,0.0,0.0,0.0,0.0
6.192,0.18359999999999999,-0.2048,0.9501999999999999,0.732,-3.232,-2.988,0.0,0.0,0.0,0.0,0.0,0.0,0.0,0.0
6.202,0.1812,-0.1956,0.9503999999999999,1.646,-1.524,-2.744,0.0,0.0,0.0,0.0,0.0,0.0,0.0,0.0
6.212,0.1788,-0.1864,0.9506,1.463,0.0,-3.171,0.0,0.0,0.0,0.0,0.0,0.0,0.0,0.0
6.222,0.1764,-0.17720000000000002,0.9508,1.28,0.671,-3.963,0.0,0.0,0.0,0.0,0.0,0.0,0.0,0.0
6.233,0.174,-0.168,0.951,1.037,-0.61,-5.366,0.0,0.0,0.0,0.0,0.0,0.0,0.0,0.0
6.243,0.172,-0.16,0.941,2.134,-2.256,-7.073,0.0,0.0,0.0,0.0,0.0,0.0,0.0,0.0
6.252,0.177,-0.1588,0.9545999999999999,4.085,-2.378,-8.598,0.0,0.0,0.0,0.0,0.0,0.0,0.0,0.0
6.262,0.182,-0.1576,0.9682,4.329,-2.561,-10.427,0.0,0.0,0.0,0.0,0.0,0.0,0.0,0.0
6.272,0.187,-0.1564,0.9817999999999999,1.707,-3.963,-11.707,0.0,0.0,0.0,0.0,0.0,0.0,0.0,0.0
6.282,0.192,-0.1552,0.9954,-0.976,-4.878,-12.683,0.0,0.0,0.0,0.0,0.0,0.0,0.0,0.0
6.293,0.197,-0.154,1.009,-2.378,-4.207,-12.5,0.0,0.0,0.0,0.0,0.0,0.0,0.0,0.0
6.303,0.204,-0.169,1.019,-3.659,-2.378,-11.585,0.0,0.0,0.0,0.0,0.0,0.0,0.0,0.0
6.313,0.1984,-0.1696,1.0064,-2.317,-0.061,-10.549,0.0,0.0,0.0,0.0,0.0,0.0,0.0,0.0
6.322,0.1928,-0.1702,0.9937999999999999,0.732,2.134,-9.268,0.0,0.0,0.0,0.0,0.0,0.0,0.0,0.0
6.332,0.18719999999999998,-0.1708,0.9812,3.537,3.537,-8.902,0.0,0.0,0.0,0.0,0.0,0.0,0.0,0.0
6.342,0.18159999999999998,-0.1714,0.9685999999999999,5.671,2.744,-9.512,0.0,0.0,0.0,0.0,0.0,0.0,0.0,0.0
6.353,0.176,-0.172,0.956,5.305,0.854,-10.427,0.0,0.0,0.0,0.0,0.0,0.0,0.0,0.0
6.363,0.159,-0.162,0.945,3.537,-0.732,-11.646,0.0,0.0,0.0,0.0,0.0,0.0,0.0,0.0
6.373,0.15225,-0.169,0.947,1.89,-0.488,-12.927,0.0,0.0,0.0,0.0,0.0,0.0,0.0,0.0
6.383,0.14550000000000002,-0.176,0.949,-0.122,-0.305,-14.024,0.0,0.0,0.0,0.0,0.0,0.0,0.0,0.0
6.392,0.13875,-0.183,0.951,-3.78,-1.707,-14.329,0.0,0.0,0.0,0.0,0.0,0.0,0.0,0.0
6.403,0.132,-0.19,0.953,-5.183,-2.195,-14.024,0.0,0.0,0.0,0.0,0.0,0.0,0.0,0.0
6.413,0.137,-0.206,0.94,-1.829,-1.402,-12.927,0.0,0.0,0.0,0.0,0.0,0.0,0.0,0.0
6.423,0.1376666666666667,-0.21666666666666665,0.9286666666666666,2.073,0.366,-12.012,0.0,0.0,0.0,0.0,0.0,0.0,0.0,0.0
6.433,0.13833333333333334,-0.22733333333333333,0.9173333333333333,4.451,1.646,-11.585,0.0,0.0,0.0,0.0,0.0,0.0,0.0,0.0
6.444,0.139,-0.238,0.906,4.207,1.098,-10.793,0.0,0.0,0.0,0.0,0.0,0.0,0.0,0.0
6.454,0.136,-0.245,0.912,3.415,1.951,-9.939,0.0,0.0,0.0,0.0,0.0,0.0,0.0,0.0
6.463,0.14350000000000002,-0.251,0.922,2.439,2.378,-9.634,0.0,0.0,0.0,0.0,0.0,0.0,0.0,0.0
6.473,0.151,-0.257,0.932,-0.305,0.61,-9.268,0.0,0.0,0.0,0.0,0.0,0.0,0.0,0.0
6.483,0.15733333333333333,-0.26066666666666666,0.9376666666666666,-4.024,-1.037,-8.354,0.0,0.0,0.0,0.0,0.0,0.0,0.0,0.0
6.493,0.16366666666666668,-0.26433333333333336,0.9433333333333334,-3.415,-0.488,-6.951,0.0,0.0,0.0,0.0,0.0,0.0,0.0,0.0
6.504,0.17,-0.268,0.949,-0.854,0.0,-5.549,0.0,0.0,0.0,0.0,0.0,0.0,0.0,0.0
6.514,0.18,-0.271,0.935,-0.427,-0.671,-4.207,0.0,0.0,0.0,0.0,0.0,0.0,0.0,0.0
6.523,0.1842,-0.2644,0.9400000000000001,0.671,-0.732,-2.988,0.0,0.0,0.0,0.0,0.0,0.0,0.0,0.0
6.533,0.1884,-0.25780000000000003,0.9450000000000001,1.89,0.244,-1.585,0.0,0.0,0.0,0.0,0.0,0.0,0.0,0.0
6.543,0.1926,-0.2512,0.95,1.768,1.707,0.061,0.0,0.0,0.0,0.0,0.0,0.0,0.0,0.0
6.553,0.1968,-0.24459999999999998,0.955,0.244,2.866,1.22,0.0,0.0,0.0,0.0,0.0,0.0,0.0,0.0
6.564,0.201,-0.238,0.96,-2.805,2.256,2.256,0.0,0.0,0.0,0.0,0.0,0.0,0.0,0.0
6.574,0.195,-0.223,0.954,-4.878,1.463,3.293,0.0,0.0,0.0,0.0,0.0,0.0,0.0,0.0
6.584,0.18760000000000002,-0.2188,0.9381999999999999,-5.915,0.061,4.146,0.0,0.0,0.0,0.0,0.0,0.0,0.0,0.0
6.593,0.1802,-0.2146,0.9224,-5.915,-1.585,4.695,0.0,0.0,0.0,0.0,0.0,0.0,0.0,0.0
6.603,0.1728,-0.2104,0.9066,-3.902,-2.012,5.305,0.0,0.0,0.0,0.0,0.0,0.0,0.0,0.0
6.613,0.1654,-0.20620000000000002,0.8908,-2.317,-2.317,5.732,0.0,0.0,0.0,0.0,0.0,0.0,0.0,0.0
6.624,0.158,-0.202,0.875,-1.829,-2.988,6.22,0.0,0.0,0.0,0.0,0.0,0.0,0.0,0.0
6.634,0.146,-0.199,0.871,-2.195,-3.902,7.561,0.0,0.0,0.0,0.0,0.0,0.0,0.0,0.0
6.644,0.13649999999999998,-0.20275,0.87075,-2.317,-4.024,8.963,0.0,0.0,0.0,0.0,0.0,0.0,0.0,0.0
6.653,0.127,-0.20650000000000002,0.8705,-2.317,-3.841,9.939,0.0,0.0,0.0,0.0,0.0,0.0,0.0,0.0
6.663,0.1175,-0.21025,0.87025,-3.415,-4.329,11.037,0.0,0.0,0.0,0.0,0.0,0.0,0.0,0.0
6.674,0.108,-0.214,0.87,-4.512,-4.512,12.195,0.0,0.0,0.0,0.0,0.0,0.0,0.0,0.0
6.684,0.102,-0.217,0.878,-4.634,-4.512,13.049,0.0,0.0,0.0,0.0,0.0,0.0,0.0,0.0
6.694,0.09566666666666666,-0.22166666666666668,0.8793333333333333,-3.415,-4.695,14.085,0.0,0.0,0.0,0.0,0.0,0.0,0.0,0.0
6.704,0.08933333333333333,-0.22633333333333333,0.8806666666666667,-0.549,-3.902,14.878,0.0,0.0,0.0,0.0,0.0,0.0,0.0,0.0
6.715,0.083,-0.231,0.882,0.915,-3.598,15.0,0.0,0.0,0.0,0.0,0.0,0.0,0.0,0.0
6.723,0.079,-0.22733333333333333,0.9063333333333333,0.305,-4.146,14.695,0.0,0.0,0.0,0.0,0.0,0.0,0.0,0.0
6.734,0.075,-0.22366666666666668,0.9306666666666666,-0.244,-4.268,13.902,0.0,0.0,0.0,0.0,0.0,0.0,0.0,0.0
6.744,0.071,-0.22,0.955,-0.976,-4.146,13.11,0.0,0.0,0.0,0.0,0.0,0.0,0.0,0.0
6.754,0.08266666666666667,-0.226,0.9823333333333333,-2.073,-3.598,13.171,0.0,0.0,0.0,0.0,0.0,0.0,0.0,0.0
6.764,0.09433333333333332,-0.23199999999999998,1.0096666666666665,-2.805,-2.439,13.659,0.0,0.0,0.0,0.0,0.0,0.0,0.0,0.0
6.775,0.106,-0.238,1.037,-3.963,-2.256,14.024,0.0,0.0,0.0,0.0,0.0,0.0,0.0,0.0
6.785,0.119,-0.249,1.056,-4.817,-1.951,14.573,0.0,0.0,0.0,0.0,0.0,0.0,0.0,0.0
6.794,0.1298,-0.2494,1.074,-3.78,-0.793,15.122,0.0,0.0,0.0,0.0,0.0,0.0,0.0,0.0
6.804,0.1406,-0.2498,1.092,-2.317,-0.61,14.817,0.0,0.0,0.0,0.0,0.0,0.0,0.0,0.0
6.814,0.15139999999999998,-0.2502,1.1099999999999999,-1.098,-0.854,13.902,0.0,0.0,0.0,0.0,0.0,0.0,0.0,0.0
6.824,0.16219999999999998,-0.2506,1.128,-0.061,-0.122,12.866,0.0,0.0,0.0,0.0,0.0,0.0,0.0,0.0
6.835,0.173,-0.251,1.146,-0.549,0.488,12.073,0.0,0.0,0.0,0.0,0.0,0.0,0.0,0.0
6.845,0.193,-0.254,1.167,-2.073,0.366,11.707,0.0,0.0,0.0,0.0,0.0,0.0,0.0,0.0
6.855,0.2096,-0.253,1.1684,-1.89,0.915,12.317,0.0,0.0,0.0,0.0,0.0,0.0,0.0,0.0
6.864,0.2262,-0.252,1.1698,0.488,2.561,12.5,0.0,0.0,0.0,0.0,0.0,0.0,0.0,0.0
6.874,0.24280000000000002,-0.251,1.1712,2.195,3.537,12.256,0.0,0.0,0.0,0.0,0.0,0.0,0.0,0.0
6.884,0.2594,-0.25,1.1725999999999999,3.293,5.732,12.134,0.0,0.0,0.0,0.0,0.0,0.0,0.0,0.0
6.895,0.276,-0.249,1.174,3.293,8.11,12.378,0.0,0.0,0.0,0.0,0.0,0.0,0.0,0.0
6.905,0.29,-0.25,1.162,-0.061,8.963,13.476,0.0,0.0,0.0,0.0,0.0,0.0,0.0,0.0
6.915,0.286,-0.23825000000000002,1.11275,-4.329,10.976,15.183,0.0,0.0,0.0,0.0,0.0,0.0,0.0,0.0
6.924,0.28200000000000003,-0.2265,1.0635,-6.707,13.11,17.256,0.0,0.0,0.0,0.0,0.0,0.0,0.0,0.0
6.934,0.278,-0.21475,1.0142499999999999,-6.768,13.598,18.72,0.0,0.0,0.0,0.0,0.0,0.0,0.0,0.0
6.945,0.274,-0.203,0.965,-3.659,14.146,19.207,0.0,0.0,0.0,0.0,0.0,0.0,0.0,0.0
6.955,0.263,-0.176,0.884,0.305,14.024,18.232,0.0,0.0,0.0,0.0,0.0,0.0,0.0,0.0
6.965,0.246,-0.15433333333333332,0.8463333333333334,1.28,11.402,15.854,0.0,0.0,0.0,0.0,0.0,0.0,0.0,0.0
6.975,0.229,-0.13266666666666665,0.8086666666666666,0.427,7.195,13.232,0.0,0.0,0.0,0.0,0.0,0.0,0.0,0.0
6.986,0.212,-0.111,0.771,0.244,4.085,11.768,0.0,0.0,0.0,0.0,0.0,0.0,0.0,0.0
6.994,0.21566666666666667,-0.12666666666666668,0.7656666666666667,0.793,1.402,11.098,0.0,0.0,0.0,0.0,0.0,0.0,0.0,0.0
