Timestamp,Acc x (g),Acc y (g),Acc z (g),Gyro x (deg/s),Gyro y (deg/s),Gyro z (deg/s),Beccheggio/Pitch (deg/s),Rollio/Roll (deg/s),Imbardata/Yaw (deg/s),Mag x (microTesla),Mag y (microTesla),Mag z (microTesla),Pressione (milliBar),Altitudine (m)
0.0,0.16,0.906,-0.21,-0.976,1.098,-0.061,0.0,0.0,0.0,0.0,0.0,0.0,0.0,0.0
0.01,0.15833333333333333,0.906,-0.21133333333333332,-0.915,1.098,-0.061,0.0,0.0,0.0,0.0,0.0,0.0,0.0,0.0
0.02,0.15666666666666668,0.906,-0.21266666666666667,-0.915,1.037,0.183,0.0,0.0,0.0,0.0,0.0,0.0,0.0,0.0
0.031,0.155,0.906,-0.214,-0.793,1.098,0.122,0.0,0.0,0.0,0.0,0.0,0.0,0.0,0.0
0.041,0.15216666666666667,0.907,-0.215,-0.793,1.341,0.061,0.0,0.0,0.0,0.0,0.0,0.0,0.0,0.0
0.051,0.14933333333333335,0.908,-0.216,-0.61,1.402,0.0,0.0,0.0,0.0,0.0,0.0,0.0,0.0,0.0
0.06,0.14650000000000002,0.909,-0.217,-0.488,1.22,-0.122,0.0,0.0,0.0,0.0,0.0,0.0,0.0,0.0
0.07,0.14366666666666666,0.91,-0.218,-0.427,0.976,-0.183,0.0,0.0,0.0,0.0,0.0,0.0,0.0,0.0
0.08,0.14083333333333334,0.911,-0.219,-0.427,0.976,-0.305,0.0,0.0,0.0,0.0,0.0,0.0,0.0,0.0
0.091,0.138,0.912,-0.22,-0.366,0.976,-0.427,0.0,0.0,0.0,0.0,0.0,0.0,0.0,0.0
0.101,0.135,0.911,-0.21933333333333332,-0.488,0.915,-0.488,0.0,0.0,0.0,0.0,0.0,0.0,0.0,0.0
0.111,0.132,0.91,-0.21866666666666668,-0.427,0.915,-0.427,0.0,0.0,0.0,0.0,0.0,0.0,0.0,0.0
0.121,0.129,0.909,-0.218,-0.183,1.037,-0.427,0.0,0.0,0.0,0.0,0.0,0.0,0.0,0.0
0.13,0.126,0.908,-0.21733333333333332,-0.061,1.037,-0.488,0.0,0.0,0.0,0.0,0.0,0.0,0.0,0.0
0.14,0.123,0.907,-0.21666666666666667,-0.061,0.793,-0.488,0.0,0.0,0.0,0.0,0.0,0.0,0.0,0.0
0.151,0.12,0.906,-0.216,-0.061,0.671,-0.427,0.0,0.0,0.0,0.0,0.0,0.0,0.0,0.0
0.161,0.126,0.90625,-0.21675,-0.305,0.427,-0.549,0.0,0.0,0.0,0.0,0.0,0.0,0.0,0.0
0.171,0.132,0.9065000000000001,-0.2175,-0.244,0.488,-0.427,0.0,0.0,0.0,0.0,0.0,0.0,0.0,0.0
0.181,0.13799999999999998,0.9067500000000001,-0.21825,-0.305,0.427,-0.488,0.0,0.0,0.0,0.0,0.0,0.0,0.0,0.0
0.192,0.144,0.907,-0.219,-0.305,0.305,-0.488,0.0,0.0,0.0,0.0,0.0,0.0,0.0,0.0
0.2,0.14391463414634145,0.9070365853658537,-0.2190609756097561,-0.244,0.244,-0.488,0.0,0.0,0.0,0.0,0.0,0.0,0.0,0.0
0.211,0.14382926829268292,0.9070731707317073,-0.2191219512195122,-0.305,0.244,-0.549,0.0,0.0,0.0,0.0,0.0,0.0,0.0,0.0
0.221,0.14374390243902438,0.907109756097561,-0.2191829268292683,-0.427,0.305,-0.549,0.0,0.0,0.0,0.0,0.0,0.0,0.0,0.0
0.231,0.14365853658536584,0.9071463414634147,-0.2192439024390244,-0.427,0.183,-0.488,0.0,0.0,0.0,0.0,0.0,0.0,0.0,0.0
0.242,0.1435731707317073,0.9071829268292684,-0.2193048780487805,-0.61,0.244,-0.549,0.0,0.0,0.0,0.0,0.0,0.0,0.0,0.0
0.252,0.14348780487804877,0.907219512195122,-0.21936585365853659,-0.549,0.427,-0.427,0.0,0.0,0.0,0.0,0.0,0.0,0.0,0.0
0.262,0.14340243902439023,0.9072560975609756,-0.21942682926829268,-0.305,0.488,-0.366,0.0,0.0,0.0,0.0,0.0,0.0,0.0,0.0
0.271,0.1433170731707317,0.9072926829268293,-0.21948780487804878,-0.549,0.427,-0.366,0.0,0.0,0.0,0.0,0.0,0.0,0.0,0.0
0.281,0.14323170731707316,0.907329268292683,-0.21954878048780488,-0.915,-0.061,-0.427,0.0,0.0,0.0,0.0,0.0,0.0,0.0,0.0
0.291,0.14314634146341462,0.9073658536585366,-0.21960975609756098,-1.098,-0.366,-0.549,0.0,0.0,0.0,0.0,0.0,0.0,0.0,0.0
0.302,0.14306097560975609,0.9074024390243902,-0.21967073170731707,-1.28,-0.244,-0.549,0.0,0.0,0.0,0.0,0.0,0.0,0.0,0.0
0.312,0.14297560975609755,0.9074390243902439,-0.21973170731707317,-1.28,-0.244,-0.488,0.0,0.0,0.0,0.0,0.0,0.0,0.0,0.0
0.322,0.142890243902439,0.9074756097560976,-0.21979268292682927,-1.341,0.0,-0.549,0.0,0.0,0.0,0.0,0.0,0.0,0.0,0.0
0.332,0.14280487804878048,0.9075121951219512,-0.21985365853658537,-1.524,-0.244,-0.549,0.0,0.0,0.0,0.0,0.0,0.0,0.0,0.0
0.341,0.14271951219512194,0.9075487804878049,-0.21991463414634146,-1.463,-0.488,-0.366,0.0,0.0,0.0,0.0,0.0,0.0,0.0,0.0
0.351,0.1426341463414634,0.9075853658536586,-0.21997560975609756,-1.22,-0.427,-0.183,0.0,0.0,0.0,0.0,0.0,0.0,0.0,0.0
0.362,0.14254878048780487,0.9076219512195123,-0.22003658536585366,-0.976,0.061,-0.061,0.0,0.0,0.0,0.0,0.0,0.0,0.0,0.0
0.372,0.14246341463414633,0.9076585365853659,-0.22009756097560976,-0.915,0.671,0.0,0.0,0.0,0.0,0.0,0.0,0.0,0.0,0.0
0.382,0.1423780487804878,0.9076951219512195,-0.22015853658536585,-1.098,0.915,-0.061,0.0,0.0,0.0,0.0,0.0,0.0,0.0,0.0
0.392,0.14229268292682926,0.9077317073170732,-0.22021951219512195,-1.341,0.61,-0.122,0.0,0.0,0.0,0.0,0.0,0.0,0.0,0.0
0.401,0.14220731707317072,0.9077682926829269,-0.22028048780487805,-1.28,0.183,0.0,0.0,0.0,0.0,0.0,0.0,0.0,0.0,0.0
0.411,0.14212195121951218,0.9078048780487805,-0.22034146341463415,-1.098,0.061,-0.061,0.0,0.0,0.0,0.0,0.0,0.0,0.0,0.0
0.422,0.14203658536585365,0.9078414634146341,-0.22040243902439025,-0.976,-0.183,-0.061,0.0,0.0,0.0,0.0,0.0,0.0,0.0,0.0
0.432,0.1419512195121951,0.9078780487804878,-0.22046341463414634,-0.793,-1.037,-0.061,0.0,0.0,0.0,0.0,0.0,0.0,0.0,0.0
0.442,0.14186585365853657,0.9079146341463415,-0.22052439024390244,-0.549,-1.646,-0.122,0.0,0.0,0.0,0.0,0.0,0.0,0.0,0.0
0.452,0.14178048780487804,0.9079512195121952,-0.22058536585365854,-0.244,-1.89,-0.244,0.0,0.0,0.0,0.0,0.0,0.0,0.0,0.0
0.463,0.1416951219512195,0.9079878048780488,-0.22064634146341464,-0.061,-2.073,-0.305,0.0,0.0,0.0,0.0,0.0,0.0,0.0,0.0
0.471,0.14160975609756096,0.9080243902439025,-0.22070731707317073,0.305,-2.073,-0.427,0.0,0.0,0.0,0.0,0.0,0.0,0.0,0.0
0.482,0.14152439024390243,0.9080609756097562,-0.22076829268292683,0.549,-2.256,-0.488,0.0,0.0,0.0,0.0,0.0,0.0,0.0,0.0
0.492,0.1414390243902439,0.9080975609756098,-0.22082926829268293,0.488,-2.317,-0.549,0.0,0.0,0.0,0.0,0.0,0.0,0.0,0.0
0.502,0.14135365853658535,0.9081341463414634,-0.22089024390243903,0.488,-2.012,-0.488,0.0,0.0,0.0,0.0,0.0,0.0,0.0,0.0
0.513,0.14126829268292682,0.9081707317073171,-0.22095121951219512,0.549,-1.707,-0.427,0.0,0.0,0.0,0.0,0.0,0.0,0.0,0.0
0.523,0.14118292682926828,0.9082073170731708,-0.22101219512195122,0.366,-1.463,-0.427,0.0,0.0,0.0,0.0,0.0,0.0,0.0,0.0
0.533,0.14109756097560974,0.9082439024390244,-0.22107317073170732,0.183,-1.402,-0.366,0.0,0.0,0.0,0.0,0.0,0.0,0.0,0.0
0.542,0.1410121951219512,0.908280487804878,-0.22113414634146342,0.122,-1.28,-0.244,0.0,0.0,0.0,0.0,0.0,0.0,0.0,0.0
0.552,0.14092682926829267,0.9083170731707317,-0.22119512195121951,0.244,-1.098,-0.183,0.0,0.0,0.0,0.0,0.0,0.0,0.0,0.0
0.562,0.14084146341463413,0.9083536585365855,-0.2212560975609756,0.122,-0.976,-0.122,0.0,0.0,0.0,0.0,0.0,0.0,0.0,0.0
0.573,0.1407560975609756,0.908390243902439,-0.2213170731707317,0.183,-0.732,-0.122,0.0,0.0,0.0,0.0,0.0,0.0,0.0,0.0
0.583,0.14067073170731706,0.9084268292682927,-0.2213780487804878,0.244,-0.732,-0.183,0.0,0.0,0.0,0.0,0.0,0.0,0.0,0.0
0.593,0.14058536585365852,0.9084634146341464,-0.2214390243902439,0.305,-0.61,-0.183,0.0,0.0,0.0,0.0,0.0,0.0,0.0,0.0
0.602,0.1405,0.9085000000000001,-0.2215,0.305,-0.305,-0.061,0.0,0.0,0.0,0.0,0.0,0.0,0.0,0.0
0.612,0.14041463414634148,0.9085365853658537,-0.2215609756097561,0.061,0.183,-0.122,0.0,0.0,0.0,0.0,0.0,0.0,0.0,0.0
0.622,0.14032926829268294,0.9085731707317073,-0.2216219512195122,0.0,0.366,-0.183,0.0,0.0,0.0,0.0,0.0,0.0,0.0,0.0
0.633,0.1402439024390244,0.908609756097561,-0.2216829268292683,-0.061,0.488,-0.244,0.0,0.0,0.0,0.0,0.0,0.0,0.0,0.0
0.643,0.14015853658536587,0.9086463414634147,-0.2217439024390244,0.183,0.549,-0.183,0.0,0.0,0.0,0.0,0.0,0.0,0.0,0.0
0.653,0.14007317073170733,0.9086829268292683,-0.2218048780487805,0.244,0.488,-0.183,0.0,0.0,0.0,0.0,0.0,0.0,0.0,0.0
0.663,0.1399878048780488,0.9087195121951219,-0.2218658536585366,0.488,0.61,-0.183,0.0,0.0,0.0,0.0,0.0,0.0,0.0,0.0
0.672,0.13990243902439026,0.9087560975609756,-0.22192682926829269,0.549,0.671,-0.244,0.0,0.0,0.0,0.0,0.0,0.0,0.0,0.0
0.682,0.13981707317073172,0.9087926829268294,-0.22198780487804878,0.488,0.732,-0.305,0.0,0.0,0.0,0.0,0.0,0.0,0.0,0.0
0.693,0.13973170731707318,0.908829268292683,-0.22204878048780488,0.549,0.976,-0.427,0.0,0.0,0.0,0.0,0.0,0.0,0.0,0.0
0.703,0.13964634146341465,0.9088658536585366,-0.22210975609756098,0.549,1.22,-0.427,0.0,0.0,0.0,0.0,0.0,0.0,0.0,0.0
0.713,0.1395609756097561,0.9089024390243903,-0.22217073170731708,0.549,1.402,-0.366,0.0,0.0,0.0,0.0,0.0,0.0,0.0,0.0
0.723,0.13947560975609757,0.908939024390244,-0.22223170731707317,0.61,1.646,-0.366,0.0,0.0,0.0,0.0,0.0,0.0,0.0,0.0
0.734,0.13939024390243904,0.9089756097560976,-0.22229268292682927,0.793,1.829,-0.305,0.0,0.0,0.0,0.0,0.0,0.0,0.0,0.0
0.742,0.1393048780487805,0.9090121951219512,-0.22235365853658537,0.854,1.829,-0.305,0.0,0.0,0.0,0.0,0.0,0.0,0.0,0.0
0.753,0.13921951219512196,0.9090487804878049,-0.22241463414634147,0.732,1.768,-0.305,0.0,0.0,0.0,0.0,0.0,0.0,0.0,0.0
0.763,0.13913414634146343,0.9090853658536586,-0.22247560975609756,0.61,1.646,-0.427,0.0,0.0,0.0,0.0,0.0,0.0,0.0,0.0
0.773,0.1390487804878049,0.9091219512195122,-0.22253658536585366,0.793,1.646,-0.427,0.0,0.0,0.0,0.0,0.0,0.0,0.0,0.0
0.784,0.13896341463414635,0.9091585365853658,-0.22259756097560976,0.915,1.646,-0.549,0.0,0.0,0.0,0.0,0.0,0.0,0.0,0.0
0.794,0.13887804878048782,0.9091951219512195,-0.22265853658536586,0.793,1.646,-0.61,0.0,0.0,0.0,0.0,0.0,0.0,0.0,0.0
0.804,0.13879268292682928,0.9092317073170733,-0.22271951219512195,0.854,1.585,-0.61,0.0,0.0,0.0,0.0,0.0,0.0,0.0,0.0
0.813,0.13870731707317074,0.9092682926829269,-0.22278048780487805,1.098,1.463,-0.61,0.0,0.0,0.0,0.0,0.0,0.0,0.0,0.0
0.823,0.1386219512195122,0.9093048780487805,-0.22284146341463415,0.915,1.524,-0.671,0.0,0.0,0.0,0.0,0.0,0.0,0.0,0.0
0.833,0.13853658536585367,0.9093414634146342,-0.22290243902439025,0.793,1.768,-0.61,0.0,0.0,0.0,0.0,0.0,0.0,0.0,0.0
0.844,0.13845121951219513,0.9093780487804879,-0.22296341463414635,0.915,1.89,-0.488,0.0,0.0,0.0,0.0,0.0,0.0,0.0,0.0
0.854,0.1383658536585366,0.9094146341463415,-0.22302439024390244,0.793,1.951,-0.427,0.0,0.0,0.0,0.0,0.0,0.0,0.0,0.0
0.864,0.13828048780487806,0.9094512195121951,-0.22308536585365854,0.671,1.829,-0.427,0.0,0.0,0.0,0.0,0.0,0.0,0.0,0.0
0.873,0.13819512195121952,0.9094878048780488,-0.22314634146341464,0.854,1.829,-0.427,0.0,0.0,0.0,0.0,0.0,0.0,0.0,0.0
0.883,0.138109756097561,0.9095243902439025,-0.22320731707317074,0.854,1.89,-0.427,0.0,0.0,0.0,0.0,0.0,0.0,0.0,0.0
0.893,0.13802439024390245,0.9095609756097561,-0.22326829268292683,0.793,1.829,-0.488,0.0,0.0,0.0,0.0,0.0,0.0,0.0,0.0
0.904,0.13793902439024391,0.9095975609756097,-0.22332926829268293,0.671,1.585,-0.427,0.0,0.0,0.0,0.0,0.0,0.0,0.0,0.0
0.914,0.13785365853658538,0.9096341463414634,-0.22339024390243903,0.61,1.463,-0.427,0.0,0.0,0.0,0.0,0.0,0.0,0.0,0.0
0.924,0.13776829268292684,0.9096707317073172,-0.22345121951219513,0.488,1.341,-0.427,0.0,0.0,0.0,0.0,0.0,0.0,0.0,0.0
0.934,0.1376829268292683,0.9097073170731708,-0.22351219512195122,0.488,1.159,-0.427,0.0,0.0,0.0,0.0,0.0,0.0,0.0,0.0
0.945,0.13759756097560977,0.9097439024390244,-0.22357317073170732,0.549,1.402,-0.366,0.0,0.0,0.0,0.0,0.0,0.0,0.0,0.0
0.953,0.13751219512195123,0.9097804878048781,-0.22363414634146342,0.488,1.646,-0.366,0.0,0.0,0.0,0.0,0.0,0.0,0.0,0.0
0.964,0.1374268292682927,0.9098170731707318,-0.22369512195121952,0.488,1.829,-0.305,0.0,0.0,0.0,0.0,0.0,0.0,0.0,0.0
0.974,0.13734146341463416,0.9098536585365854,-0.22375609756097561,0.61,2.134,-0.366,0.0,0.0,0.0,0.0,0.0,0.0,0.0,0.0
0.984,0.13725609756097562,0.909890243902439,-0.2238170731707317,0.427,2.012,-0.244,0.0,0.0,0.0,0.0,0.0,0.0,0.0,0.0
0.994,0.13717073170731708,0.9099268292682927,-0.2238780487804878,0.366,1.707,-0.244,0.0,0.0,0.0,0.0,0.0,0.0,0.0,0.0
1.005,0.13708536585365855,0.9099634146341464,-0.2239390243902439,0.305,1.585,-0.244,0.0,0.0,0.0,0.0,0.0,0.0,0.0,0.0
1.013,0.137,0.91,-0.224,0.366,1.524,-0.244,0.0,0.0,0.0,0.0,0.0,0.0,0.0,0.0
1.024,0.1366666666666667,0.91,-0.2248,0.427,1.646,-0.183,0.0,0.0,0.0,0.0,0.0,0.0,0.0,0.0
1.034,0.13633333333333333,0.91,-0.2256,0.61,1.707,-0.183,0.0,0.0,0.0,0.0,0.0,0.0,0.0,0.0
1.044,0.136,0.91,-0.2264,0.549,1.585,-0.183,0.0,0.0,0.0,0.0,0.0,0.0,0.0,0.0
1.054,0.13566666666666669,0.91,-0.2272,0.549,1.159,-0.122,0.0,0.0,0.0,0.0,0.0,0.0,0.0,0.0
1.065,0.13533333333333333,0.91,-0.228,0.61,1.159,-0.183,0.0,0.0,0.0,0.0,0.0,0.0,0.0,0.0
1.075,0.135,0.91,-0.2288,0.549,1.159,-0.183,0.0,0.0,0.0,0.0,0.0,0.0,0.0,0.0
1.084,0.13466666666666668,0.91,-0.2296,0.366,1.098,-0.305,0.0,0.0,0.0,0.0,0.0,0.0,0.0,0.0
1.094,0.13433333333333333,0.91,-0.2304,0.366,1.098,-0.244,0.0,0.0,0.0,0.0,0.0,0.0,0.0,0.0
1.104,0.134,0.91,-0.2312,0.427,1.098,-0.122,0.0,0.0,0.0,0.0,0.0,0.0,0.0,0.0
1.115,0.13366666666666668,0.91,-0.23199999999999998,0.366,0.854,-0.183,0.0,0.0,0.0,0.0,0.0,0.0,0.0,0.0
1.125,0.13333333333333333,0.91,-0.23279999999999998,0.366,0.366,-0.183,0.0,0.0,0.0,0.0,0.0,0.0,0.0,0.0
1.135,0.133,0.91,-0.2336,0.427,0.061,-0.122,0.0,0.0,0.0,0.0,0.0,0.0,0.0,0.0
1.144,0.13266666666666668,0.91,-0.2344,0.427,0.061,-0.183,0.0,0.0,0.0,0.0,0.0,0.0,0.0,0.0
1.154,0.13233333333333333,0.91,-0.2352,0.488,0.061,-0.183,0.0,0.0,0.0,0.0,0.0,0.0,0.0,0.0
1.164,0.132,0.91,-0.236,0.549,0.122,-0.305,0.0,0.0,0.0,0.0,0.0,0.0,0.0,0.0
1.175,0.13075,0.9105000000000001,-0.23575,0.488,0.061,-0.244,0.0,0.0,0.0,0.0,0.0,0.0,0.0,0.0
1.185,0.1295,0.911,-0.2355,0.61,-0.061,-0.244,0.0,0.0,0.0,0.0,0.0,0.0,0.0,0.0
1.195,0.12825,0.9115,-0.23525,0.61,-0.061,-0.244,0.0,0.0,0.0,0.0,0.0,0.0,0.0,0.0
1.205,0.127,0.912,-0.235,0.732,0.366,-0.122,0.0,0.0,0.0,0.0,0.0,0.0,0.0,0.0
1.214,0.12566666666666668,0.9146666666666667,-0.23466666666666666,0.671,0.427,0.061,0.0,0.0,0.0,0.0,0.0,0.0,0.0,0.0
1.224,0.12433333333333334,0.9173333333333333,-0.23433333333333334,0.732,0.427,0.061,0.0,0.0,0.0,0.0,0.0,0.0,0.0,0.0
1.235,0.123,0.92,-0.234,0.793,0.549,0.061,0.0,0.0,0.0,0.0,0.0,0.0,0.0,0.0
1.245,0.12333333333333334,0.9176666666666667,-0.23700000000000002,0.671,0.732,0.0,0.0,0.0,0.0,0.0,0.0,0.0,0.0,0.0
1.255,0.12366666666666666,0.9153333333333333,-0.24,0.427,0.671,0.0,0.0,0.0,0.0,0.0,0.0,0.0,0.0,0.0
1.265,0.124,0.913,-0.243,0.427,0.61,0.0,0.0,0.0,0.0,0.0,0.0,0.0,0.0,0.0
1.276,0.12533333333333332,0.91,-0.24533333333333332,0.427,0.61,0.061,0.0,0.0,0.0,0.0,0.0,0.0,0.0,0.0
1.284,0.12666666666666668,0.907,-0.24766666666666667,0.427,0.671,0.183,0.0,0.0,0.0,0.0,0.0,0.0,0.0,0.0
1.295,0.128,0.904,-0.25,0.488,0.427,0.122,0.0,0.0,0.0,0.0,0.0,0.0,0.0,0.0
1.305,0.12875,0.90175,-0.24975,0.61,0.488,0.122,0.0,0.0,0.0,0.0,0.0,0.0,0.0,0.0
1.315,0.1295,0.8995,-0.2495,0.488,0.244,0.122,0.0,0.0,0.0,0.0,0.0,0.0,0.0,0.0
1.325,0.13025,0.89725,-0.24925,0.488,0.122,0.183,0.0,0.0,0.0,0.0,0.0,0.0,0.0,0.0
1.336,0.131,0.895,-0.249,0.488,0.183,0.122,0.0,0.0,0.0,0.0,0.0,0.0,0.0,0.0
1.346,0.1298,0.8952,-0.2484,0.549,0.305,0.183,0.0,0.0,0.0,0.0,0.0,0.0,0.0,0.0
1.355,0.1286,0.8954,-0.2478,0.488,0.427,0.122,0.0,0.0,0.0,0.0,0.0,0.0,0.0,0.0
1.365,0.1274,0.8956000000000001,-0.2472,0.427,0.549,0.0,0.0,0.0,0.0,0.0,0.0,0.0,0.0,0.0
1.375,0.1262,0.8958,-0.24659999999999999,0.549,0.793,0.0,0.0,0.0,0.0,0.0,0.0,0.0,0.0,0.0
1.386,0.125,0.896,-0.246,0.732,0.915,-0.061,0.0,0.0,0.0,0.0,0.0,0.0,0.0,0.0
1.396,0.124,0.896,-0.246,0.732,0.854,-0.122,0.0,0.0,0.0,0.0,0.0,0.0,0.0,0.0
1.406,0.12415294117647059,0.896129411764706,-0.2460470588235294,0.732,0.976,-0.122,0.0,0.0,0.0,0.0,0.0,0.0,0.0,0.0
1.415,0.12430588235294118,0.8962588235294118,-0.24609411764705882,0.976,0.732,-0.122,0.0,0.0,0.0,0.0,0.0,0.0,0.0,0.0
1.425,0.12445882352941176,0.8963882352941177,-0.24614117647058822,1.22,0.732,-0.061,0.0,0.0,0.0,0.0,0.0,0.0,0.0,0.0
1.435,0.12461176470588235,0.8965176470588235,-0.24618823529411765,1.28,0.61,-0.061,0.0,0.0,0.0,0.0,0.0,0.0,0.0,0.0
1.446,0.12476470588235294,0.8966470588235295,-0.24623529411764705,1.28,0.61,-0.183,0.0,0.0,0.0,0.0,0.0,0.0,0.0,0.0
1.456,0.12491764705882354,0.8967764705882353,-0.24628235294117648,1.341,0.671,-0.244,0.0,0.0,0.0,0.0,0.0,0.0,0.0,0.0
1.466,0.12507058823529413,0.8969058823529412,-0.24632941176470588,1.463,0.854,-0.366,0.0,0.0,0.0,0.0,0.0,0.0,0.0,0.0
1.476,0.1252235294117647,0.897035294117647,-0.24637647058823528,1.463,1.159,-0.427,0.0,0.0,0.0,0.0,0.0,0.0,0.0,0.0
1.485,0.12537647058823528,0.897164705882353,-0.2464235294117647,1.28,1.341,-0.488,0.0,0.0,0.0,0.0,0.0,0.0,0.0,0.0
1.495,0.1255294117647059,0.8972941176470588,-0.2464705882352941,1.159,1.28,-0.427,0.0,0.0,0.0,0.0,0.0,0.0,0.0,0.0
1.506,0.12568235294117647,0.8974235294117647,-0.24651764705882354,1.22,1.28,-0.366,0.0,0.0,0.0,0.0,0.0,0.0,0.0,0.0
1.516,0.12583529411764707,0.8975529411764706,-0.24656470588235294,1.28,1.341,-0.244,0.0,0.0,0.0,0.0,0.0,0.0,0.0,0.0
1.526,0.12598823529411765,0.8976823529411765,-0.24661176470588236,1.341,1.463,-0.183,0.0,0.0,0.0,0.0,0.0,0.0,0.0,0.0
1.536,0.12614117647058823,0.8978117647058824,-0.24665882352941176,1.098,1.463,-0.061,0.0,0.0,0.0,0.0,0.0,0.0,0.0,0.0
1.547,0.12629411764705883,0.8979411764705882,-0.24670588235294116,0.915,1.159,-0.061,0.0,0.0,0.0,0.0,0.0,0.0,0.0,0.0
1.555,0.1264470588235294,0.8980705882352942,-0.2467529411764706,0.793,0.793,-0.061,0.0,0.0,0.0,0.0,0.0,0.0,0.0,0.0
1.566,0.1266,0.8982,-0.2468,0.732,0.732,-0.061,0.0,0.0,0.0,0.0,0.0,0.0,0.0,0.0
1.576,0.1267529411764706,0.8983294117647059,-0.24684705882352942,0.671,0.732,-0.061,0.0,0.0,0.0,0.0,0.0,0.0,0.0,0.0
1.586,0.12690588235294117,0.8984588235294118,-0.24689411764705882,0.671,0.976,-0.061,0.0,0.0,0.0,0.0,0.0,0.0,0.0,0.0
1.596,0.12705882352941178,0.8985882352941177,-0.24694117647058822,0.61,1.098,-0.183,0.0,0.0,0.0,0.0,0.0,0.0,0.0,0.0
1.607,0.12721176470588236,0.8987176470588235,-0.24698823529411765,0.488,1.098,-0.183,0.0,0.0,0.0,0.0,0.0,0.0,0.0,0.0
1.617,0.12736470588235294,0.8988470588235294,-0.24703529411764705,0.61,1.037,-0.122,0.0,0.0,0.0,0.0,0.0,0.0,0.0,0.0
1.626,0.12751764705882354,0.8989764705882353,-0.24708235294117648,0.732,1.037,-0.122,0.0,0.0,0.0,0.0,0.0,0.0,0.0,0.0
1.636,0.12767058823529412,0.8991058823529412,-0.24712941176470588,0.671,1.037,-0.122,0.0,0.0,0.0,0.0,0.0,0.0,0.0,0.0
1.646,0.1278235294117647,0.8992352941176471,-0.2471764705882353,0.671,1.098,-0.183,0.0,0.0,0.0,0.0,0.0,0.0,0.0,0.0
1.657,0.1279764705882353,0.899364705882353,-0.2472235294117647,0.671,1.341,-0.122,0.0,0.0,0.0,0.0,0.0,0.0,0.0,0.0
1.667,0.12812941176470588,0.8994941176470589,-0.2472705882352941,0.671,1.524,-0.122,0.0,0.0,0.0,0.0,0.0,0.0,0.0,0.0
1.677,0.1282823529411765,0.8996235294117647,-0.24731764705882353,0.61,1.524,-0.183,0.0,0.0,0.0,0.0,0.0,0.0,0.0,0.0
1.687,0.12843529411764706,0.8997529411764706,-0.24736470588235293,0.549,1.402,-0.183,0.0,0.0,0.0,0.0,0.0,0.0,0.0,0.0
1.696,0.12858823529411764,0.8998823529411765,-0.24741176470588236,0.549,1.22,-0.122,0.0,0.0,0.0,0.0,0.0,0.0,0.0,0.0
1.706,0.12874117647058825,0.9000117647058824,-0.24745882352941176,0.427,0.915,-0.061,0.0,0.0,0.0,0.0,0.0,0.0,0.0,0.0
1.717,0.12889411764705883,0.9001411764705882,-0.2475058823529412,0.366,0.671,-0.122,0.0,0.0,0.0,0.0,0.0,0.0,0.0,0.0
1.727,0.1290470588235294,0.9002705882352942,-0.2475529411764706,0.244,0.427,-0.122,0.0,0.0,0.0,0.0,0.0,0.0,0.0,0.0
1.737,0.1292,0.9004,-0.2476,0.122,0.427,-0.122,0.0,0.0,0.0,0.0,0.0,0.0,0.0,0.0
1.747,0.1293529411764706,0.9005294117647059,-0.24764705882352941,0.305,0.549,-0.122,0.0,0.0,0.0,0.0,0.0,0.0,0.0,0.0
1.758,0.1295058823529412,0.9006588235294117,-0.24769411764705881,0.366,0.671,-0.061,0.0,0.0,0.0,0.0,0.0,0.0,0.0,0.0
1.766,0.12965882352941177,0.9007882352941177,-0.24774117647058824,0.244,0.488,0.061,0.0,0.0,0.0,0.0,0.0,0.0,0.0,0.0
1.777,0.12981176470588235,0.9009176470588236,-0.24778823529411764,0.183,0.183,0.061,0.0,0.0,0.0,0.0,0.0,0.0,0.0,0.0
1.787,0.12996470588235295,0.9010470588235294,-0.24783529411764707,0.122,-0.061,0.122,0.0,0.0,0.0,0.0,0.0,0.0,0.0,0.0
1.797,0.13011764705882353,0.9011764705882354,-0.24788235294117647,0.122,-0.122,0.183,0.0,0.0,0.0,0.0,0.0,0.0,0.0,0.0
1.807,0.1302705882352941,0.9013058823529412,-0.24792941176470587,0.061,0.0,0.183,0.0,0.0,0.0,0.0,0.0,0.0,0.0,0.0
1.818,0.13042352941176472,0.9014352941176471,-0.2479764705882353,0.061,0.366,0.122,0.0,0.0,0.0,0.0,0.0,0.0,0.0,0.0
1.826,0.1305764705882353,0.9015647058823529,-0.2480235294117647,0.061,0.61,0.122,0.0,0.0,0.0,0.0,0.0,0.0,0.0,0.0
1.837,0.1307294117647059,0.9016941176470589,-0.24807058823529413,0.122,0.671,0.061,0.0,0.0,0.0,0.0,0.0,0.0,0.0,0.0
1.847,0.13088235294117648,0.9018235294117647,-0.24811764705882353,0.0,0.244,0.122,0.0,0.0,0.0,0.0,0.0,0.0,0.0,0.0
1.857,0.13103529411764706,0.9019529411764706,-0.24816470588235293,0.122,-0.244,0.122,0.0,0.0,0.0,0.0,0.0,0.0,0.0,0.0
1.867,0.13118823529411766,0.9020823529411764,-0.24821176470588235,0.183,-0.305,0.122,0.0,0.0,0.0,0.0,0.0,0.0,0.0,0.0
1.878,0.13134117647058824,0.9022117647058824,-0.24825882352941175,0.488,-0.244,0.305,0.0,0.0,0.0,0.0,0.0,0.0,0.0,0.0
1.888,0.13149411764705882,0.9023411764705883,-0.24830588235294118,0.61,-0.122,0.305,0.0,0.0,0.0,0.0,0.0,0.0,0.0,0.0
1.897,0.13164705882352942,0.9024705882352941,-0.24835294117647058,0.61,0.061,0.244,0.0,0.0,0.0,0.0,0.0,0.0,0.0,0.0
1.907,0.1318,0.9026000000000001,-0.2484,0.366,-0.061,0.183,0.0,0.0,0.0,0.0,0.0,0.0,0.0,0.0
1.917,0.1319529411764706,0.9027294117647059,-0.2484470588235294,0.366,-0.244,0.244,0.0,0.0,0.0,0.0,0.0,0.0,0.0,0.0
1.928,0.13210588235294118,0.9028588235294118,-0.2484941176470588,0.366,-0.488,0.183,0.0,0.0,0.0,0.0,0.0,0.0,0.0,0.0
1.938,0.13225882352941176,0.9029882352941176,-0.24854117647058824,0.244,-0.61,0.305,0.0,0.0,0.0,0.0,0.0,0.0,0.0,0.0
1.948,0.13241176470588237,0.9031176470588236,-0.24858823529411764,0.305,-0.61,0.305,0.0,0.0,0.0,0.0,0.0,0.0,0.0,0.0
1.958,0.13256470588235295,0.9032470588235294,-0.24863529411764707,0.305,-0.61,0.366,0.0,0.0,0.0,0.0,0.0,0.0,0.0,0.0
1.967,0.13271764705882355,0.9033764705882353,-0.24868235294117647,0.366,-0.366,0.366,0.0,0.0,0.0,0.0,0.0,0.0,0.0,0.0
1.977,0.13287058823529413,0.9035058823529412,-0.2487294117647059,0.366,-0.183,0.549,0.0,0.0,0.0,0.0,0.0,0.0,0.0,0.0
1.988,0.1330235294117647,0.9036352941176471,-0.2487764705882353,0.244,0.061,0.732,0.0,0.0,0.0,0.0,0.0,0.0,0.0,0.0
1.998,0.1331764705882353,0.9037647058823529,-0.2488235294117647,0.244,0.427,0.732,0.0,0.0,0.0,0.0,0.0,0.0,0.0,0.0
2.008,0.1333294117647059,0.9038941176470588,-0.24887058823529412,0.122,0.61,0.671,0.0,0.0,0.0,0.0,0.0,0.0,0.0,0.0
2.018,0.13348235294117647,0.9040235294117648,-0.24891764705882352,0.122,0.732,0.732,0.0,0.0,0.0,0.0,0.0,0.0,0.0,0.0
2.029,0.13363529411764707,0.9041529411764706,-0.24896470588235295,0.061,0.915,0.732,0.0,0.0,0.0,0.0,0.0,0.0,0.0,0.0
2.037,0.13378823529411765,0.9042823529411765,-0.24901176470588235,-0.122,0.793,0.732,0.0,0.0,0.0,0.0,0.0,0.0,0.0,0.0
2.048,0.13394117647058823,0.9044117647058824,-0.24905882352941178,0.061,0.793,0.732,0.0,0.0,0.0,0.0,0.0,0.0,0.0,0.0
2.058,0.13409411764705884,0.9045411764705883,-0.24910588235294118,0.122,0.854,0.854,0.0,0.0,0.0,0.0,0.0,0.0,0.0,0.0
2.068,0.1342470588235294,0.9046705882352941,-0.24915294117647058,0.183,0.915,0.793,0.0,0.0,0.0,0.0,0.0,0.0,0.0,0.0
2.078,0.13440000000000002,0.9048,-0.2492,0.122,0.976,0.671,0.0,0.0,0.0,0.0,0.0,0.0,0.0,0.0
2.089,0.1345529411764706,0.9049294117647059,-0.2492470588235294,0.061,1.098,0.61,0.0,0.0,0.0,0.0,0.0,0.0,0.0,0.0
2.097,0.13470588235294118,0.9050588235294118,-0.24929411764705883,0.183,1.098,0.549,0.0,0.0,0.0,0.0,0.0,0.0,0.0,0.0
2.108,0.13485882352941178,0.9051882352941176,-0.24934117647058823,0.244,1.28,0.549,0.0,0.0,0.0,0.0,0.0,0.0,0.0,0.0
2.118,0.13501176470588236,0.9053176470588236,-0.24938823529411763,0.244,1.28,0.305,0.0,0.0,0.0,0.0,0.0,0.0,0.0,0.0
2.128,0.13516470588235296,0.9054470588235295,-0.24943529411764706,0.061,1.22,0.305,0.0,0.0,0.0,0.0,0.0,0.0,0.0,0.0
2.138,0.13531764705882354,0.9055764705882353,-0.24948235294117646,0.244,1.098,0.244,0.0,0.0,0.0,0.0,0.0,0.0,0.0,0.0
2.149,0.13547058823529412,0.9057058823529412,-0.2495294117647059,0.305,0.915,0.244,0.0,0.0,0.0,0.0,0.0,0.0,0.0,0.0
2.159,0.13562352941176473,0.9058352941176471,-0.2495764705882353,0.427,0.854,0.305,0.0,0.0,0.0,0.0,0.0,0.0,0.0,0.0
2.168,0.1357764705882353,0.905964705882353,-0.24962352941176472,0.488,0.976,0.305,0.0,0.0,0.0,0.0,0.0,0.0,0.0,0.0
2.179,0.13592941176470588,0.9060941176470588,-0.24967058823529412,0.244,1.28,0.366,0.0,0.0,0.0,0.0,0.0,0.0,0.0,0.0
2.188,0.1360823529411765,0.9062235294117648,-0.24971764705882352,0.183,1.585,0.427,0.0,0.0,0.0,0.0,0.0,0.0,0.0,0.0
2.199,0.13623529411764707,0.9063529411764706,-0.24976470588235294,0.122,1.829,0.305,0.0,0.0,0.0,0.0,0.0,0.0,0.0,0.0
2.209,0.13638823529411767,0.9064823529411765,-0.24981176470588234,0.122,1.829,0.244,0.0,0.0,0.0,0.0,0.0,0.0,0.0,0.0
2.219,0.13654117647058825,0.9066117647058823,-0.24985882352941177,0.0,1.585,0.244,0.0,0.0,0.0,0.0,0.0,0.0,0.0,0.0
2.229,0.13669411764705883,0.9067411764705883,-0.24990588235294117,0.061,1.28,0.244,0.0,0.0,0.0,0.0,0.0,0.0,0.0,0.0
2.24,0.13684705882352943,0.9068705882352941,-0.2499529411764706,0.122,1.037,0.305,0.0,0.0,0.0,0.0,0.0,0.0,0.0,0.0
2.248,0.137,0.907,-0.25,0.305,0.976,0.122,0.0,0.0,0.0,0.0,0.0,0.0,0.0,0.0
2.259,0.13633333333333333,0.9066666666666667,-0.25033333333333335,0.366,1.098,0.122,0.0,0.0,0.0,0.0,0.0,0.0,0.0,0.0
2.269,0.13566666666666669,0.9063333333333333,-0.25066666666666665,0.305,1.402,0.122,0.0,0.0,0.0,0.0,0.0,0.0,0.0,0.0
2.279,0.135,0.906,-0.251,0.427,1.646,0.122,0.0,0.0,0.0,0.0,0.0,0.0,0.0,0.0
2.289,0.13433333333333333,0.9056666666666667,-0.25133333333333335,0.366,1.768,0.061,0.0,0.0,0.0,0.0,0.0,0.0,0.0,0.0
2.3,0.13366666666666668,0.9053333333333333,-0.25166666666666665,0.244,1.707,0.061,0.0,0.0,0.0,0.0,0.0,0.0,0.0,0.0
2.308,0.133,0.905,-0.252,0.244,1.89,0.061,0.0,0.0,0.0,0.0,0.0,0.0,0.0,0.0
2.319,0.13275,0.905,-0.252,0.427,2.134,0.061,0.0,0.0,0.0,0.0,0.0,0.0,0.0,0.0
2.329,0.1325,0.905,-0.252,0.549,2.378,0.183,0.0,0.0,0.0,0.0,0.0,0.0,0.0,0.0
2.339,0.13225,0.905,-0.252,0.549,2.744,0.122,0.0,0.0,0.0,0.0,0.0,0.0,0.0,0.0
2.349,0.132,0.905,-0.252,0.549,2.683,0.122,0.0,0.0,0.0,0.0,0.0,0.0,0.0,0.0
2.36,0.1295,0.9045000000000001,-0.2525,0.488,2.744,0.183,0.0,0.0,0.0,0.0,0.0,0.0,0.0,0.0
2.368,0.127,0.904,-0.253,0.549,2.744,0.122,0.0,0.0,0.0,0.0,0.0,0.0,0.0,0.0
2.379,0.12675,0.90325,-0.25475000000000003,0.488,2.683,0.061,0.0,0.0,0.0,0.0,0.0,0.0,0.0,0.0
2.389,0.1265,0.9025000000000001,-0.2565,0.366,2.256,0.061,0.0,0.0,0.0,0.0,0.0,0.0,0.0,0.0
2.399,0.12625,0.90175,-0.25825,0.427,1.646,0.0,0.0,0.0,0.0,0.0,0.0,0.0,0.0,0.0
2.409,0.126,0.901,-0.26,0.61,1.28,0.061,0.0,0.0,0.0,0.0,0.0,0.0,0.0,0.0
2.42,0.12566666666666668,0.9016666666666667,-0.25966666666666666,0.671,1.22,0.061,0.0,0.0,0.0,0.0,0.0,0.0,0.0,0.0
2.43,0.12533333333333332,0.9023333333333333,-0.25933333333333336,0.549,1.22,0.061,0.0,0.0,0.0,0.0,0.0,0.0,0.0,0.0
2.439,0.125,0.903,-0.259,0.305,1.098,0.061,0.0,0.0,0.0,0.0,0.0,0.0,0.0,0.0
2.449,0.12433333333333334,0.9023333333333333,-0.25966666666666666,0.183,0.854,0.122,0.0,0.0,0.0,0.0,0.0,0.0,0.0,0.0
2.459,0.12366666666666666,0.9016666666666667,-0.26033333333333336,0.183,0.915,0.122,0.0,0.0,0.0,0.0,0.0,0.0,0.0,0.0
2.47,0.123,0.901,-0.261,0.183,1.28,0.122,0.0,0.0,0.0,0.0,0.0,0.0,0.0,0.0
2.48,0.12333333333333334,0.9016666666666667,-0.2605,0.244,1.89,0.244,0.0,0.0,0.0,0.0,0.0,0.0,0.0,0.0
2.49,0.12366666666666666,0.9023333333333333,-0.26,0.183,2.378,0.122,0.0,0.0,0.0,0.0,0.0,0.0,0.0,0.0
2.5,0.124,0.903,-0.2595,0.183,2.561,0.244,0.0,0.0,0.0,0.0,0.0,0.0,0.0,0.0
2.509,0.12433333333333334,0.9036666666666667,-0.259,-0.122,2.439,0.244,0.0,0.0,0.0,0.0,0.0,0.0,0.0,0.0
2.519,0.12466666666666666,0.9043333333333333,-0.2585,-0.183,2.073,0.183,0.0,0.0,0.0,0.0,0.0,0.0,0.0,0.0
2.53,0.125,0.905,-0.258,0.0,1.89,0.183,0.0,0.0,0.0,0.0,0.0,0.0,0.0,0.0
2.54,0.1255,0.9041666666666667,-0.258,0.244,1.646,0.183,0.0,0.0,0.0,0.0,0.0,0.0,0.0,0.0
2.55,0.126,0.9033333333333333,-0.258,0.244,1.524,0.183,0.0,0.0,0.0,0.0,0.0,0.0,0.0,0.0
2.56,0.1265,0.9025000000000001,-0.258,0.183,1.524,0.122,0.0,0.0,0.0,0.0,0.0,0.0,0.0,0.0
2.569,0.127,0.9016666666666667,-0.258,-0.061,1.402,0.183,0.0,0.0,0.0,0.0,0.0,0.0,0.0,0.0
2.579,0.1275,0.9008333333333334,-0.258,-0.061,1.28,0.183,0.0,0.0,0.0,0.0,0.0,0.0,0.0,0.0
2.59,0.128,0.9,-0.258,-0.061,0.854,0.122,0.0,0.0,0.0,0.0,0.0,0.0,0.0,0.0
2.6,0.12875,0.90075,-0.25775000000000003,0.061,0.549,0.061,0.0,0.0,0.0,0.0,0.0,0.0,0.0,0.0
2.61,0.1295,0.9015,-0.2575,0.183,0.671,0.122,0.0,0.0,0.0,0.0,0.0,0.0,0.0,0.0
2.62,0.13025,0.90225,-0.25725,0.244,0.732,0.122,0.0,0.0,0.0,0.0,0.0,0.0,0.0,0.0
2.631,0.131,0.903,-0.257,0.305,0.854,0.061,0.0,0.0,0.0,0.0,0.0,0.0,0.0,0.0
2.639,0.13084146341463415,0.9028902439024391,-0.257109756097561,0.244,0.854,-0.061,0.0,0.0,0.0,0.0,0.0,0.0,0.0,0.0
2.65,0.1306829268292683,0.9027804878048781,-0.25721951219512196,0.244,0.854,0.0,0.0,0.0,0.0,0.0,0.0,0.0,0.0,0.0
2.66,0.13052439024390244,0.902670731707317,-0.25732926829268293,0.183,0.976,0.122,0.0,0.0,0.0,0.0,0.0,0.0,0.0,0.0
2.67,0.1303658536585366,0.9025609756097561,-0.2574390243902439,0.305,1.098,0.183,0.0,0.0,0.0,0.0,0.0,0.0,0.0,0.0
2.68,0.13020731707317074,0.9024512195121952,-0.2575487804878049,0.366,1.22,0.183,0.0,0.0,0.0,0.0,0.0,0.0,0.0,0.0
2.691,0.13004878048780488,0.9023414634146342,-0.25765853658536586,0.366,1.159,0.183,0.0,0.0,0.0,0.0,0.0,0.0,0.0,0.0
2.701,0.12989024390243903,0.9022317073170731,-0.25776829268292684,0.366,0.976,0.305,0.0,0.0,0.0,0.0,0.0,0.0,0.0,0.0
2.71,0.12973170731707317,0.9021219512195122,-0.2578780487804878,0.122,0.976,0.183,0.0,0.0,0.0,0.0,0.0,0.0,0.0,0.0
2.72,0.12957317073170732,0.9020121951219513,-0.2579878048780488,0.0,0.976,0.244,0.0,0.0,0.0,0.0,0.0,0.0,0.0,0.0
2.73,0.12941463414634147,0.9019024390243903,-0.25809756097560976,0.0,0.915,0.366,0.0,0.0,0.0,0.0,0.0,0.0,0.0,0.0
2.741,0.1292560975609756,0.9017926829268292,-0.25820731707317074,-0.061,0.793,0.366,0.0,0.0,0.0,0.0,0.0,0.0,0.0,0.0
2.751,0.12909756097560976,0.9016829268292683,-0.2583170731707317,-0.061,0.732,0.244,0.0,0.0,0.0,0.0,0.0,0.0,0.0,0.0
2.761,0.1289390243902439,0.9015731707317074,-0.2584268292682927,-0.061,0.793,0.183,0.0,0.0,0.0,0.0,0.0,0.0,0.0,0.0
2.771,0.12878048780487805,0.9014634146341464,-0.25853658536585367,-0.061,0.671,0.183,0.0,0.0,0.0,0.0,0.0,0.0,0.0,0.0
2.78,0.1286219512195122,0.9013536585365853,-0.25864634146341464,0.0,0.793,0.244,0.0,0.0,0.0,0.0,0.0,0.0,0.0,0.0
2.79,0.12846341463414634,0.9012439024390244,-0.2587560975609756,0.122,0.915,0.183,0.0,0.0,0.0,0.0,0.0,0.0,0.0,0.0
2.801,0.1283048780487805,0.9011341463414635,-0.2588658536585366,0.122,1.037,0.122,0.0,0.0,0.0,0.0,0.0,0.0,0.0,0.0
2.811,0.12814634146341464,0.9010243902439025,-0.25897560975609757,0.061,1.159,0.244,0.0,0.0,0.0,0.0,0.0,0.0,0.0,0.0
2.821,0.12798780487804878,0.9009146341463414,-0.25908536585365854,-0.061,1.22,0.183,0.0,0.0,0.0,0.0,0.0,0.0,0.0,0.0
2.831,0.12782926829268293,0.9008048780487805,-0.2591951219512195,0.0,1.098,0.244,0.0,0.0,0.0,0.0,0.0,0.0,0.0,0.0
2.842,0.12767073170731708,0.9006951219512196,-0.2593048780487805,0.0,1.037,0.122,0.0,0.0,0.0,0.0,0.0,0.0,0.0,0.0
2.85,0.12751219512195122,0.9005853658536586,-0.25941463414634147,0.122,0.915,0.122,0.0,0.0,0.0,0.0,0.0,0.0,0.0,0.0
2.861,0.12735365853658537,0.9004756097560975,-0.25952439024390245,0.183,0.732,0.061,0.0,0.0,0.0,0.0,0.0,0.0,0.0,0.0
2.871,0.12719512195121951,0.9003658536585366,-0.2596341463414634,0.061,0.61,0.061,0.0,0.0,0.0,0.0,0.0,0.0,0.0,0.0
2.881,0.12703658536585366,0.9002560975609757,-0.2597439024390244,0.061,0.549,0.0,0.0,0.0,0.0,0.0,0.0,0.0,0.0,0.0
2.891,0.1268780487804878,0.9001463414634147,-0.2598536585365854,-0.061,0.366,-0.061,0.0,0.0,0.0,0.0,0.0,0.0,0.0,0.0
2.902,0.12671951219512195,0.9000365853658536,-0.25996341463414635,-0.061,0.244,0.061,0.0,0.0,0.0,0.0,0.0,0.0,0.0,0.0
2.91,0.1265609756097561,0.8999268292682927,-0.2600731707317073,0.061,0.183,0.122,0.0,0.0,0.0,0.0,0.0,0.0,0.0,0.0
2.921,0.12640243902439025,0.8998170731707318,-0.2601829268292683,0.122,0.366,0.0,0.0,0.0,0.0,0.0,0.0,0.0,0.0,0.0
2.931,0.1262439024390244,0.8997073170731708,-0.2602926829268293,0.183,0.488,0.0,0.0,0.0,0.0,0.0,0.0,0.0,0.0,0.0
2.941,0.12608536585365854,0.8995975609756097,-0.26040243902439025,0.183,0.61,0.122,0.0,0.0,0.0,0.0,0.0,0.0,0.0,0.0
2.951,0.12592682926829268,0.8994878048780488,-0.26051219512195123,0.122,0.61,0.122,0.0,0.0,0.0,0.0,0.0,0.0,0.0,0.0
2.962,0.12576829268292683,0.8993780487804879,-0.2606219512195122,0.061,0.671,0.061,0.0,0.0,0.0,0.0,0.0,0.0,0.0,0.0
2.972,0.12560975609756098,0.8992682926829269,-0.2607317073170732,0.061,0.671,0.061,0.0,0.0,0.0,0.0,0.0,0.0,0.0,0.0
2.981,0.12545121951219512,0.8991585365853658,-0.26084146341463416,0.122,0.61,0.0,0.0,0.0,0.0,0.0,0.0,0.0,0.0,0.0
2.991,0.12529268292682927,0.8990487804878049,-0.26095121951219513,0.183,0.854,0.061,0.0,0.0,0.0,0.0,0.0,0.0,0.0,0.0
3.001,0.12513414634146341,0.898939024390244,-0.2610609756097561,0.122,1.037,0.122,0.0,0.0,0.0,0.0,0.0,0.0,0.0,0.0
3.012,0.12497560975609756,0.898829268292683,-0.2611707317073171,-0.061,1.098,0.061,0.0,0.0,0.0,0.0,0.0,0.0,0.0,0.0
3.022,0.12481707317073171,0.8987195121951219,-0.26128048780487806,-0.122,1.037,0.122,0.0,0.0,0.0,0.0,0.0,0.0,0.0,0.0
3.032,0.12465853658536585,0.898609756097561,-0.26139024390243903,0.061,1.037,0.061,0.0,0.0,0.0,0.0,0.0,0.0,0.0,0.0
3.042,0.1245,0.8985000000000001,-0.2615,0.183,0.976,0.0,0.0,0.0,0.0,0.0,0.0,0.0,0.0,0.0
3.051,0.12434146341463415,0.898390243902439,-0.261609756097561,0.183,0.915,-0.061,0.0,0.0,0.0,0.0,0.0,0.0,0.0,0.0
3.061,0.12418292682926829,0.898280487804878,-0.26171951219512196,0.183,0.793,-0.061,0.0,0.0,0.0,0.0,0.0,0.0,0.0,0.0
3.072,0.12402439024390244,0.8981707317073171,-0.26182926829268294,0.061,0.854,-0.061,0.0,0.0,0.0,0.0,0.0,0.0,0.0,0.0
3.082,0.12386585365853658,0.8980609756097562,-0.2619390243902439,0.0,0.915,0.0,0.0,0.0,0.0,0.0,0.0,0.0,0.0,0.0
3.092,0.12370731707317073,0.8979512195121951,-0.2620487804878049,0.061,1.037,-0.061,0.0,0.0,0.0,0.0,0.0,0.0,0.0,0.0
3.102,0.12354878048780488,0.8978414634146341,-0.26215853658536586,0.122,1.037,-0.122,0.0,0.0,0.0,0.0,0.0,0.0,0.0,0.0
3.113,0.12339024390243902,0.8977317073170732,-0.26226829268292684,0.061,0.976,-0.061,0.0,0.0,0.0,0.0,0.0,0.0,0.0,0.0
3.121,0.12323170731707317,0.8976219512195123,-0.2623780487804878,0.061,0.915,0.061,0.0,0.0,0.0,0.0,0.0,0.0,0.0,0.0
3.132,0.12307317073170732,0.8975121951219512,-0.2624878048780488,0.061,1.037,0.061,0.0,0.0,0.0,0.0,0.0,0.0,0.0,0.0
3.142,0.12291463414634146,0.8974024390243902,-0.26259756097560977,-0.122,0.915,0.0,0.0,0.0,0.0,0.0,0.0,0.0,0.0,0.0
3.152,0.12275609756097561,0.8972926829268293,-0.26270731707317074,-0.244,1.098,0.122,0.0,0.0,0.0,0.0,0.0,0.0,0.0,0.0
3.162,0.12259756097560975,0.8971829268292684,-0.2628170731707317,-0.366,1.159,0.122,0.0,0.0,0.0,0.0,0.0,0.0,0.0,0.0
3.173,0.1224390243902439,0.8970731707317073,-0.2629268292682927,-0.427,1.037,0.122,0.0,0.0,0.0,0.0,0.0,0.0,0.0,0.0
3.183,0.12228048780487805,0.8969634146341463,-0.26303658536585367,-0.488,1.037,0.122,0.0,0.0,0.0,0.0,0.0,0.0,0.0,0.0
3.192,0.12212195121951219,0.8968536585365854,-0.26314634146341465,-0.305,1.159,0.122,0.0,0.0,0.0,0.0,0.0,0.0,0.0,0.0
3.202,0.12196341463414634,0.8967439024390245,-0.2632560975609756,-0.427,1.28,0.122,0.0,0.0,0.0,0.0,0.0,0.0,0.0,0.0
3.212,0.12180487804878048,0.8966341463414634,-0.2633658536585366,-0.488,1.22,0.122,0.0,0.0,0.0,0.0,0.0,0.0,0.0,0.0
3.222,0.12164634146341463,0.8965243902439024,-0.2634756097560976,-0.427,1.037,0.122,0.0,0.0,0.0,0.0,0.0,0.0,0.0,0.0
3.233,0.12148780487804878,0.8964146341463415,-0.26358536585365855,-0.244,0.915,0.122,0.0,0.0,0.0,0.0,0.0,0.0,0.0,0.0
3.243,0.12132926829268292,0.8963048780487806,-0.2636951219512195,0.0,1.159,0.0,0.0,0.0,0.0,0.0,0.0,0.0,0.0,0.0
3.252,0.12117073170731707,0.8961951219512195,-0.2638048780487805,-0.061,1.402,-0.061,0.0,0.0,0.0,0.0,0.0,0.0,0.0,0.0
3.262,0.12101219512195122,0.8960853658536585,-0.2639146341463415,-0.183,1.28,-0.122,0.0,0.0,0.0,0.0,0.0,0.0,0.0,0.0
3.272,0.12085365853658536,0.8959756097560976,-0.26402439024390245,-0.366,1.22,0.0,0.0,0.0,0.0,0.0,0.0,0.0,0.0,0.0
3.283,0.12069512195121951,0.8958658536585367,-0.2641341463414634,-0.366,1.28,0.0,0.0,0.0,0.0,0.0,0.0,0.0,0.0,0.0
3.293,0.12053658536585365,0.8957560975609756,-0.2642439024390244,-0.427,1.22,-0.122,0.0,0.0,0.0,0.0,0.0,0.0,0.0,0.0
3.303,0.1203780487804878,0.8956463414634146,-0.2643536585365854,-0.244,1.037,-0.061,0.0,0.0,0.0,0.0,0.0,0.0,0.0,0.0
3.313,0.12021951219512195,0.8955365853658537,-0.26446341463414635,-0.122,0.915,0.0,0.0,0.0,0.0,0.0,0.0,0.0,0.0,0.0
3.322,0.1200609756097561,0.8954268292682928,-0.26457317073170733,-0.061,0.793,-0.061,0.0,0.0,0.0,0.0,0.0,0.0,0.0,0.0
3.332,0.11990243902439024,0.8953170731707317,-0.2646829268292683,0.0,0.854,0.0,0.0,0.0,0.0,0.0,0.0,0.0,0.0,0.0
3.343,0.11974390243902439,0.8952073170731707,-0.2647926829268293,-0.122,0.854,-0.122,0.0,0.0,0.0,0.0,0.0,0.0,0.0,0.0
3.353,0.11958536585365853,0.8950975609756098,-0.26490243902439026,-0.183,0.732,-0.122,0.0,0.0,0.0,0.0,0.0,0.0,0.0,0.0
3.363,0.11942682926829268,0.8949878048780489,-0.26501219512195123,-0.305,0.671,-0.061,0.0,0.0,0.0,0.0,0.0,0.0,0.0,0.0
3.373,0.11926829268292682,0.8948780487804878,-0.2651219512195122,-0.244,0.854,-0.122,0.0,0.0,0.0,0.0,0.0,0.0,0.0,0.0
3.384,0.11910975609756097,0.8947682926829268,-0.2652317073170732,0.0,1.037,-0.122,0.0,0.0,0.0,0.0,0.0,0.0,0.0,0.0
3.392,0.11895121951219512,0.8946585365853659,-0.26534146341463416,0.0,1.098,-0.122,0.0,0.0,0.0,0.0,0.0,0.0,0.0,0.0
3.403,0.11879268292682926,0.894548780487805,-0.26545121951219514,0.0,1.098,0.061,0.0,0.0,0.0,0.0,0.0,0.0,0.0,0.0
3.413,0.11863414634146341,0.8944390243902439,-0.2655609756097561,0.0,0.976,0.061,0.0,0.0,0.0,0.0,0.0,0.0,0.0,0.0
3.423,0.11847560975609756,0.8943292682926829,-0.2656707317073171,-0.061,1.098,0.061,0.0,0.0,0.0,0.0,0.0,0.0,0.0,0.0
3.433,0.1183170731707317,0.894219512195122,-0.26578048780487806,-0.244,1.098,0.0,0.0,0.0,0.0,0.0,0.0,0.0,0.0,0.0
3.444,0.11815853658536585,0.894109756097561,-0.26589024390243904,-0.366,1.159,0.0,0.0,0.0,0.0,0.0,0.0,0.0,0.0,0.0
3.452,0.118,0.894,-0.266,-0.366,1.159,0.122,0.0,0.0,0.0,0.0,0.0,0.0,0.0,0.0
3.463,0.11993333333333332,0.8946000000000001,-0.2642,-0.305,1.22,0.122,0.0,0.0,0.0,0.0,0.0,0.0,0.0,0.0
3.473,0.12186666666666666,0.8952,-0.2624,-0.305,1.159,0.183,0.0,0.0,0.0,0.0,0.0,0.0,0.0,0.0
3.483,0.1238,0.8958,-0.2606,-0.366,1.22,0.183,0.0,0.0,0.0,0.0,0.0,0.0,0.0,0.0
3.493,0.12573333333333334,0.8964,-0.25880000000000003,-0.427,1.159,0.122,0.0,0.0,0.0,0.0,0.0,0.0,0.0,0.0
3.504,0.12766666666666665,0.897,-0.257,-0.488,1.098,0.183,0.0,0.0,0.0,0.0,0.0,0.0,0.0,0.0
3.514,0.1296,0.8976000000000001,-0.2552,-0.366,1.159,0.122,0.0,0.0,0.0,0.0,0.0,0.0,0.0,0.0
3.523,0.13153333333333334,0.8982,-0.2534,-0.305,1.037,0.122,0.0,0.0,0.0,0.0,0.0,0.0,0.0,0.0
3.533,0.13346666666666665,0.8988,-0.2516,-0.366,1.037,0.122,0.0,0.0,0.0,0.0,0.0,0.0,0.0,0.0
3.543,0.1354,0.8994,-0.2498,-0.427,1.159,0.122,0.0,0.0,0.0,0.0,0.0,0.0,0.0,0.0
3.554,0.13733333333333334,0.9,-0.248,-0.427,1.098,0.183,0.0,0.0,0.0,0.0,0.0,0.0,0.0,0.0
3.564,0.13926666666666665,0.9006000000000001,-0.2462,-0.366,0.915,0.061,0.0,0.0,0.0,0.0,0.0,0.0,0.0,0.0
3.574,0.1412,0.9012,-0.2444,-0.366,0.671,0.061,0.0,0.0,0.0,0.0,0.0,0.0,0.0,0.0
3.584,0.14313333333333333,0.9018,-0.24259999999999998,-0.427,0.366,0.061,0.0,0.0,0.0,0.0,0.0,0.0,0.0,0.0
3.593,0.14506666666666665,0.9024,-0.2408,-0.366,0.427,0.061,0.0,0.0,0.0,0.0,0.0,0.0,0.0,0.0
3.603,0.147,0.903,-0.239,-0.305,0.427,0.122,0.0,0.0,0.0,0.0,0.0,0.0,0.0,0.0
3.614,0.14825,0.906,-0.23424999999999999,-0.305,0.366,0.183,0.0,0.0,0.0,0.0,0.0,0.0,0.0,0.0
3.624,0.1495,0.909,-0.22949999999999998,-0.488,0.366,0.061,0.0,0.0,0.0,0.0,0.0,0.0,0.0,0.0
3.634,0.15075,0.912,-0.22475,-0.427,0.488,0.122,0.0,0.0,0.0,0.0,0.0,0.0,0.0,0.0
3.644,0.152,0.915,-0.22,-0.427,0.427,0.122,0.0,0.0,0.0,0.0,0.0,0.0,0.0,0.0
3.655,0.152,0.915,-0.22033333333333333,-0.549,0.366,0.122,0.0,0.0,0.0,0.0,0.0,0.0,0.0,0.0
3.663,0.152,0.915,-0.22066666666666668,-0.488,0.183,0.122,0.0,0.0,0.0,0.0,0.0,0.0,0.0,0.0
3.674,0.152,0.915,-0.221,-0.305,0.122,0.244,0.0,0.0,0.0,0.0,0.0,0.0,0.0,0.0
3.684,0.14866666666666667,0.9153333333333333,-0.21966666666666668,-0.305,0.305,0.183,0.0,0.0,0.0,0.0,0.0,0.0,0.0,0.0
3.694,0.14533333333333331,0.9156666666666667,-0.21833333333333332,-0.366,0.366,0.244,0.0,0.0,0.0,0.0,0.0,0.0,0.0,0.0
3.704,0.142,0.916,-0.217,-0.427,0.488,0.244,0.0,0.0,0.0,0.0,0.0,0.0,0.0,0.0
3.715,0.141,0.9126666666666667,-0.216,-0.549,0.427,0.122,0.0,0.0,0.0,0.0,0.0,0.0,0.0,0.0
3.723,0.14,0.9093333333333333,-0.215,-0.549,0.366,0.122,0.0,0.0,0.0,0.0,0.0,0.0,0.0,0.0
3.734,0.139,0.906,-0.214,-0.549,0.244,0.061,0.0,0.0,0.0,0.0,0.0,0.0,0.0,0.0
3.744,0.1385,0.906,-0.2135,-0.488,0.122,0.183,0.0,0.0,0.0,0.0,0.0,0.0,0.0,0.0
3.754,0.138,0.906,-0.213,-0.366,0.122,0.305,0.0,0.0,0.0,0.0,0.0,0.0,0.0,0.0
3.764,0.1375,0.906,-0.2125,-0.244,0.244,0.305,0.0,0.0,0.0,0.0,0.0,0.0,0.0,0.0
3.775,0.137,0.906,-0.212,-0.244,0.244,0.244,0.0,0.0,0.0,0.0,0.0,0.0,0.0,0.0
3.785,0.1386,0.907,-0.2124,-0.305,0.366,0.305,0.0,0.0,0.0,0.0,0.0,0.0,0.0,0.0
3.794,0.1402,0.908,-0.2128,-0.305,0.488,0.244,0.0,0.0,0.0,0.0,0.0,0.0,0.0,0.0
3.804,0.1418,0.909,-0.2132,-0.427,0.427,0.244,0.0,0.0,0.0,0.0,0.0,0.0,0.0,0.0
3.814,0.1434,0.91,-0.21359999999999998,-0.488,0.549,0.183,0.0,0.0,0.0,0.0,0.0,0.0,0.0,0.0
3.825,0.145,0.911,-0.214,-0.61,0.549,0.122,0.0,0.0,0.0,0.0,0.0,0.0,0.0,0.0
3.835,0.146,0.908,-0.214,-0.427,0.549,0.122,0.0,0.0,0.0,0.0,0.0,0.0,0.0,0.0
3.845,0.15,0.9075555555555556,-0.21622222222222223,-0.366,0.732,0.183,0.0,0.0,0.0,0.0,0.0,0.0,0.0,0.0
3.855,0.154,0.9071111111111111,-0.21844444444444444,-0.305,0.732,0.183,0.0,0.0,0.0,0.0,0.0,0.0,0.0,0.0
3.864,0.158,0.9066666666666667,-0.22066666666666668,-0.366,0.732,0.244,0.0,0.0,0.0,0.0,0.0,0.0,0.0,0.0
3.874,0.16199999999999998,0.9062222222222223,-0.2228888888888889,-0.427,0.732,0.305,0.0,0.0,0.0,0.0,0.0,0.0,0.0,0.0
3.885,0.16599999999999998,0.9057777777777778,-0.22511111111111112,-0.488,0.61,0.244,0.0,0.0,0.0,0.0,0.0,0.0,0.0,0.0
3.895,0.16999999999999998,0.9053333333333333,-0.22733333333333333,-0.366,0.793,0.244,0.0,0.0,0.0,0.0,0.0,0.0,0.0,0.0
3.905,0.174,0.904888888888889,-0.22955555555555557,-0.366,0.915,0.244,0.0,0.0,0.0,0.0,0.0,0.0,0.0,0.0
3.915,0.178,0.9044444444444445,-0.2317777777777778,-0.366,0.793,0.305,0.0,0.0,0.0,0.0,0.0,0.0,0.0,0.0
3.926,0.182,0.904,-0.234,-0.427,0.732,0.183,0.0,0.0,0.0,0.0,0.0,0.0,0.0,0.0
3.934,0.1820731707317073,0.9039024390243903,-0.23390243902439026,-0.427,0.732,0.122,0.0,0.0,0.0,0.0,0.0,0.0,0.0,0.0
3.945,0.18214634146341463,0.9038048780487805,-0.2338048780487805,-0.366,0.793,0.183,0.0,0.0,0.0,0.0,0.0,0.0,0.0,0.0
3.955,0.18221951219512195,0.9037073170731708,-0.23370731707317074,-0.366,0.854,0.183,0.0,0.0,0.0,0.0,0.0,0.0,0.0,0.0
3.965,0.18229268292682926,0.903609756097561,-0.233609756097561,-0.305,0.854,0.183,0.0,0.0,0.0,0.0,0.0,0.0,0.0,0.0
3.975,0.18236585365853658,0.9035121951219512,-0.23351219512195123,-0.366,0.732,0.305,0.0,0.0,0.0,0.0,0.0,0.0,0.0,0.0
3.986,0.1824390243902439,0.9034146341463415,-0.23341463414634148,-0.427,0.793,0.183,0.0,0.0,0.0,0.0,0.0,0.0,0.0,0.0
3.996,0.18251219512195122,0.9033170731707317,-0.23331707317073172,-0.488,0.732,0.244,0.0,0.0,0.0,0.0,0.0,0.0,0.0,0.0
4.005,0.18258536585365853,0.903219512195122,-0.23321951219512196,-0.427,0.61,0.183,0.0,0.0,0.0,0.0,0.0,0.0,0.0,0.0
4.015,0.18265853658536585,0.9031219512195122,-0.2331219512195122,-0.427,0.732,0.183,0.0,0.0,0.0,0.0,0.0,0.0,0.0,0.0
4.025,0.18273170731707317,0.9030243902439025,-0.23302439024390245,-0.366,1.159,0.122,0.0,0.0,0.0,0.0,0.0,0.0,0.0,0.0
4.035,0.18280487804878048,0.9029268292682927,-0.2329268292682927,-0.122,1.341,0.122,0.0,0.0,0.0,0.0,0.0,0.0,0.0,0.0
4.046,0.1828780487804878,0.902829268292683,-0.23282926829268294,-0.183,1.22,0.061,0.0,0.0,0.0,0.0,0.0,0.0,0.0,0.0
4.056,0.18295121951219512,0.9027317073170732,-0.23273170731707318,-0.122,0.976,0.122,0.0,0.0,0.0,0.0,0.0,0.0,0.0,0.0
4.065,0.18302439024390244,0.9026341463414634,-0.23263414634146343,-0.183,0.854,0.244,0.0,0.0,0.0,0.0,0.0,0.0,0.0,0.0
4.075,0.18309756097560975,0.9025365853658537,-0.23253658536585367,-0.183,1.037,0.244,0.0,0.0,0.0,0.0,0.0,0.0,0.0,0.0
4.085,0.18317073170731707,0.9024390243902439,-0.23243902439024391,-0.122,1.22,0.366,0.0,0.0,0.0,0.0,0.0,0.0,0.0,0.0
4.096,0.1832439024390244,0.9023414634146342,-0.23234146341463416,-0.183,1.22,0.427,0.0,0.0,0.0,0.0,0.0,0.0,0.0,0.0
4.106,0.1833170731707317,0.9022439024390244,-0.2322439024390244,-0.244,1.22,0.427,0.0,0.0,0.0,0.0,0.0,0.0,0.0,0.0
4.116,0.18339024390243902,0.9021463414634147,-0.23214634146341465,-0.183,1.28,0.427,0.0,0.0,0.0,0.0,0.0,0.0,0.0,0.0
4.126,0.18346341463414634,0.9020487804878049,-0.2320487804878049,-0.427,1.341,0.305,0.0,0.0,0.0,0.0,0.0,0.0,0.0,0.0
4.135,0.18353658536585366,0.9019512195121951,-0.23195121951219513,-0.488,1.463,0.244,0.0,0.0,0.0,0.0,0.0,0.0,0.0,0.0
4.145,0.18360975609756097,0.9018536585365854,-0.23185365853658538,-0.61,1.22,0.244,0.0,0.0,0.0,0.0,0.0,0.0,0.0,0.0
4.156,0.1836829268292683,0.9017560975609756,-0.23175609756097562,-0.549,1.098,0.122,0.0,0.0,0.0,0.0,0.0,0.0,0.0,0.0
4.166,0.1837560975609756,0.9016585365853659,-0.23165853658536587,-0.488,0.915,0.183,0.0,0.0,0.0,0.0,0.0,0.0,0.0,0.0
4.176,0.18382926829268292,0.9015609756097561,-0.2315609756097561,-0.427,0.793,0.183,0.0,0.0,0.0,0.0,0.0,0.0,0.0,0.0
4.186,0.18390243902439024,0.9014634146341464,-0.23146341463414635,-0.244,0.854,0.244,0.0,0.0,0.0,0.0,0.0,0.0,0.0,0.0
4.197,0.18397560975609756,0.9013658536585366,-0.2313658536585366,-0.122,1.037,0.305,0.0,0.0,0.0,0.0,0.0,0.0,0.0,0.0
4.205,0.18404878048780487,0.9012682926829269,-0.23126829268292684,-0.244,1.22,0.305,0.0,0.0,0.0,0.0,0.0,0.0,0.0,0.0
4.216,0.1841219512195122,0.9011707317073171,-0.23117073170731708,-0.366,1.22,0.305,0.0,0.0,0.0,0.0,0.0,0.0,0.0,0.0
4.226,0.1841951219512195,0.9010731707317073,-0.23107317073170733,-0.366,1.037,0.366,0.0,0.0,0.0,0.0,0.0,0.0,0.0,0.0
4.236,0.18426829268292683,0.9009756097560976,-0.23097560975609757,-0.244,0.915,0.244,0.0,0.0,0.0,0.0,0.0,0.0,0.0,0.0
4.246,0.18434146341463414,0.9008780487804878,-0.23087804878048782,-0.305,1.098,0.183,0.0,0.0,0.0,0.0,0.0,0.0,0.0,0.0
4.257,0.18441463414634146,0.9007804878048781,-0.23078048780487806,-0.488,1.22,0.183,0.0,0.0,0.0,0.0,0.0,0.0,0.0,0.0
4.265,0.18448780487804878,0.9006829268292683,-0.2306829268292683,-0.488,1.22,0.183,0.0,0.0,0.0,0.0,0.0,0.0,0.0,0.0
4.276,0.1845609756097561,0.9005853658536586,-0.23058536585365855,-0.305,1.098,0.305,0.0,0.0,0.0,0.0,0.0,0.0,0.0,0.0
4.286,0.1846341463414634,0.9004878048780488,-0.2304878048780488,-0.244,1.098,0.305,0.0,0.0,0.0,0.0,0.0,0.0,0.0,0.0
4.296,0.18470731707317073,0.900390243902439,-0.23039024390243903,-0.366,1.098,0.305,0.0,0.0,0.0,0.0,0.0,0.0,0.0,0.0
4.306,0.18478048780487805,0.9002926829268293,-0.23029268292682928,-0.366,0.915,0.427,0.0,0.0,0.0,0.0,0.0,0.0,0.0,0.0
4.317,0.18485365853658536,0.9001951219512195,-0.23019512195121952,-0.305,0.671,0.427,0.0,0.0,0.0,0.0,0.0,0.0,0.0,0.0
4.327,0.18492682926829268,0.9000975609756098,-0.23009756097560977,-0.244,0.549,0.366,0.0,0.0,0.0,0.0,0.0,0.0,0.0,0.0
4.336,0.185,0.9,-0.23,-0.366,0.61,0.427,0.0,0.0,0.0,0.0,0.0,0.0,0.0,0.0
4.346,0.18507317073170731,0.8999024390243903,-0.22990243902439025,-0.366,0.793,0.427,0.0,0.0,0.0,0.0,0.0,0.0,0.0,0.0
4.356,0.18514634146341463,0.8998048780487805,-0.2298048780487805,-0.488,0.793,0.244,0.0,0.0,0.0,0.0,0.0,0.0,0.0,0.0
4.367,0.18521951219512195,0.8997073170731708,-0.22970731707317074,-0.549,0.854,0.305,0.0,0.0,0.0,0.0,0.0,0.0,0.0,0.0
4.377,0.18529268292682927,0.899609756097561,-0.22960975609756099,-0.488,0.793,0.305,0.0,0.0,0.0,0.0,0.0,0.0,0.0,0.0
4.387,0.18536585365853658,0.8995121951219512,-0.22951219512195123,-0.427,0.61,0.122,0.0,0.0,0.0,0.0,0.0,0.0,0.0,0.0
4.397,0.1854390243902439,0.8994146341463415,-0.22941463414634147,-0.488,0.549,0.305,0.0,0.0,0.0,0.0,0.0,0.0,0.0,0.0
4.406,0.18551219512195122,0.8993170731707317,-0.22931707317073172,-0.366,0.488,0.244,0.0,0.0,0.0,0.0,0.0,0.0,0.0,0.0
4.416,0.18558536585365853,0.899219512195122,-0.22921951219512196,-0.366,0.549,0.305,0.0,0.0,0.0,0.0,0.0,0.0,0.0,0.0
4.427,0.18565853658536585,0.8991219512195122,-0.2291219512195122,-0.366,0.549,0.366,0.0,0.0,0.0,0.0,0.0,0.0,0.0,0.0
4.437,0.18573170731707317,0.8990243902439025,-0.22902439024390245,-0.305,0.61,0.488,0.0,0.0,0.0,0.0,0.0,0.0,0.0,0.0
4.447,0.1858048780487805,0.8989268292682927,-0.2289268292682927,-0.183,0.61,0.427,0.0,0.0,0.0,0.0,0.0,0.0,0.0,0.0
4.457,0.1858780487804878,0.898829268292683,-0.22882926829268294,-0.366,0.488,0.305,0.0,0.0,0.0,0.0,0.0,0.0,0.0,0.0
4.468,0.18595121951219512,0.8987317073170732,-0.22873170731707318,-0.305,0.427,0.305,0.0,0.0,0.0,0.0,0.0,0.0,0.0,0.0
4.476,0.18602439024390244,0.8986341463414634,-0.22863414634146342,-0.366,0.244,0.305,0.0,0.0,0.0,0.0,0.0,0.0,0.0,0.0
4.487,0.18609756097560975,0.8985365853658537,-0.22853658536585367,-0.488,0.183,0.305,0.0,0.0,0.0,0.0,0.0,0.0,0.0,0.0
4.497,0.18617073170731707,0.8984390243902439,-0.2284390243902439,-0.488,0.244,0.305,0.0,0.0,0.0,0.0,0.0,0.0,0.0,0.0
4.507,0.1862439024390244,0.8983414634146342,-0.22834146341463415,-0.427,0.183,0.305,0.0,0.0,0.0,0.0,0.0,0.0,0.0,0.0
4.517,0.1863170731707317,0.8982439024390244,-0.2282439024390244,-0.244,0.061,0.427,0.0,0.0,0.0,0.0,0.0,0.0,0.0,0.0
4.528,0.18639024390243902,0.8981463414634147,-0.22814634146341464,-0.244,0.244,0.366,0.0,0.0,0.0,0.0,0.0,0.0,0.0,0.0
4.538,0.18646341463414634,0.8980487804878049,-0.2280487804878049,-0.305,0.366,0.305,0.0,0.0,0.0,0.0,0.0,0.0,0.0,0.0
4.547,0.18653658536585366,0.8979512195121951,-0.22795121951219513,-0.305,0.488,0.305,0.0,0.0,0.0,0.0,0.0,0.0,0.0,0.0
4.557,0.18660975609756097,0.8978536585365854,-0.22785365853658537,-0.183,0.671,0.183,0.0,0.0,0.0,0.0,0.0,0.0,0.0,0.0
4.567,0.1866829268292683,0.8977560975609756,-0.22775609756097562,-0.183,0.732,0.244,0.0,0.0,0.0,0.0,0.0,0.0,0.0,0.0
4.577,0.1867560975609756,0.8976585365853659,-0.22765853658536586,-0.183,0.61,0.244,0.0,0.0,0.0,0.0,0.0,0.0,0.0,0.0
4.588,0.18682926829268293,0.8975609756097561,-0.2275609756097561,-0.366,0.732,0.183,0.0,0.0,0.0,0.0,0.0,0.0,0.0,0.0
4.598,0.18690243902439024,0.8974634146341464,-0.22746341463414635,-0.305,0.793,0.183,0.0,0.0,0.0,0.0,0.0,0.0,0.0,0.0
4.607,0.18697560975609756,0.8973658536585366,-0.2273658536585366,-0.183,0.732,0.244,0.0,0.0,0.0,0.0,0.0,0.0,0.0,0.0
4.617,0.18704878048780488,0.8972682926829268,-0.22726829268292684,-0.122,0.793,0.366,0.0,0.0,0.0,0.0,0.0,0.0,0.0,0.0
4.627,0.1871219512195122,0.8971707317073171,-0.22717073170731708,-0.122,0.854,0.305,0.0,0.0,0.0,0.0,0.0,0.0,0.0,0.0
4.638,0.1871951219512195,0.8970731707317073,-0.22707317073170732,-0.122,0.732,0.244,0.0,0.0,0.0,0.0,0.0,0.0,0.0,0.0
4.648,0.18726829268292683,0.8969756097560976,-0.22697560975609757,-0.061,0.793,0.244,0.0,0.0,0.0,0.0,0.0,0.0,0.0,0.0
4.658,0.18734146341463415,0.8968780487804878,-0.2268780487804878,-0.183,0.854,0.244,0.0,0.0,0.0,0.0,0.0,0.0,0.0,0.0
4.668,0.18741463414634146,0.8967804878048781,-0.22678048780487806,-0.244,0.732,0.183,0.0,0.0,0.0,0.0,0.0,0.0,0.0,0.0
4.677,0.18748780487804878,0.8966829268292683,-0.2266829268292683,-0.366,0.671,0.183,0.0,0.0,0.0,0.0,0.0,0.0,0.0,0.0
4.687,0.1875609756097561,0.8965853658536586,-0.22658536585365854,-0.366,0.61,0.183,0.0,0.0,0.0,0.0,0.0,0.0,0.0,0.0
4.698,0.18763414634146341,0.8964878048780488,-0.2264878048780488,-0.305,0.61,0.183,0.0,0.0,0.0,0.0,0.0,0.0,0.0,0.0
4.708,0.18770731707317073,0.896390243902439,-0.22639024390243903,-0.244,0.549,0.244,0.0,0.0,0.0,0.0,0.0,0.0,0.0,0.0
4.718,0.18778048780487805,0.8962926829268293,-0.22629268292682927,0.0,0.549,0.244,0.0,0.0,0.0,0.0,0.0,0.0,0.0,0.0
4.728,0.18785365853658537,0.8961951219512195,-0.22619512195121952,0.061,0.549,0.183,0.0,0.0,0.0,0.0,0.0,0.0,0.0,0.0
4.739,0.18792682926829268,0.8960975609756098,-0.22609756097560976,-0.183,0.549,0.122,0.0,0.0,0.0,0.0,0.0,0.0,0.0,0.0
4.747,0.188,0.896,-0.226,-0.183,0.427,0.122,0.0,0.0,0.0,0.0,0.0,0.0,0.0,0.0
4.758,0.19,0.8965000000000001,-0.2255,-0.122,0.305,0.183,0.0,0.0,0.0,0.0,0.0,0.0,0.0,0.0
4.768,0.192,0.897,-0.225,-0.061,0.488,0.244,0.0,0.0,0.0,0.0,0.0,0.0,0.0,0.0
4.778,0.194,0.8975,-0.2245,-0.061,0.61,0.244,0.0,0.0,0.0,0.0,0.0,0.0,0.0,0.0
4.788,0.196,0.898,-0.224,0.122,0.671,0.244,0.0,0.0,0.0,0.0,0.0,0.0,0.0,0.0
4.799,0.1945,0.9006666666666667,-0.22083333333333333,0.244,0.732,0.244,0.0,0.0,0.0,0.0,0.0,0.0,0.0,0.0
4.809,0.193,0.9033333333333333,-0.21766666666666667,0.061,0.732,0.244,0.0,0.0,0.0,0.0,0.0,0.0,0.0,0.0
4.818,0.1915,0.906,-0.2145,0.0,0.793,0.244,0.0,0.0,0.0,0.0,0.0,0.0,0.0,0.0
4.828,0.19,0.9086666666666667,-0.21133333333333332,-0.061,0.854,0.244,0.0,0.0,0.0,0.0,0.0,0.0,0.0,0.0
4.838,0.1885,0.9113333333333333,-0.20816666666666667,-0.244,0.671,0.244,0.0,0.0,0.0,0.0,0.0,0.0,0.0,0.0
4.848,0.187,0.914,-0.205,-0.244,0.671,0.244,0.0,0.0,0.0,0.0,0.0,0.0,0.0,0.0
4.859,0.17566666666666667,0.917,-0.206,0.0,0.793,0.244,0.0,0.0,0.0,0.0,0.0,0.0,0.0,0.0
4.869,0.16433333333333333,0.92,-0.207,-0.122,0.976,0.244,0.0,0.0,0.0,0.0,0.0,0.0,0.0,0.0
4.878,0.153,0.923,-0.208,-0.183,1.22,0.183,0.0,0.0,0.0,0.0,0.0,0.0,0.0,0.0
4.888,0.14655555555555555,0.922,-0.20888888888888887,-0.122,1.402,0.244,0.0,0.0,0.0,0.0,0.0,0.0,0.0,0.0
4.898,0.1401111111111111,0.921,-0.20977777777777776,0.0,1.524,0.244,0.0,0.0,0.0,0.0,0.0,0.0,0.0,0.0
4.909,0.13366666666666666,0.92,-0.21066666666666667,-0.061,1.463,0.183,0.0,0.0,0.0,0.0,0.0,0.0,0.0,0.0
4.919,0.12722222222222224,0.919,-0.21155555555555555,-0.061,1.463,0.183,0.0,0.0,0.0,0.0,0.0,0.0,0.0,0.0
4.929,0.12077777777777778,0.918,-0.21244444444444444,-0.061,1.341,0.122,0.0,0.0,0.0,0.0,0.0,0.0,0.0,0.0
4.939,0.11433333333333334,0.917,-0.21333333333333332,0.0,1.341,0.244,0.0,0.0,0.0,0.0,0.0,0.0,0.0,0.0
4.948,0.1078888888888889,0.916,-0.21422222222222223,-0.122,1.28,0.183,0.0,0.0,0.0,0.0,0.0,0.0,0.0,0.0
4.958,0.10144444444444445,0.915,-0.21511111111111111,-0.122,1.098,0.0,0.0,0.0,0.0,0.0,0.0,0.0,0.0,0.0
4.969,0.095,0.914,-0.216,-0.061,0.854,-0.061,0.0,0.0,0.0,0.0,0.0,0.0,0.0,0.0
4.979,0.095,0.907,-0.219,-0.061,0.61,0.061,0.0,0.0,0.0,0.0,0.0,0.0,0.0,0.0
4.989,0.09466666666666666,0.9063333333333333,-0.22066666666666668,0.061,0.366,0.0,0.0,0.0,0.0,0.0,0.0,0.0,0.0,0.0
4.999,0.09433333333333334,0.9056666666666667,-0.22233333333333333,0.183,0.061,0.061,0.0,0.0,0.0,0.0,0.0,0.0,0.0,0.0
5.01,0.094,0.905,-0.224,0.183,0.122,0.122,0.0,0.0,0.0,0.0,0.0,0.0,0.0,0.0
5.018,0.0975,0.9055,-0.2275,0.305,0.305,0.122,0.0,0.0,0.0,0.0,0.0,0.0,0.0,0.0
5.029,0.101,0.906,-0.231,0.244,0.427,0.183,0.0,0.0,0.0,0.0,0.0,0.0,0.0,0.0
5.039,0.10325000000000001,0.90625,-0.2315,0.122,0.427,0.244,0.0,0.0,0.0,0.0,0.0,0.0,0.0,0.0
5.049,0.10550000000000001,0.9065000000000001,-0.232,-0.061,0.305,0.183,0.0,0.0,0.0,0.0,0.0,0.0,0.0,0.0
5.059,0.10775,0.9067500000000001,-0.2325,-0.122,0.305,0.183,0.0,0.0,0.0,0.0,0.0,0.0,0.0,0.0
5.07,0.11,0.907,-0.233,-0.183,0.122,0.183,0.0,0.0,0.0,0.0,0.0,0.0,0.0,0.0
5.08,0.11533333333333333,0.9075,-0.23,-0.183,0.122,0.183,0.0,0.0,0.0,0.0,0.0,0.0,0.0,0.0
5.089,0.12066666666666666,0.908,-0.227,-0.061,-0.061,0.183,0.0,0.0,0.0,0.0,0.0,0.0,0.0,0.0
5.099,0.126,0.9085000000000001,-0.224,-0.061,-0.122,0.183,0.0,0.0,0.0,0.0,0.0,0.0,0.0,0.0
5.109,0.13133333333333333,0.909,-0.221,-0.183,0.183,0.183,0.0,0.0,0.0,0.0,0.0,0.0,0.0,0.0
5.119,0.13666666666666666,0.9095,-0.218,-0.122,0.244,0.305,0.0,0.0,0.0,0.0,0.0,0.0,0.0,0.0
5.13,0.142,0.91,-0.215,-0.183,0.183,0.122,0.0,0.0,0.0,0.0,0.0,0.0,0.0,0.0
5.14,0.14243023255813952,0.9099651162790698,-0.21490697674418605,-0.061,0.061,0.183,0.0,0.0,0.0,0.0,0.0,0.0,0.0,0.0
5.149,0.14286046511627906,0.9099302325581395,-0.2148139534883721,0.0,0.061,0.183,0.0,0.0,0.0,0.0,0.0,0.0,0.0,0.0
5.159,0.1432906976744186,0.9098953488372094,-0.21472093023255814,0.0,0.183,0.183,0.0,0.0,0.0,0.0,0.0,0.0,0.0,0.0
5.169,0.14372093023255814,0.909860465116279,-0.2146279069767442,0.183,0.366,0.122,0.0,0.0,0.0,0.0,0.0,0.0,0.0,0.0
5.179,0.14415116279069767,0.9098255813953489,-0.21453488372093024,0.183,0.488,0.061,0.0,0.0,0.0,0.0,0.0,0.0,0.0,0.0
5.19,0.14458139534883718,0.9097906976744187,-0.21444186046511626,0.0,0.427,0.122,0.0,0.0,0.0,0.0,0.0,0.0,0.0,0.0
5.2,0.14501162790697672,0.9097558139534884,-0.2143488372093023,-0.061,0.366,0.061,0.0,0.0,0.0,0.0,0.0,0.0,0.0,0.0
5.21,0.14544186046511626,0.9097209302325582,-0.21425581395348836,-0.183,0.305,0.0,0.0,0.0,0.0,0.0,0.0,0.0,0.0,0.0
5.219,0.1458720930232558,0.909686046511628,-0.2141627906976744,-0.244,0.183,-0.061,0.0,0.0,0.0,0.0,0.0,0.0,0.0,0.0
5.229,0.14630232558139533,0.9096511627906977,-0.21406976744186046,-0.122,0.183,0.061,0.0,0.0,0.0,0.0,0.0,0.0,0.0,0.0
5.24,0.14673255813953487,0.9096162790697675,-0.2139767441860465,0.122,0.183,-0.061,0.0,0.0,0.0,0.0,0.0,0.0,0.0,0.0
5.25,0.1471627906976744,0.9095813953488372,-0.21388372093023256,0.183,0.244,-0.061,0.0,0.0,0.0,0.0,0.0,0.0,0.0,0.0
5.26,0.14759302325581394,0.909546511627907,-0.2137906976744186,0.244,0.366,0.0,0.0,0.0,0.0,0.0,0.0,0.0,0.0,0.0
5.27,0.14802325581395348,0.9095116279069768,-0.21369767441860466,0.488,0.671,0.061,0.0,0.0,0.0,0.0,0.0,0.0,0.0,0.0
5.281,0.14845348837209302,0.9094767441860465,-0.2136046511627907,0.366,1.159,0.0,0.0,0.0,0.0,0.0,0.0,0.0,0.0,0.0
5.289,0.14888372093023255,0.9094418604651163,-0.21351162790697675,0.0,1.524,0.061,0.0,0.0,0.0,0.0,0.0,0.0,0.0,0.0
5.3,0.1493139534883721,0.909406976744186,-0.21341860465116277,-0.244,1.829,0.061,0.0,0.0,0.0,0.0,0.0,0.0,0.0,0.0
5.31,0.14974418604651163,0.9093720930232558,-0.21332558139534882,-0.488,2.195,0.061,0.0,0.0,0.0,0.0,0.0,0.0,0.0,0.0
5.32,0.15017441860465114,0.9093372093023256,-0.21323255813953487,-0.732,2.683,0.183,0.0,0.0,0.0,0.0,0.0,0.0,0.0,0.0
5.33,0.15060465116279068,0.9093023255813953,-0.21313953488372092,-0.793,2.866,0.244,0.0,0.0,0.0,0.0,0.0,0.0,0.0,0.0
5.341,0.1510348837209302,0.9092674418604652,-0.21304651162790697,-0.793,3.171,0.183,0.0,0.0,0.0,0.0,0.0,0.0,0.0,0.0
5.351,0.15146511627906975,0.909232558139535,-0.21295348837209302,-1.037,3.049,0.183,0.0,0.0,0.0,0.0,0.0,0.0,0.0,0.0
5.36,0.1518953488372093,0.9091976744186047,-0.21286046511627907,-1.159,2.439,0.122,0.0,0.0,0.0,0.0,0.0,0.0,0.0,0.0
5.37,0.15232558139534882,0.9091627906976745,-0.21276744186046512,-0.915,1.951,0.183,0.0,0.0,0.0,0.0,0.0,0.0,0.0,0.0
5.38,0.15275581395348836,0.9091279069767442,-0.21267441860465117,-0.732,1.829,0.244,0.0,0.0,0.0,0.0,0.0,0.0,0.0,0.0
5.39,0.1531860465116279,0.909093023255814,-0.21258139534883722,-0.427,2.073,0.183,0.0,0.0,0.0,0.0,0.0,0.0,0.0,0.0
5.401,0.15361627906976744,0.9090581395348838,-0.21248837209302324,0.0,2.256,0.0,0.0,0.0,0.0,0.0,0.0,0.0,0.0,0.0
5.411,0.15404651162790697,0.9090232558139535,-0.21239534883720929,0.427,2.134,-0.122,0.0,0.0,0.0,0.0,0.0,0.0,0.0,0.0
5.421,0.1544767441860465,0.9089883720930233,-0.21230232558139533,0.732,2.012,-0.244,0.0,0.0,0.0,0.0,0.0,0.0,0.0,0.0
5.43,0.15490697674418605,0.908953488372093,-0.21220930232558138,0.915,1.707,-0.305,0.0,0.0,0.0,0.0,0.0,0.0,0.0,0.0
5.44,0.15533720930232556,0.9089186046511628,-0.21211627906976743,1.28,1.707,-0.305,0.0,0.0,0.0,0.0,0.0,0.0,0.0,0.0
5.45,0.1557674418604651,0.9088837209302326,-0.21202325581395348,1.463,2.073,-0.488,0.0,0.0,0.0,0.0,0.0,0.0,0.0,0.0
5.461,0.15619767441860463,0.9088488372093023,-0.21193023255813953,1.585,2.256,-0.671,0.0,0.0,0.0,0.0,0.0,0.0,0.0,0.0
5.471,0.15662790697674417,0.9088139534883721,-0.21183720930232558,1.89,2.012,-0.732,0.0,0.0,0.0,0.0,0.0,0.0,0.0,0.0
5.481,0.1570581395348837,0.9087790697674419,-0.21174418604651163,2.256,1.768,-0.671,0.0,0.0,0.0,0.0,0.0,0.0,0.0,0.0
5.49,0.15748837209302324,0.9087441860465116,-0.21165116279069768,2.561,1.829,-0.61,0.0,0.0,0.0,0.0,0.0,0.0,0.0,0.0
5.5,0.15791860465116278,0.9087093023255814,-0.21155813953488373,2.683,1.951,-0.671,0.0,0.0,0.0,0.0,0.0,0.0,0.0,0.0
5.511,0.15834883720930232,0.9086744186046511,-0.21146511627906975,2.866,1.89,-0.793,0.0,0.0,0.0,0.0,0.0,0.0,0.0,0.0
5.521,0.15877906976744185,0.908639534883721,-0.2113720930232558,3.049,1.707,-0.61,0.0,0.0,0.0,0.0,0.0,0.0,0.0,0.0
5.531,0.1592093023255814,0.9086046511627908,-0.21127906976744185,3.232,2.073,-0.549,0.0,0.0,0.0,0.0,0.0,0.0,0.0,0.0
5.541,0.15963953488372093,0.9085697674418605,-0.2111860465116279,2.988,2.012,-0.549,0.0,0.0,0.0,0.0,0.0,0.0,0.0,0.0
5.552,0.16006976744186047,0.9085348837209303,-0.21109302325581394,2.683,1.829,-0.366,0.0,0.0,0.0,0.0,0.0,0.0,0.0,0.0
5.56,0.16049999999999998,0.9085000000000001,-0.211,2.805,1.707,-0.366,0.0,0.0,0.0,0.0,0.0,0.0,0.0,0.0
5.571,0.1609302325581395,0.9084651162790698,-0.21090697674418604,2.744,1.524,-0.244,0.0,0.0,0.0,0.0,0.0,0.0,0.0,0.0
5.581,0.16136046511627905,0.9084302325581396,-0.2108139534883721,2.561,1.585,-0.122,0.0,0.0,0.0,0.0,0.0,0.0,0.0,0.0
5.591,0.1617906976744186,0.9083953488372093,-0.21072093023255814,2.195,1.585,-0.061,0.0,0.0,0.0,0.0,0.0,0.0,0.0,0.0
5.601,0.16222093023255812,0.9083604651162791,-0.2106279069767442,1.951,1.646,0.122,0.0,0.0,0.0,0.0,0.0,0.0,0.0,0.0
5.612,0.16265116279069766,0.9083255813953489,-0.21053488372093024,1.829,1.707,0.244,0.0,0.0,0.0,0.0,0.0,0.0,0.0,0.0
5.622,0.1630813953488372,0.9082906976744186,-0.21044186046511626,1.707,1.951,0.427,0.0,0.0,0.0,0.0,0.0,0.0,0.0,0.0
