Timestamp,Acc x (m/s^2),Acc y (m/s^2),Acc z (m/s^2),Gyro x (rad/s),Gyro y (rad/s),Gyro z (rad/s),Beccheggio/Pitch (rad/s),Rollio/Roll (rad/s),Imbardata/Yaw (rad/s),Mag x (microTesla),Mag y (microTesla),Mag z (microTesla),Altitudine (m),Pressione (milliBar)
0.025947021484375,0.0075163669794797,0.0987675404831767,-0.042602293407917,0.0048619452863931,0.0019228034652769,0.0147972423583269,0.0873921521380953,0.0735702638802248,2.15074112268317,-6.207339286804199,-17.93583869934082,-35.668792724609375,0.0029364495339262754,1015.8564927454303
0.03601611328125,-0.0107984573900699,0.1136475680984556,-0.0113321258753538,0.0004828395321965,0.0183390956372022,0.0078293494880199,0.0874754893168235,0.0736843847870968,2.1508471430116334,-6.330495834350586,-17.791053771972656,-35.44622802734375,0.002989316880181376,1015.856482061304
0.0460849609375,-0.0305181801214814,0.0612708265859633,0.0501952327549457,-0.0190112330019474,0.0191225986927747,-0.0019729482010006,0.0874291689624418,0.0739111395506555,2.1508884832201165,-6.165009498596191,-18.04193687438965,-35.474273681640625,0.0030421829445863137,1015.8564713774367
0.056154296875,-0.0227318370942026,0.0149395027175545,0.0637502953767776,-0.0358289964497089,0.0108520444482564,-0.0067585725337266,0.0871592229397722,0.0741085197845759,2.150854709430422,-6.6051788330078125,-18.67717170715332,-35.592681884765625,0.003095051572691576,1015.8564606930514
0.06622216796875,0.0135951023712754,0.0269585148785263,0.0756003076463937,-0.0515994392335414,-0.0061820661649107,-0.0066621657460927,0.0867199611076162,0.0741707102937893,2.150813876859841,-6.651684761047363,-19.095083236694336,-35.82598876953125,0.003147912509695864,1015.8564500102204
0.076290771484375,0.0410717228397727,0.0296034033641219,0.0713759679496288,-0.0711005255579948,-0.0130018629133701,-0.0001258556731045,0.0861023522572928,0.0741111171007849,2.150804327477604,-6.337495803833008,-18.772680282592773,-35.451690673828125,0.003200777292250639,1015.8564393266122
0.086360107421875,0.0179334238365292,0.0055161330729722,0.0344306773900985,-0.0849641412496566,-0.0155507735908031,0.0018731132149696,0.0853064089890225,0.0739774814508451,2.150857642711269,-6.336668968200684,-19.090206146240234,-35.658233642578125,0.0032536459203559025,1015.8564286422269
0.09642919921875,0.0111018973160535,0.0380829162873327,-0.0253384393960237,-0.0836158394813537,-0.0159053653478622,0.0035203918814659,0.0844432831642464,0.0738131713856114,2.150937440429856,-6.5982208251953125,-19.0300235748291,-35.410797119140625,0.003306513266611003,1015.8564179581007
0.106498046875,0.0192496940668672,0.0760024587064981,-0.050067806982994,-0.0657838433980941,-0.0042881234548985,0.0064317593351006,0.0836839183760377,0.0736940614352015,2.1510549686738707,-6.64070987701416,-18.77603912353516,-35.703857421875,0.00335937933101594,1015.8564072742334
0.116566162109375,0.0235663151569664,0.092556410883367,-0.0430026909023523,-0.0518309772014617,0.0100868437439203,0.0116534568369388,0.0830810346328028,0.0737080407505534,2.151203961431932,-6.600810050964356,-18.77706527709961,-35.636474609375,0.0034122415498703904,1015.8563965911434
0.126635009765625,0.009880758023262,0.0775154205527156,-0.0602495937794446,-0.0335443802177906,0.0096572749316692,0.0155078507959842,0.0826597182717746,0.073819948097442,2.1513767201335585,-6.326913833618164,-18.56332778930664,-36.01171875,0.0034651076142753283,1015.8563859072761
0.1367041015625,0.0184622700162231,0.0545039627995342,-0.0786520964324474,-0.0131097976118326,0.0008207377977669,0.0156184108927845,0.0824487262976509,0.0738440195040054,2.1515480838276764,-6.78822135925293,-18.775297164916992,-35.291168212890625,0.0035179749605304287,1015.8563752231498
0.14677294921875,0.0254047826305031,0.0648809799071401,-0.052346857830882,-0.0065187402069568,-0.0110356556251645,0.0080845933407545,0.0823621840270649,0.0737760066289001,2.1516700664888533,-6.418294906616211,-18.72232818603516,-35.513031005859375,0.0035708410249353667,1015.8563645392826
0.156842041015625,0.0035683600060641,0.0664015405379235,0.0230909527301788,-0.0066396230831742,-0.0239407774060964,0.002981481142342,0.0823034049341597,0.0736056715714553,2.15171524638939,-6.584065437316895,-19.049545288085938,-35.75152587890625,0.003623708371190466,1015.8563538551564
0.166909912109375,-0.0005064151521772,0.0298137581791728,0.0522580105036497,-0.0141630535945296,-0.0325704850256443,0.0023031746968626,0.0822037495550554,0.073316935283529,2.151737918123161,-6.607666969299316,-19.14128875732422,-35.56317138671875,0.003676569308194754,1015.8563431723254
0.17697900390625,-0.0084150693848729,0.0228608703013509,0.099966102617979,-0.0273623652756214,-0.0302269216626882,-0.0040769213810563,0.0819669788443395,0.0729908577024448,2.1517603737388145,-6.672697067260742,-19.15985679626465,-35.599029541015625,0.0037294366544498546,1015.8563324881991
0.187048095703125,-0.0320958777669817,0.0463861227955669,0.1044680902123451,-0.0312441885471344,-0.0236451849341392,-0.0087473066523671,0.081633450961228,0.0727164532537935,2.151712392734048,-6.551185607910156,-18.915809631347656,-35.672576904296875,0.0037823040007049545,1015.8563218040728
0.197116943359375,-0.0357622913200408,0.034666166646406,0.1044669211685657,-0.0388820506632328,-0.0124651817604899,-0.0079071167856454,0.0812304696070562,0.0725375686937274,2.1516438907724647,-6.712512016296387,-18.97161293029785,-35.7225341796875,0.003835170065109893,1015.8563111202056
0.20718603515625,-0.0421572530541569,0.0158766374371945,0.0788239458680152,-0.0436152890324592,-0.0007629860192537,-0.0066133537329733,0.0807931388939508,0.0724695402997064,2.1516059532858294,-6.530107498168945,-18.94414710998535,-35.841400146484375,0.0038880374113649933,1015.8563004360793
0.2172548828125,-0.0135773475188761,0.0265566560793668,0.0423830976992845,-0.0419834330677986,-0.0056598260998725,-0.0060816728509962,0.0803395902305608,0.0724516239567596,2.151571971473349,-6.597080230712891,-18.68463897705078,-35.7642822265625,0.00394090347576993,1015.8562897522121
0.227322998046875,-0.0078239716239273,0.0234890852022916,-0.0013607669591903,-0.0320093631744384,-0.0223988592624664,-0.0031881486065685,0.0799492319135001,0.0723196699258958,2.1515621827727207,-6.6512451171875,-18.87743186950684,-35.615142822265625,0.003993765694624381,1015.856279069122
0.23739208984375,-0.0134044751700013,0.018014453183487,0.0077215341627597,-0.0240358188748359,-0.0239127539098262,-0.0007747919298708,0.0796647288494892,0.0720616305509215,2.151567910809353,-6.692686080932617,-18.755949020385746,-35.656402587890625,0.004046633040879481,1015.8562683849958
0.2474609375,-0.0330216143097728,0.0146599551238119,0.0738759680718183,-0.0257285237312316,-0.00747359264642,0.000815381295979,0.0794134248796777,0.0718928657692202,2.151591320882809,-6.399564743041992,-18.5956974029541,-36.2041015625,0.004099499105284419,1015.8562577011286
0.2575302734375,-0.0406076124593615,0.0339822029702365,0.1308060620397329,-0.0327215194702148,0.0106726121157407,-0.0041813165880739,0.0791245357340861,0.0719018944487232,2.15159096473307,-6.464466094970703,-18.56037139892578,-35.947845458984375,0.004152367733389682,1015.8562470167432
0.267598876953125,-0.0157358407270163,0.0736700702361762,0.1481482419848442,-0.038646250963211,0.0291179325431585,-0.0007279957644641,0.0787606414186257,0.0721113835052517,2.1516150075166216,-6.461923599243164,-18.733760833740234,-35.913818359375,0.004205232515944457,1015.856236333135
0.2776669921875,0.0324264979608356,0.0756519647683948,0.0687321754425764,-0.0372346937656402,0.0392439514398574,0.0059455418959259,0.0783817469688931,0.0724643370624732,2.151656564522082,-6.635354042053223,-18.877281188964844,-35.8670654296875,0.004258094734798907,1015.856225650045
0.287736083984375,0.0538361465405672,0.0761733582939952,0.026089550024271,-0.0330732390284538,0.0376676246523857,0.0087381321936845,0.0780371310144896,0.0728295009240242,2.1517411937153508,-6.646322250366211,-18.649126052856445,-35.82232666015625,0.004310962081054008,1015.8562149659188
0.297804931640625,0.0742386639043688,0.0390143519185483,0.0148112001627683,-0.0272071212530136,0.0405608639121055,0.0131829120218753,0.0777566388075097,0.0732062403769303,2.151880519406536,-6.630701065063477,-18.643999099731445,-35.9525146484375,0.004363828145458945,1015.8562042820515
0.3078740234375,0.0681215692635625,0.0202566060870885,0.0269873756468296,-0.0238158516585826,0.0399645790457725,0.0183060336858034,0.0775216375577699,0.0735867037204394,2.152054369759279,-6.65895938873291,-18.60591697692871,-35.738372802734375,0.004416695491714046,1015.8561935979252
0.317943115234375,0.0157117291990667,0.0307954626929014,0.0365823024660348,-0.0291015729308128,0.0455190390348434,0.0168441869318485,0.0772833309854064,0.0740187979051546,2.1522691941564958,-6.30366325378418,-18.642290115356445,-36.022857666015625,0.004469562837969146,1015.856182913799
0.3280107421875,-0.0158128514859825,0.0518302135456353,0.0032680618852376,-0.0290091633796691,0.0403272062540054,0.0108669884502887,0.0770165964890233,0.0744265980556889,2.1524296413157677,-6.283648490905762,-18.69855499267578,-35.920867919921875,0.00452242249312327,1015.856172231227
0.338080078125,0.0202932117704302,0.0677514207769185,-0.0172258600890636,-0.0336639732122421,0.0266170725226402,0.0065815821290016,0.0767166183472679,0.0747273494879727,2.1525424690985457,-6.327052116394043,-18.713150024414062,-35.964630126953125,0.004575291121228535,1015.8561615468417
0.348149169921875,0.0658344812396913,0.0666547846466302,-0.0432522817492485,-0.0399530306458473,0.0103054763749241,0.0051133809611201,0.0763289996566626,0.0749040109012371,2.152640676309835,-6.468923568725586,-18.690547943115234,-36.30615234375,0.0046281584674836345,1015.8561508627154
0.358218017578125,0.092810093383491,0.0586778874833136,-0.097276717403531,-0.0480016991496086,0.0022813277319073,0.0040768031030893,0.0758804993292149,0.0749586367129297,2.1527261237888253,-6.373899459838867,-18.583993911743164,-35.849700927734375,0.004681024531888572,1015.8561401788481
0.368287109375,0.0998671722881495,0.0094885438352823,-0.1139390983909368,-0.0579294264316558,-0.0032844122033566,0.0071969628334045,0.0753491454312572,0.07495313945022,2.1528251146850943,-6.576145172119141,-18.65376663208008,-35.68658447265625,0.004733891878143673,1015.8561294947219
0.378355224609375,0.0886854146689176,-0.0014442074589431,-0.1115501574277877,-0.0619368180632591,-0.00143200205639,0.0076072025112807,0.0747514270313591,0.0749455576000566,2.15294657394304,-6.474889755249023,-18.508718490600582,-36.10400390625,0.004786754096998123,1015.8561188116319
0.388424072265625,0.060538055332005,0.0468808475099504,-0.1398445240199566,-0.060175135731697,-0.0015332018956542,0.0076111969538033,0.0741385775556841,0.0749590577389623,2.1530586769988123,-6.577238082885742,-18.588525772094727,-35.92608642578125,0.00483962016140306,1015.8561081277646
0.398492919921875,0.0076872665669769,0.090042382235825,-0.2186702234536409,-0.05465604737401,-0.0116893760859966,0.003456971142441,0.073563899047082,0.0748667511311868,2.153168466622016,-6.490199089050293,-18.58702850341797,-36.1734619140625,0.004892486225807999,1015.8560974438974
0.40856201171875,0.0018475275628268,0.1140213698469102,-0.2494716044306754,-0.0439389534294605,-0.0182793699204921,0.0011581303551793,0.0730627777478749,0.0747109589885763,2.153227798209174,-6.431947708129883,-18.391447067260746,-36.31512451171875,0.004945353572063099,1015.8560867597712
0.418630859375,0.014125921312347,0.0787131059046834,-0.3178185799479484,-0.0347166322171688,-0.0350887477397918,-0.0021829605102539,0.0726503267451815,0.0744470569005557,2.1532357002891502,-6.407400131225586,-18.19856834411621,-36.507232666015625,0.004998219636468036,1015.856076075904
0.42869921875,0.0317100202545523,0.0359742535702884,-0.3134311586439609,-0.0267713591456413,-0.0381335392594337,-0.007533517666161,0.072319636122646,0.0740845895810809,2.153209389276605,-6.577668190002441,-18.39356231689453,-36.4091796875,0.005051083137172649,1015.8560653925548
0.438767822265625,0.031304435128346,0.0375500515196472,-0.2668108617663383,-0.0124115077778697,-0.0341604985296726,-0.0100356303155422,0.0721135734746448,0.0737568923050637,2.153128929948134,-6.536048889160156,-18.394512176513672,-36.286651611328125,0.005103947919727424,1015.8560547089467
0.4488369140625,0.0200247700925916,0.0313609876211732,-0.2448930444687604,0.0153687251731753,-0.0355115197598934,-0.0143744517117738,0.0721233592217112,0.0734406271795476,2.152987123903237,-6.479350090026856,-18.583934783935547,-35.971099853515625,0.0051568152659825246,1015.8560440248203
0.45890625,0.0169052498325705,0.0148633687414228,-0.1776443855822086,0.0377222895622253,-0.0374200791120529,-0.0166499707847833,0.0723796008883542,0.0731021662849738,2.1527972892210405,-6.312572479248047,-18.346586227416992,-35.9935302734375,0.005209683894087787,1015.856033340435
0.468974853515625,0.0298938376780599,-0.0064212652191519,-0.0859592045754194,0.0451397225260734,-0.0327651426196098,-0.0153199881315231,0.0727889873952257,0.07275458638269,2.152614239132248,-6.5253753662109375,-18.588743209838867,-36.064971923828125,0.005262548676642563,1015.8560226568269
0.479043212890625,0.0209816324260085,-0.0376841992933303,-0.016484686332941,0.0425422899425029,-0.0164347644895315,-0.0127986595034599,0.073203236298158,0.0724892420738909,2.152453700796373,-6.500796318054199,-18.546220779418945,-36.39077758789063,0.005345535444073082,1015.8560124100917
0.489112060546875,-0.0252688082259148,-0.0316035642053931,0.0425315662592649,0.0456725694239139,0.0010912315919995,-0.0110289882868528,0.0736107505051052,0.0724159831930076,2.1523077947934497,-6.645271301269531,-18.461156845092773,-36.225128173828125,0.005451222246841535,1015.8560024918211
0.49918115234375,-0.017368775691092,-0.0090543171364814,0.0700222152531147,0.0352093018591403,0.012247409671545,-0.0017792212311178,0.0740038678311801,0.0724979557759966,2.1522357973104875,-6.684164047241211,-18.6776123046875,-35.969207763671875,0.005556911612211287,1015.85599257331
0.50925,-0.003156929660961,0.0075198741108179,0.0590466477304697,0.0301594175398349,0.0245110001415014,0.0006399941630661,0.0743062423832141,0.0726840691745547,2.152198733837173,-6.547365188598633,-18.50502586364746,-35.77984619140625,0.005662598414979739,1015.8559826550394
0.51931884765625,-0.0481415150955319,-0.0009100275170058,0.0725730687797069,0.0280372165143489,0.030200807377696,0.0023774392902851,0.0745765340300113,0.0729559114280659,2.152191948429996,-6.527621269226074,-18.524370193481445,-36.056396484375,0.0057682852177481925,1015.8559727367688
0.529386962890625,-0.0732267834480851,-0.0143448247600346,0.1159971999645233,0.0273756869137287,0.0325395911931991,0.0014549205079674,0.0748399881047458,0.0732740259230721,2.152181916318438,-6.506980895996094,-18.620729446411133,-35.749237060546875,0.005873964332712749,1015.8559628192196
0.5394560546875,-0.0551223869588226,-0.010961027540639,0.1444365279853343,0.0294508375227451,0.0321653485298156,0.0004066196270287,0.0751248091041869,0.073597987698995,2.152170718239723,-6.456602096557617,-18.6053524017334,-35.6650390625,0.0059796536980825,1015.8559529007085
0.549525146484375,-0.034948636849597,-0.0241026870559901,0.1335439625710248,0.0254939123988151,0.0250642970204353,0.0014878627844154,0.0754029478785112,0.0738938731485714,2.152146565016265,-6.521601676940918,-18.458118438720703,-35.841278076171875,0.006085343063452252,1015.8559429821975
0.559593994140625,-0.0285984641052782,-0.0234676770880818,0.1145610296815633,0.0138013074174523,0.0111605450510978,-0.0040334360674023,0.0756055969312867,0.0740724302705207,2.1521226039425114,-6.501720428466797,-18.80734634399414,-35.991973876953125,0.006191029866220705,1015.8559330639268
0.5696630859375,-0.0102045831501483,-0.0206884946983307,0.0889087020307779,-0.0031760772690176,-0.0039728675037622,-0.0102734882384538,0.0756602810909322,0.0741046219321152,2.152049918422021,-6.601052284240723,-18.88949203491211,-35.843048095703125,0.006296719231590456,1015.8559231454158
0.57973095703125,-0.0025086218200623,-0.0082656509768217,0.0583954903453588,-0.0188909769058227,-0.0169639345258474,-0.0168304182589054,0.0755381566946031,0.0740052527244678,2.151928553500415,-6.807744979858398,-18.674007415771484,-36.107208251953125,0.0064023957839537135,1015.855913228107
0.589800048828125,0.0164772336788475,0.0354953109469264,0.007571896559,-0.0285047218203544,-0.027988888323307,-0.0165883377194404,0.0752695461209376,0.0737907898006639,2.1517884039001665,-6.833026885986328,-18.91731071472168,-36.46795654296875,0.006508085149323465,1015.855903309596
0.599869140625,0.0146026719786226,0.0877282600745558,-0.0296855286896228,-0.0238285697996616,-0.0365272238850593,-0.0172066092491149,0.0749797649053388,0.0734597105527154,2.15163506235565,-6.826467514038086,-18.708637237548828,-35.663787841796875,0.006613774514693216,1015.8558933910849
0.60993798828125,-0.0062535074368119,0.0981047657255083,-0.0508212556988,-0.0070639718323946,-0.0408916100859642,-0.0156843457370996,0.074801424398978,0.0730656187958301,2.1514818499092923,-6.971257209777832,-18.70618438720703,-35.929931640625,0.006719461317461669,1015.8558834728143
0.620007080078125,-0.0261431799076497,0.0822515091639012,-0.0445727166980505,0.0041221315041184,-0.0255044680088758,-0.0130789000540971,0.074786971676692,0.0727114244006397,2.1513305905975346,-6.704460144042969,-18.59774398803711,-35.7252197265625,0.006825150682831421,1015.8558735543032
0.630075927734375,-0.0289048266407102,0.057790802450478,0.007415244692564,0.0083368504419922,-0.0072535593062639,-0.0101691298186779,0.0748563402990359,0.0725500285890759,2.151202754683202,-6.687047958374023,-18.77000617980957,-35.743621826171875,0.006930837485599874,1015.8558636360326
0.64014404296875,-0.054056145966798,0.0339609409864991,0.0476133995682001,0.0032595340162515,0.0066241724416613,-0.0133878272026777,0.0749290199626698,0.0725516816154457,2.1510772160565947,-6.773077011108398,-18.70207977294922,-35.709381103515625,0.00703651660056443,1015.8558537184834
0.650213134765625,-0.0670667995136231,0.0154249481469392,0.07877776863873,-0.0003575710579752,0.0148765109479427,-0.0117217525839805,0.0749462678231447,0.0726890529447769,2.1509511092671065,-6.861082077026367,-18.971628189086918,-35.759735107421875,0.007142205965934182,1015.8558437999724
0.660281982421875,-0.071025327881053,0.0225979815814644,0.0565741201370954,-0.0114211542531847,0.0139424484223127,-0.0144104436039924,0.0748840818231814,0.0728337623935947,2.150822700675305,-6.732071876525879,-18.778709411621094,-36.05126953125,0.007247892768702633,1015.8558338817018
0.67035107421875,-0.0574410391647368,0.0376715590074658,0.0417968222439289,-0.0209795050323009,0.0116249658167362,-0.0191175807267427,0.0746963966878595,0.0729741731998612,2.150670181834069,-6.656689643859863,-18.84328842163086,-35.786773681640625,0.007353582134072386,1015.8558239631907
0.680420166015625,-0.0497194319367408,0.0448930346935987,0.0410176545649766,-0.0312520042061805,0.0129999378696084,-0.0208163727074861,0.0743943427933565,0.0731166984048681,2.150487026995496,-6.6508989334106445,-18.98163414001465,-35.734405517578125,0.007459271499442139,1015.8558140446795
0.69048779296875,-0.0183937348246574,0.0495369149766862,0.0045282910794019,-0.0325803905725479,0.0090448772534728,-0.0225809831172227,0.074027643999165,0.0732475042628386,2.1502885727379493,-6.481046676635742,-18.854530334472656,-36.0333251953125,0.007564945489204096,1015.8558041276113
0.70055712890625,0.0375431833874434,0.0491828408420085,-0.0335427886396646,-0.0278499983251094,-0.0025882897898554,-0.0215415898710489,0.0736701225170267,0.0732790692199494,2.150091114741937,-6.612262725830078,-18.82975196838379,-36.0435791015625,0.007670637417175146,1015.8557942088598
0.710626220703125,0.0492553215563297,0.0552499588612467,-0.0433510659486055,-0.0145001048222184,-0.0053214919753372,-0.0176507104188203,0.0734183770633453,0.0732275441238307,2.149921682453856,-6.452923774719238,-18.772180557250977,-35.957977294921875,0.007776326782544898,1015.8557842903487
0.720695068359375,0.0186107385762035,0.0508138030447065,-0.0251034615963697,-0.0106073720380663,-0.0033498704433441,-0.0210626777261495,0.073270793770678,0.073177537607699,2.149734925316485,-6.406482696533203,-18.70985984802246,-35.64666748046875,0.00788201358531335,1015.855774372078
0.73076416015625,0.004488470525667,0.0589997398488223,-0.0144032038837671,-0.0055907750502228,0.002786052878946,-0.0202256459742784,0.0731744772004795,0.0731674535020783,2.14954277084687,-6.550968170166016,-18.63031578063965,-36.05831909179688,0.007987702950683103,1015.855764453567
0.74083203125,0.0168482589483261,0.0469511362671852,-0.0097077395439147,-0.0027253050357103,-0.0043541202321648,-0.0231068059802055,0.0731053393174254,0.0731578984258265,2.149335119196504,-6.3629961013793945,-18.66189765930176,-36.127838134765625,0.00809337950304636,1015.8557545362584
0.750901123046875,0.0488845154825597,0.0283297301664948,-0.0012128829210996,-0.0069480147212743,-0.0131558682769536,-0.0241837874054908,0.0730220624933817,0.0730793422277867,2.149105002175086,-6.550915718078613,-18.646411895751957,-36.0318603515625,0.00819906886841611,1015.8557446177473
0.760969970703125,0.0496687246628105,0.0141059014376252,0.0099222590774297,-0.0120513197034597,-0.0204517897218465,-0.0224386192858219,0.0728835275044881,0.0729215067205111,2.1488888253982315,-6.80684757232666,-18.874340057373047,-36.24749755859375,0.008304755671184563,1015.8557346994767
0.7710390625,0.0317097279936075,-0.0183515031181275,0.0263005624264478,-0.0125373471528291,-0.0068555530160665,-0.0244959108531475,0.0727166630316345,0.0727828122059964,2.148657396007494,-6.635537147521973,-18.905309677124023,-36.2728271484375,0.008410445036554316,1015.8557247809655
0.78110791015625,0.0308218392431735,-0.0174732589788734,0.0585620790839195,-0.017471469938755,0.0115832295268774,-0.026479622349143,0.0725310713975383,0.0728421657424062,2.148422144324001,-6.867532730102539,-18.82834243774414,-36.449310302734375,0.008516131839322769,1015.855714862695
0.791176025390625,0.0334369901776313,-0.0225420136105269,0.0621019436478614,-0.0160288326442241,0.0310195107012987,-0.0213575661182403,0.0723341176076759,0.0731099242603258,2.148195503449819,-6.788858413696289,-18.78559875488281,-36.000457763671875,0.008621810954287325,1015.8557049451458
0.801244873046875,0.0168513276882469,-0.026891514056921,0.0057511108726263,-0.0146149061620235,0.0237858034670352,-0.0192599538713693,0.0721495099165345,0.0734132701502579,2.1480203383785006,-6.771084785461426,-18.522321701049805,-36.059112548828125,0.008727497757055776,1015.8556950268752
0.81131396484375,0.0248930337160825,-0.0154292589958757,-0.0240823018550872,-0.0098981820046901,0.0207055918872356,-0.018714539706707,0.0719904040218942,0.0736464963856296,2.147844012224013,-6.700616836547852,-18.82638168334961,-35.964935302734375,0.008833187122425527,1015.8556851083641
0.82138330078125,0.0170005999658256,0.0215136204108595,-0.0206710321068763,-0.0049874959513545,0.0027580498717725,-0.0213803928345441,0.071881512415942,0.0737953740771328,2.14764460513358,-6.503034591674805,-18.733068466186523,-35.529998779296875,0.00893887905039658,1015.8556751896125
0.831451904296875,0.0090866850361227,0.048174832843244,-0.019271102181077,-0.0077217640355229,-0.0101233934983611,-0.021961759775877,0.0718076568622156,0.0737932582031249,2.1474209612836166,-6.472082138061523,-18.87272834777832,-35.658447265625,0.009044563290563733,1015.8556652715823
0.84152001953125,0.0352297918785363,0.0295380099777132,0.0121253220796585,-0.0151894595474004,-0.0088697066530585,-0.0220900848507881,0.0716922111906004,0.0737357450023467,2.147203875105884,-6.509382247924805,-18.56210708618164,-36.015899658203125,0.00915024240552829,1015.8556553540333
0.851589111328125,0.0146784406285732,0.0034890842247754,0.051095396465063,-0.0255030859261751,-0.0098289772868156,-0.0282941870391368,0.0714615188392773,0.0736630530718484,2.1469595301418485,-6.306317329406738,-18.589017868041992,-35.6761474609375,0.009255931770898042,1015.8556454355221
0.861657958984375,0.0146706957135349,-0.0299674874361604,0.0431739558160305,-0.033232107758522,-0.0208471696823835,-0.0268896780908107,0.0711466244584004,0.0735394624860991,2.14670815143543,-6.688907623291016,-18.72970962524414,-35.85504150390625,0.009361618573666495,1015.8556355172515
0.87172705078125,0.0488924795933067,-0.054287981961295,0.0417798711091279,-0.0371157936751842,-0.0214991122484207,-0.0231593884527683,0.0707866921641736,0.0733274882927514,2.14647323254895,-6.519100189208984,-18.761455535888672,-36.23931884765625,0.009467307939036246,1015.8556255987404
0.8817958984375,0.0394637031212449,-0.048838849709928,0.077281977123022,-0.0409114174544811,-0.0009583090431988,-0.0160140451043844,0.0703953252419291,0.0732335866615297,2.146303960467023,-6.498562812805176,-18.762664794921875,-35.9990234375,0.009572994741804697,1015.8556156804698
0.89186376953125,0.0072844579197466,-0.04476246711649,0.1030412722796201,-0.0421164967119693,0.0306672621518373,-0.0117665696889162,0.0699707304297288,0.0734008466724866,2.1461922940373936,-6.520968437194824,-18.96650505065918,-35.94744873046875,0.009678671294167955,1015.8556057631612
0.90193310546875,-0.0034357466023415,-0.0252205851700156,0.0669920537769794,-0.0476506613194942,0.0533278472721576,-0.0081497691571712,0.0695056507158827,0.0738224004094414,2.1461232704758064,-6.525937080383301,-18.57791328430176,-35.922088623046875,0.009784363222139006,1015.8555958444095
0.912001953125,0.0105998660780489,0.0051671004395931,-0.0116910223156213,-0.0365114547312259,0.0569771751761436,-0.0122587606310844,0.0690632309478964,0.0744060570932981,2.1460514796432464,-6.684072494506836,-18.589574813842773,-35.938385009765625,0.009890050024907459,1015.8555859261389
0.922071044921875,0.062122255783528,0.039312311951816,-0.0760574037641286,-0.0213936250656843,0.0411611944437027,-0.0180970188230276,0.0687601754298223,0.0749211517880167,2.1459143321913654,-6.681539535522461,-18.718318939208984,-36.2738037109375,0.00999573939027721,1015.8555760076279
0.932140380859375,0.096354487992078,0.0261062819633632,-0.1069821188598871,-0.0120081137865781,0.0126232933253049,-0.0169199015945196,0.0686033538891886,0.075199990008798,2.145754703299976,-6.621861457824707,-18.573286056518555,-36.15283203125,0.010101431318248262,1015.8555660888763
0.9422080078125,0.0808309017762541,-0.0022826310444623,-0.0760737703770399,-0.0131581472232937,-0.0149282291531562,-0.0217239391058683,0.0684853049432208,0.0751954050320564,2.1455778688413614,-6.438800811767578,-18.491193771362305,-36.200531005859375,0.010207105308010219,1015.8555561718081
0.952277099609375,0.0448888699751347,-0.0301696589447557,-0.0301601604640483,-0.016801618039608,-0.0365483053028583,-0.0310404766350984,0.0683420860108343,0.0749522358580881,2.145323088070942,-6.408674240112305,-18.278676986694336,-35.86541748046875,0.01031279467337997,1015.855546253297
0.96234619140625,0.025243235393241,-0.0306254398882389,0.030285832670331,-0.0325371623039245,-0.0450076535344123,-0.0371642261743545,0.0680966835834167,0.074571974567742,2.1449948286271474,-6.398756980895996,-18.513994216918945,-36.21456909179688,0.010418484038749723,1015.8555363347859
0.9724150390625,0.0194356450930237,-0.0404079251687973,0.0924772081673145,-0.041028119623661,-0.0374320223927497,-0.0398809164762496,0.0677239026187988,0.0741684394140802,2.1446414005926635,-6.516905784606934,-18.57862091064453,-36.2689208984375,0.010524170841518176,1015.8555264165153
0.982484375,0.0206882755026221,-0.0538871460754424,0.0945148514747619,-0.0490434095263481,-0.0301230493932962,-0.0364131368696689,0.0672485882001494,0.0738536555012886,2.144283507475815,-6.48330020904541,-18.325883865356445,-35.713836669921875,0.010629862769489226,1015.8555164977637
0.99255224609375,0.0470480938356369,-0.0635519963257014,0.0795955147624015,-0.0524304136633873,-0.0141653884202241,-0.0309496633708477,0.0667196254293726,0.0736492612017289,2.143984425881992,-6.439852714538574,-18.302244186401367,-35.697601318359375,0.010735539321852484,1015.8555065804551
1.00262109375,0.0402058997906744,-0.0527037084445357,0.0854687907099723,-0.0476006418466568,0.0086737032979726,-0.0241272896528244,0.066191981896173,0.0736577892383508,2.143749805850612,-6.201733589172363,-18.350664138793945,-35.66778564453125,0.010841226124620934,1015.8554966621845
1.012690185546875,-0.00213766961582,-0.0180127726830542,0.1007043537646532,-0.0394260734319686,0.0288932211697101,-0.0170134548097848,0.0657306700468355,0.0739004784017278,2.143578968018561,-6.402877807617188,-18.366605758666992,-35.66229248046875,0.010946915489990688,1015.8554867436734
1.022759033203125,-0.0374428648181259,-0.0150857062552124,0.0623959581583738,-0.0317543745040893,0.0257395431399345,-0.0122112426906824,0.0653722427228501,0.0742197840026858,2.143464869755137,-6.688935279846191,-18.481842041015625,-36.124755859375,0.011052602292759138,1015.8554768254028
1.032828125,-0.0294901522479951,0.0066068509191274,0.0158569098234176,-0.0293253064155578,0.0210148300975561,-0.0158581752330064,0.0650812135467882,0.0744768002615017,2.143354953750866,-6.555185317993164,-18.50959587097168,-36.0147705078125,0.011158291658128892,1015.8554669068917
1.042896240234375,-0.0115874158106744,0.0357664560385048,0.0098053546994924,-0.0283363126218318,-0.0008999435231089,-0.0161730386316776,0.0648039630891388,0.0746036319881806,2.14320274331365,-6.736125946044922,-18.709453582763672,-36.34710693359375,0.011263970773093449,1015.8554569893425
1.05296484375,-0.0082961191803216,0.0157698160618543,0.0143915134459733,-0.0331363938748836,-0.0148349348455667,-0.0237404108047485,0.0645037490479252,0.0745255879105158,2.1430325300017654,-6.588810920715332,-18.49166679382324,-36.13885498046875,0.011369655013260604,1015.8554470713124
1.0630341796875,-0.0136851187422871,0.0036727702286094,0.0800660548835992,-0.0466500893235206,0.0017035477794706,-0.027576046064496,0.0641086106720978,0.0744779034546824,2.1428063907981536,-6.287006378173828,-18.29506492614746,-35.9925537109375,0.011475346941231652,1015.8554371525609
1.073103271484375,0.043396658656001,-0.0341149625044316,0.0762415281593799,-0.0564467906951904,0.0194596424698829,-0.0252889245748519,0.0635959562759772,0.0746216162260933,2.1425697584635475,-6.503286361694336,-18.113401412963867,-36.131439208984375,0.011581036306601403,1015.8554272340498
1.083172119140625,0.0796706988904625,-0.0348165349025279,-0.011846505138278,-0.0509113073348999,0.015218012034893,-0.0208693705499172,0.0630503044691867,0.0748120203516972,2.142371559358431,-6.328390121459961,-17.909202575683594,-35.863983154296875,0.011686723109369856,1015.8554173157792
1.093240234375,0.0971953227303922,-0.0104960403773933,-0.1018921022444963,-0.0434355437755584,0.0159897953271865,-0.0170304235070943,0.0625691529930393,0.0749613276305748,2.1422194996190176,-6.344949722290039,-18.06474494934082,-35.61456298828125,0.011792402224334413,1015.85540739823
1.10330908203125,0.0923491248082369,0.0005471855539828,-0.1430950502485036,-0.0346167795360088,0.0225076861679554,-0.011902317404747,0.0621838775035911,0.0751494236542496,2.142111697223178,-6.1727142333984375,-17.931224822998047,-35.95550537109375,0.011898089027102866,1015.8553974799594
1.113378173828125,0.0815769709032028,-0.0270208395250141,-0.171679339697957,-0.0251279361546039,0.0292710475623607,-0.010299626737833,0.0618745671658332,0.075408431654658,2.1420153159592736,-6.352995872497559,-18.180160522460938,-35.983734130859375,0.012003778392472617,1015.8553875614483
1.123447021484375,0.0740809160593897,-0.0058079190937802,-0.1867290247917175,-0.0193878691643476,0.0317805632948875,-0.0080705974251031,0.0616416112894218,0.0757154214906,2.141938982266,-6.243229866027832,-18.10884094238281,-35.886016845703125,0.01210946519524107,1015.8553776431777
1.13351611328125,0.0701711222045123,0.0284030145984143,-0.2027326496094465,-0.0096417646855115,0.0282145868986845,-0.0057312762364745,0.0614982914852336,0.076023358548068,2.1418610817561823,-6.275935173034668,-18.224773406982425,-35.800262451171875,0.01221515456061082,1015.8553677246666
1.143583984375,0.0769793409146368,0.0455815284144133,-0.1774438945740461,-0.0025602728128433,0.0243845283985137,-0.0078633651137351,0.0614340941218601,0.0762760664800535,2.141792956625591,-6.463893890380859,-18.056610107421875,-35.864959716796875,0.012320831112974079,1015.8553578073579
1.153653076171875,0.0754592917405068,0.0380138696391135,-0.1283931556791067,-0.0022649280726909,0.0251938626170158,-0.0093190493062138,0.0614253309327566,0.076523773313296,2.1417206189389093,-6.347023010253906,-18.206186294555664,-35.635772705078125,0.01242652047834383,1015.8553478888468
1.16372216796875,0.0523881396893411,0.0287423660879954,-0.1046376015603542,-0.0001845583319664,0.0163087863475084,-0.0089120045304298,0.0614259498555917,0.0767718551740371,2.14163762383924,-6.6148786544799805,-18.213912963867188,-36.02655029296875,0.01253220984371358,1015.8553379703358
1.173791015625,0.0497021885409951,0.0181736258005723,-0.1074304471492767,0.0107687572017312,-0.0050273956730961,-0.0114779602736234,0.0614774831342819,0.0768633277450585,2.1415396951625816,-6.301433563232422,-17.98931121826172,-36.009033203125,0.012637896646482034,1015.8553280520651
1.1838603515625,0.0772302469357848,-0.0081875807719305,-0.1265600950330495,0.0225212108343839,-0.030964408069849,-0.0034378799609839,0.0616278037121853,0.0767112403695269,2.1414475485807665,-6.237854957580566,-17.802440643310547,-35.8060302734375,0.012743588574453084,1015.8553181333135
1.19392822265625,0.0983998031493276,-0.0459943835316225,-0.107841950559616,0.027282677590847,-0.054155483841896,-0.001428524730727,0.0618776781772117,0.0762912080279992,2.141403200875029,-6.288366317749023,-17.718734741210938,-35.717193603515625,0.012849265126816342,1015.8553082160049
1.2039970703125,0.0735189713276922,-0.0447851904049515,-0.0426490551590919,0.0302603691816329,-0.0615532957017421,-0.0008504260331392,0.0621541011549962,0.0757294137024266,2.1413766373012515,-6.548582077026367,-18.08286476135254,-36.015472412109375,0.012954951929584796,1015.8552982977343
1.214066162109375,0.049829687378183,-0.0098688118571415,0.0211287127465009,0.0235153809189796,-0.0754006654024124,0.0028580259531736,0.0624191957540685,0.0750608285815743,2.1413617429907936,-6.082037925720215,-17.960844039916992,-35.829132080078125,0.013060641294954545,1015.8552883792232
1.224135009765625,0.0271969267442822,-0.0065108431987464,0.0447609327465295,0.014457756653428,-0.0778029784560203,0.0044763134792447,0.0625941070939857,0.0743142464723292,2.141374854519264,-6.159485816955566,-17.948843002319336,-36.2291259765625,0.013166328097722998,1015.8552784609526
1.234204345703125,0.0128087012339383,-0.0139143974535167,0.0458235935419797,-0.0003877682611346,-0.0619816742837429,0.0032278234139084,0.0626479749739316,0.0736269742459302,2.141410379609987,-6.169389724731445,-18.308351516723636,-36.0150146484375,0.01327202002569405,1015.855268542201
1.244272216796875,-0.0106795071855187,-0.0087940587650984,0.0152367320984601,-0.0077040195465087,-0.0401040874421596,0.0032316674478352,0.0625901595489033,0.0731356447251529,2.141443319303635,-6.366022109985352,-18.31978416442871,-36.13372802734375,0.013377696578057305,1015.8552586248924
1.2543408203125,-0.0123283703710883,0.0128321186421439,0.0006628478229045,-0.0043990369886159,-0.0189798921346664,0.003694259095937,0.0625370083907,0.072844435432091,2.141474907821018,-6.332114219665527,-17.955551147460938,-35.778045654296875,0.01348338081822446,1015.8552487068622
1.26441015625,-0.0062323185183107,0.0134360028194263,0.0274777895122766,0.0051962938159704,0.0053266664035618,0.0075875334441661,0.062537555775611,0.0728024511034293,2.141529174997942,-6.381683349609375,-18.1453857421875,-35.881500244140625,0.013589072746195512,1015.8552387881107
1.274479248046875,0.0060853843282908,0.0035212329287081,0.0448164623260498,0.0145120313391089,0.020732520148158,0.01052713021636,0.0626406174712338,0.0729513576586766,2.1416076120613026,-6.327729225158691,-18.14755249023437,-35.751129150390625,0.013694762111565263,1015.8552288695995
1.284548095703125,0.0214780376408249,-0.0256830881152302,0.0186140995770692,0.0306488461792469,0.0203197766095399,0.0125234331935644,0.0628826890998205,0.0731844691124124,2.1416992530084853,-6.513970375061035,-18.007768630981445,-35.909423828125,0.013800448914333716,1015.8552189513289
1.2946171875,0.029804113567993,-0.0268287510190159,0.0043529345124959,0.0398908145725727,0.0092495493590831,0.0157921966165304,0.0632548908407607,0.0733449953150801,2.14182067760348,-6.231724739074707,-17.95602035522461,-35.500030517578125,0.013906138279703467,1015.8552090328178
1.30468505859375,0.0368663070391863,-0.0172523827698081,0.032518121767044,0.0407816246151924,-0.0048407209105789,0.018700486049056,0.0636676549839482,0.0733592510079087,2.1419682537349787,-6.408967971801758,-18.08357048034668,-35.78472900390625,0.014011814832066725,1015.8551991155092
1.314754150390625,0.0430129200354218,-0.0194056152809411,0.0273252292990684,0.0277302712202072,-0.0257310885936021,0.0180093944072723,0.064028664952218,0.0731911359457532,2.1421204492971517,-6.481245040893555,-17.966764450073242,-35.8568115234375,0.014117504197436476,1015.855189196998
1.324822998046875,0.0653625528790056,0.007634294270724,0.0375917717695236,0.0107024442404508,-0.0324065573513507,0.0129671953618526,0.0642381697152,0.0728799941074238,2.14226543934816,-6.460527420043945,-18.21003150939941,-35.847137451171875,0.01422319100020493,1015.8551792787275
1.33489208984375,0.0584555499695241,0.0056320876028388,0.0480120434969663,-0.002368084155023,-0.0380199663341045,0.012094210833311,0.0642782345826024,0.0724993491290049,2.1424013813974185,-6.612545967102051,-18.279783248901367,-35.737274169921875,0.01432888036557468,1015.8551693602163
1.344961181640625,0.0542150628555566,0.0047974634096026,0.0414186365813016,-0.0083661749958992,-0.0276029147207736,0.0124612329527735,0.064208244817865,0.0721516062244153,2.142535052560415,-6.57799243927002,-18.245437622070312,-35.999359130859375,0.014434569730944431,1015.8551594417053
1.355029296875,0.0657096858162432,0.0163061148956418,0.0083890581607818,-0.0053437538444995,-0.0171055328100919,0.0154564892873168,0.0641609976688618,0.0719242553656074,2.1426940400932564,-6.714465141296387,-18.332355499267575,-35.844696044921875,0.014540248845908987,1015.8551495241561
1.36509814453125,0.049964858065173,0.0200066499140113,-0.026561259189248,0.001428360119462,-0.0026049972511827,0.0178908854722976,0.0641568662121901,0.0718356258928471,2.142865680349534,-6.865239143371582,-18.186826705932617,-35.83245849609375,0.01464593564867744,1015.8551396058855
1.3751669921875,0.0128760673817247,0.0206187904629856,-0.0410807829290628,0.0108207967132329,-0.0102714393287897,0.0136077217757701,0.064234710013719,0.0717724809411968,2.143016924301134,-6.556884765625,-18.486106872558597,-36.015228271484375,0.014751622451445894,1015.855129687615
1.385236083984375,-0.0026268413722515,0.0337207755550742,-0.0731032301336526,0.0214916430413723,-0.0216985587030649,0.0119780208915472,0.0644114346722777,0.07161391625866,2.143131854820648,-6.494405746459961,-18.208545684814453,-36.41012573242188,0.014857311816815644,1015.8551197691038
1.395304931640625,-0.0006724193688482,0.0353993762917816,-0.084139587932825,0.0243998169898986,-0.0336377769708633,0.0084208361804485,0.0646594067975002,0.0713381771814253,2.1432118341056605,-6.513727188110352,-18.048126220703125,-36.3973388671875,0.014962998619584097,1015.8551098508332
1.405373291015625,-0.0153258716866374,0.0493733219128102,-0.0374742828696966,0.0228004418313503,-0.0504149906337261,-0.0037269450258463,0.0648946729946381,0.0709395731906967,2.143205107026218,-6.438283920288086,-18.247020721435547,-36.43112182617188,0.015068680297149951,1015.8550999330436
1.415442138671875,-0.0060141457229852,0.0493186691161245,0.0259632932960987,0.0124229015782475,-0.067545510828495,-0.0064372438937425,0.0650572863626449,0.0703696359564819,2.1431395905421384,-6.5403594970703125,-18.294994354248047,-36.222412109375,0.015174367099918405,1015.8550900147729
1.425510986328125,-0.00480696189031,0.0181963125564157,0.0648433513104915,0.0025585945695638,-0.0730788111686706,-0.0092964544892311,0.0651186830520291,0.0696944244876158,2.143049017294225,-6.479026794433594,-18.30157470703125,-36.2376708984375,0.015280053902686858,1015.8550800965023
1.435580322265625,-0.0008463876962661,-0.0508193560026586,0.0905968012481927,-0.0003620944917201,-0.0692470595240593,-0.005625020712614,0.0651153289804785,0.0690127941416277,2.142962491380063,-6.554989814758301,-18.512487411499023,-36.27197265625,0.01538574583065791,1015.8550701777508
1.44564892578125,0.0173096659149974,-0.0811177558936178,0.1153869591116905,0.0016098329797387,-0.0506374314427375,0.0014756936579942,0.065108021192707,0.0684252212323558,2.142939759963686,-6.584392547607422,-18.40620994567871,-36.2430419921875,0.015491430070825062,1015.8550602597206
1.45571728515625,0.0047059857338666,-0.0766540544830262,0.1257867725729942,-0.0010333536192774,-0.0156235229223966,0.0083754118531942,0.0651054241089943,0.0680915140419784,2.143003059662953,-6.581572532653809,-18.372034072875977,-35.888214111328125,0.015597111748390919,1015.855050341931
1.4657861328125,-0.0185744251538068,-0.0721983171831816,0.0942494785368442,-0.0051010474562644,0.010630196891725,0.0099423006176948,0.065071425067171,0.068069573457015,2.143103894081752,-6.707809448242188,-18.654953002929688,-35.56658935546875,0.01570279855115937,1015.8550404236604
1.475855224609375,-0.015327844448015,-0.0558629031278192,0.0304167655736207,0.0027667302638292,0.0151184229180216,0.008183017373085,0.0650586808404027,0.0682121070422239,2.143211189519044,-6.78987979888916,-18.297393798828125,-36.0006103515625,0.015808487916529123,1015.8550305051493
1.485924072265625,0.0006803104143589,-0.0401258933570235,-0.0132207161009311,0.003546530380845,0.0062449662946164,0.0052301799878478,0.06509182483227,0.0683198605327312,2.1432987793576954,-6.874716758728027,-18.104633331298828,-36.091552734375,0.0158538818359375,1015.8550262451172
1.4959931640625,-0.0032422698568552,-0.0601933335475623,-0.0085737670779228,-0.0097644804045557,0.0015516774728894,-0.0009411633946001,0.0650443118237528,0.0683535758157236,2.1433376379940308,-6.838868141174316,-18.010419845581055,-36.2904052734375,0.0158538818359375,1015.8550262451172
1.50606103515625,-0.0076564330372959,-0.0799723121855408,0.0397445658892393,-0.0216976944357156,-0.0132764391601085,-0.0098504647612571,0.0648886576724238,0.0682992183811223,2.143287278031022,-6.638148307800293,-18.479738235473636,-36.186279296875,0.0158538818359375,1015.8550262451172
1.516130126953125,0.0116719522889703,-0.0938360023651272,0.0798339996933937,-0.031403049826622,-0.0242798216640949,-0.0118515640497207,0.0646340999407301,0.068111609744362,2.143195320181396,-6.669964790344238,-18.589305877685547,-36.06411743164063,0.0158538818359375,1015.8550262451172
1.52619921875,0.0699687315002083,-0.0911402604751288,0.0940022257775068,-0.0453982725739479,-0.0268087014555931,-0.0061129457317292,0.0642673493326112,0.0678557836392225,2.1431200104332664,-6.579051971435547,-18.438825607299805,-35.5443115234375,0.0158538818359375,1015.8550262451172
1.53626806640625,0.1203548106521368,-0.0752620156027376,0.0826367821544408,-0.0553515739738941,-0.0168226454406976,0.0034968047402799,0.0637797736665391,0.0676280795958412,2.14313741300455,-6.483358383178711,-18.42738151550293,-35.79473876953125,0.0158538818359375,1015.8550262451172
1.546337158203125,0.1160915271844714,-0.0440283806882798,0.0327712197452783,-0.0578883476555347,-0.0035266194026917,0.0093906447291374,0.0632404812696415,0.0675106743295194,2.1432339906807334,-6.676746368408203,-18.309255599975582,-35.69781494140625,0.0158538818359375,1015.8550262451172
1.5564052734375,0.0900276230581104,0.0012865326792001,-0.0159574475884437,-0.0452220849692821,-0.0061311908066272,0.0139811355620622,0.0627333593022541,0.0674499706475058,2.1433864469943718,-6.455229759216309,-17.988523483276367,-35.5751953125,0.0158538818359375,1015.8550262451172
1.56647412109375,0.1022633467096835,0.0166099201478064,-0.077906831023097,-0.0274458043277263,-0.0186753384768962,0.020352330058813,0.0623726023955264,0.067329405679816,2.143580402858675,-6.602338790893555,-18.06768226623535,-36.0643310546875,0.0158538818359375,1015.8550262451172
1.576543212890625,0.1116331595361232,0.0016426891731098,-0.1403027891814708,-0.0078097851946949,-0.045661948621273,0.0213835071772336,0.062234647335614,0.066997590102077,2.1437971334317845,-6.334159851074219,-18.15153694152832,-35.960205078125,0.0158538818359375,1015.8550262451172
1.586612060546875,0.0800352944191545,-0.0120950730718672,-0.1205219839125871,0.0101376147940754,-0.0594315826892852,0.0155502706766128,0.0622834701979979,0.0664486827929761,2.1439770808561818,-6.519227981567383,-18.16402816772461,-36.1351318359375,0.0158538818359375,1015.8550262451172
1.596680908203125,0.0427180287420749,-0.0235362853448838,-0.0509159482449293,0.0097810178995132,-0.0692730322480201,0.0130208004266023,0.0624446190125924,0.0657963880248991,2.1441163461071424,-6.3267822265625,-18.38410186767578,-35.8927001953125,0.0158538818359375,1015.8550262451172
1.606749267578125,0.0392300404958426,-0.0308124868929386,0.0027051673054695,0.0038265753537416,-0.0664555057883262,0.0089099071919918,0.0625726568614544,0.065127508826596,2.1442151268416447,-6.635087013244629,-17.794267654418945,-35.9317626953125,0.0158538818359375,1015.8550262451172
1.61681787109375,0.0468625812008976,-0.0324148075230419,0.0391156203359365,-0.0051054004579782,-0.0537261292338371,0.0057564582675695,0.0626076849322646,0.0645453521792875,2.144283642935384,-6.350728988647461,-17.974592208862305,-35.421966552734375,0.0158538818359375,1015.8550262451172
1.62688720703125,0.0296244461521506,-0.0378885262263938,0.085215692731738,-0.0152727514505386,-0.0324644707143306,0.0057741119526326,0.0625223809563837,0.0641344077911042,2.144346935118596,-6.556004524230957,-18.37123107910156,-35.737823486328125,0.0158538818359375,1015.8550262451172
1.636956298828125,0.0090633772257715,-0.0435656585473567,0.0915928265482187,-0.0238220300525426,-0.0126771852374076,0.0071680103428661,0.0623245624334832,0.0639406707498091,2.144418485875206,-6.487299919128418,-18.33348846435547,-35.48492431640625,0.0158538818359375,1015.8550262451172
1.647025146484375,0.0089833707921206,-0.0508238129820674,0.0538935027509927,-0.0198123473674058,-3.17678786814e-05,0.0084597188979387,0.0621028092982343,0.0639020273330791,2.144518187779801,-6.47163200378418,-18.24720764160156,-35.714080810546875,0.0158538818359375,1015.8550262451172
1.65709326171875,-0.0011369681406766,-0.0135721964197233,0.0315443082988262,-0.0187763776630163,-0.0001787743531167,0.0074197542853653,0.0619032282670362,0.0639415551733826,2.1446071151531507,-6.517386436462402,-18.169851303100582,-35.918243408203125,0.0158538818359375,1015.8550262451172
1.667162109375,0.0169445589296519,-0.0345655923487618,-0.0193780696868896,-0.0065807644277811,-0.0156019814312458,0.0061613339930772,0.0617917036278994,0.0638823624056753,2.1446795781782706,-6.489811897277832,-17.91832733154297,-36.17681884765625,0.0158538818359375,1015.8550262451172
1.677231201171875,0.0140776982564479,-0.0642627384109422,-0.0541162055909633,0.0024822391569614,-0.0256647355854511,0.0003148969262838,0.0617846624807915,0.0636856047958371,2.144713448130912,-6.7878522872924805,-17.92581558227539,-35.888275146484375,0.0158538818359375,1015.8550262451172
1.687300048828125,-0.0299723828069865,-0.0442853145914152,0.0200789114326238,-0.0079099023714661,-0.0197775214910507,-0.0064030019566416,0.0617923895592926,0.0634769781424551,2.144664833273384,-6.663177490234375,-17.898725509643555,-36.39691162109375,0.0158538818359375,1015.8550262451172
1.697369140625,-0.0575485181272029,-0.0515189921719953,0.0798328306496143,-0.0270830653607845,-0.0145763680338859,-0.0148353688418865,0.0616342913738844,0.0633122295583074,2.1445558020943056,-6.523347854614258,-17.925006866455078,-36.01287841796875,0.0158538818359375,1015.8550262451172
1.70743701171875,-0.041107524805516,-0.0567822464624419,0.0908574980109929,-0.0399645194411277,-0.0027715575415641,-0.0200345814228057,0.0612953129757508,0.0632362738857092,2.1443937350634488,-6.431230545043945,-17.86206817626953,-36.17938232421875,0.0158538818359375,1015.8550262451172
1.717506103515625,0.0076180737882852,-0.0637127398453652,0.0622334610730409,-0.0445153266191482,-0.007798540405929,-0.0232482179999351,0.0608777406624312,0.0632251059317525,2.144202178801476,-6.500648498535156,-17.96131706237793,-36.033966064453125,0.0158538818359375,1015.8550262451172
1.7275751953125,0.0447943235594779,-0.073477287610434,-0.03964987334311,-0.0335454531013965,-0.0266955886036157,-0.0235627777874469,0.0604763900555751,0.0630942568636867,2.1439978081687032,-6.5244550704956055,-18.106037139892575,-35.98907470703125,0.0158538818359375,1015.8550262451172
1.73764404296875,0.0527104304462671,-0.0773597185343503,-0.0840413882553577,-0.0202027522027492,-0.0356925465166568,-0.0240267012268304,0.060202059886326,0.0627883765393226,2.143771167022191,-6.785234451293945,-17.932432174682617,-35.7542724609375,0.0158538818359375,1015.8550262451172
1.74771337890625,0.0323753522954881,-0.0921523601271212,-0.0412941334187984,-0.0116967624053359,-0.023347558453679,-0.023035243153572,0.060066681094224,0.0625105656031846,2.143544077246696,-6.790935516357422,-17.88685417175293,-36.23971557617188,0.0158538818359375,1015.8550262451172
1.757781005859375,0.009011902766861,-0.0805958509113639,0.0317599968761205,-0.0172063112258911,-0.0149905607104301,-0.0246318075805902,0.0599326169912416,0.0623436330908695,2.1433182154193418,-6.514286994934082,-18.059770584106445,-35.87469482421875,0.0158538818359375,1015.8550262451172
1.76785009765625,0.0139925772562623,-0.1019911787047982,0.0406418069899082,-0.0261913649737834,-0.0148763675242662,-0.0264714807271957,0.0597189016398518,0.0622159418203252,2.1430712656034587,-6.57554817199707,-18.129789352416992,-35.7344970703125,0.0158538818359375,1015.8550262451172
1.777919189453125,0.0289111467836424,-0.1080364502184093,0.054204468396306,-0.0352069623768329,-0.0048873834311962,-0.0237723663449287,0.0594070765989802,0.0621121975573963,2.142842380578494,-6.567505836486816,-17.98548698425293,-36.20269775390625,0.0158538818359375,1015.8550262451172
1.787988037109375,0.0303217442339286,-0.1035964584769681,0.0604196896493434,-0.0394479446113109,-0.0006818305701017,-0.0228644199669361,0.0590352032622304,0.0620889765579327,2.142628094464333,-6.758877754211426,-17.905664443969727,-36.3736572265625,0.0158538818359375,1015.8550262451172
1.798057373046875,0.0010087386511266,-0.1205597951723262,0.0329161811739206,-0.030671764165163,0.0050871092826128,-0.0208792984485626,0.058693385665545,0.0621167208886759,2.1424214805109387,-6.680037498474121,-17.878767013549805,-36.51318359375,0.0158538818359375,1015.8550262451172
1.808125244140625,0.0004362359927967,-0.1152869328033178,0.0252285492807626,-0.0217102188616991,0.0067605590447783,-0.0244514737278223,0.0584371660774822,0.0622050060766551,2.142211841774763,-6.9495038986206055,-18.137449264526367,-36.14498901367188,0.0158538818359375,1015.8550262451172
1.818194091796875,0.0363160527452826,-0.1069833244362846,0.0213806416809558,-0.0155442021787166,0.005511269904673,-0.0216405075043439,0.0582612611616792,0.0622996512803547,2.141983143893368,-6.811576843261719,-17.832059860229492,-36.365570068359375,0.0158538818359375,1015.8550262451172
1.82826318359375,0.0611336831375956,-0.0776551578169688,0.0380301631867885,-0.0185630600899457,-0.0001124613918364,-0.0216214843094348,0.0581236213263242,0.0623626839265379,2.1417737941671757,-6.947687149047852,-17.925430297851562,-36.490264892578125,0.0158538818359375,1015.8550262451172
1.83833203125,0.0588640942377969,-0.0382497607542201,0.0130354226619005,-0.0294758956879377,-0.005180989857763,-0.0294687543064355,0.0578842450495724,0.0623490627880298,2.141528076477736,-6.685067176818848,-17.821352005004883,-36.026153564453125,0.0158538818359375,1015.8550262451172
1.848401123046875,0.0448921213781461,-0.0028005905039608,-0.0694610742390155,-0.0369652360677719,-0.0183884054422378,-0.0398015528917312,0.057546470526054,0.0622463446925575,2.14120820180766,-6.7811479568481445,-18.002561569213867,-36.0758056640625,0.0158538818359375,1015.8550262451172
1.85846923828125,0.0367989408913999,-0.0086694825373589,-0.1301753629207611,-0.0360352620482444,-0.0323412381112575,-0.0423603169620037,0.0571762820920658,0.0620319367440083,2.1408161210411656,-6.5333662033081055,-18.094186782836918,-35.9896240234375,0.0158538818359375,1015.8550262451172
1.868537841796875,0.0434220853582024,-0.0276540228620171,-0.1498871946066617,-0.0267509948462247,-0.0280162058770656,-0.0454692542552948,0.0568725962224939,0.0617512324875343,2.140395797679868,-6.778450965881348,-18.01120948791504,-36.436279296875,0.0158538818359375,1015.8550262451172
1.878607177734375,0.0096693802949041,-0.0396167747911065,-0.11031506267488,-0.0069890078157186,-0.0157523490488529,-0.0462591461837291,0.0567053198010483,0.0615448915764564,2.139949256534521,-6.875121116638184,-18.03474235534668,-36.342864990234375,0.0158538818359375,1015.8550262451172
1.88867626953125,-0.0236821966215968,-0.0665715998752042,-0.0462286672115325,0.0160683114081621,-0.0125853614881634,-0.0470541790127754,0.0567644033659067,0.0614207966806681,2.1394797538982155,-6.751142501831055,-17.882766723632812,-35.887237548828125,0.0158538818359375,1015.8550262451172
1.8987451171875,-0.0473030549773946,-0.0658054743409156,0.0552308888345956,0.0313647091388702,0.0038287648931145,-0.0401395447552204,0.0570260532393439,0.06141947378621,2.139037356870847,-6.592484474182129,-18.13503074645996,-36.05792236328125,0.0158538818359375,1015.8550262451172
1.908814208984375,-0.029588534588553,-0.0841365922581404,0.1204986030369996,0.0322446897625923,0.0152104552835226,-0.0341266244649887,0.0573546054111153,0.0615678979650202,2.1386457337959084,-6.490160942077637,-17.670873641967773,-36.137115478515625,0.0158538818359375,1015.8550262451172
1.918882080078125,-0.0239532686479389,-0.0504782874800264,0.1620049179017543,0.0116936080157756,0.0173764042556285,-0.0331553667783737,0.0575828291655485,0.0617576801812409,2.1383009374653272,-6.555647850036621,-17.883386611938477,-36.52798461914063,0.0158538818359375,1015.8550262451172
1.928950927734375,-0.0303708806052803,-0.0237359726354479,0.1917372083425521,-0.0250235497951507,0.0096109677106142,-0.0346251651644706,0.0575020296052267,0.0619088039241591,2.137974894929971,-6.546144485473633,-18.03394889831543,-36.251495361328125,0.0158538818359375,1015.8550262451172
1.93902001953125,-0.0238073208386078,-0.0058649830432608,0.1347831489771604,-0.0528077743947505,-0.0075728129595518,-0.0379253551363945,0.0570806346539945,0.0619553444143787,2.1376429593612327,-6.757142066955566,-17.916248321533203,-36.1668701171875,0.0158538818359375,1015.8550262451172
1.9490888671875,0.0008619140589609,0.0052648251930251,0.0419610728949308,-0.0581238493323326,-0.0184387806802988,-0.0403401181101799,0.0564903647532096,0.0618329140698566,2.137269004860773,-6.759383201599121,-17.857097625732422,-36.219329833984375,0.0158538818359375,1015.8550262451172
1.959157958984375,-0.0136906717002391,0.0091632208710536,0.0016723171263933,-0.0446652993559837,-0.025254076346755,-0.0393598079681396,0.0559562587261852,0.0616358581078232,2.136908704280976,-6.805649757385254,-17.87769317626953,-36.37985229492188,0.0158538818359375,1015.8550262451172
1.96922607421875,-0.0169858042554929,0.009922368675284,0.0030213936477899,-0.0271056741476058,-0.010341478511691,-0.0357935726642608,0.0555906001759212,0.0614664891763823,2.136553535388201,-6.878965377807617,-17.61744499206543,-36.40689086914063,0.0158538818359375,1015.8550262451172
1.979294677734375,-0.0029348478754982,-0.0056066609006375,-0.0016512743383646,-0.0094848675653338,0.0052875475957989,-0.0328289419412612,0.0554106108893923,0.061436782162513,2.136220873414006,-6.705144882202148,-17.844863891601562,-36.388427734375,0.0158538818359375,1015.8550262451172
1.989364013671875,0.0023709303824231,-0.0138468121100217,0.0205664026886224,0.0054865963757038,0.0152323935180902,-0.0322575010359287,0.0554095799866672,0.0615675746719011,2.1358863385757325,-6.559023857116699,-17.929019927978516,-36.13177490234375,0.0158538818359375,1015.8550262451172
1.99943310546875,0.0356208004901185,0.0171474245579913,0.0229863233119249,0.0083026234060525,0.0058194515295326,-0.0303900931030511,0.0554879584626783,0.061702543354127,2.135558410731878,-6.710245132446289,-17.79180908203125,-36.2601318359375,0.0158538818359375,1015.8550262451172
2.009501953125,0.0610806012434884,0.0355999038325622,0.019175825113058,0.010913916863501,-0.0024655982851982,-0.0307511426508426,0.0555844594143446,0.0617313076427916,2.1352386681562763,-6.852346420288086,-17.828338623046875,-36.522308349609375,0.0158538818359375,1015.8550262451172
2.019570068359375,0.0639111484942957,0.0313798384521156,0.0276648365169763,0.0099501181393861,-0.0053431438282132,-0.035312071442604,0.055673066672061,0.0617175877372929,2.134908742552478,-6.557188987731934,-17.71185874938965,-36.44183349609375,0.0158538818359375,1015.8550262451172
2.029638916015625,0.0472655725112184,0.0127159449165686,-0.0009182838886976,0.0012109195813536,-0.0059027886018157,-0.033327218145132,0.0557078002173836,0.0616907463637336,2.13456834914924,-6.499896049499512,-17.79639434814453,-36.369903564453125,0.0158538818359375,1015.8550262451172
2.0397080078125,0.0357696709088981,0.0051637394387274,-0.0373725760608911,-0.0087101543322205,-0.0057600429281592,-0.0348596014082431,0.0556394848104057,0.0616572065056521,2.134228820685471,-6.463591575622559,-17.8155517578125,-36.46954345703125,0.0158538818359375,1015.8550262451172
2.04977685546875,0.034854346162267,0.017088753173314,-0.0492290180712938,-0.013600131496787,-0.0130148585885763,-0.0349951945245265,0.0555125289610579,0.0615820033760977,2.133873000765405,-6.762432098388672,-17.805023193359375,-36.443359375,0.0158538818359375,1015.8550262451172
2.059845947265625,0.0747218808440491,0.0091747286457568,-0.0369312620341777,-0.0162963140755891,-0.0202101860195398,-0.0356892123818397,0.0553461358169982,0.0614370925993901,2.1335236653310075,-6.6278228759765625,-17.8673038482666,-35.918670654296875,0.0158538818359375,1015.8550262451172
2.069913818359375,0.0870570462821051,-0.0108505163708701,0.0153799399614334,-0.0251134280115365,-0.0177557617425918,-0.0408973284065723,0.0551195818263269,0.0612459556468091,2.133155599264029,-6.442680358886719,-17.824697494506836,-36.09869384765625,0.0158538818359375,1015.8550262451172
2.07998291015625,0.0707633524766191,-0.029039595468901,0.0470376455068588,-0.0349468812346458,-0.0102461818605661,-0.044912576675415,0.0547901937838744,0.0611512636061269,2.13274587656499,-6.370262145996094,-17.72698974609375,-36.251068115234375,0.0158538818359375,1015.8550262451172
2.090052001953125,0.0623269845753908,-0.0468514752849936,0.0273474411308765,-0.0279061235487461,-0.0085660563781857,-0.0522289276123046,0.0544229256616436,0.0611252096417831,2.132265254283577,-6.6384992599487305,-17.5062198638916,-36.2176513671875,0.0158538818359375,1015.8550262451172
2.100120849609375,0.0645643882386386,-0.0877953704940155,-0.0227162741988897,-0.020238347351551,-0.0190080441534519,-0.0621017999947071,0.0541231021398637,0.0610330848502967,2.1316959432966174,-6.661342620849609,-17.70531463623047,-36.084808349609375,0.0158538818359375,1015.8550262451172
2.110190185546875,0.068781969401054,-0.0918282792719081,-0.0202636203497648,-0.0081104105338454,-0.0289580412209033,-0.0665221884846687,0.0539404737253796,0.0608459335752548,2.131053986350987,-6.634790420532227,-17.606176376342773,-36.21725463867188,0.0158538818359375,1015.8550262451172
