Timestamp,Acc x (m/s^2),Acc y (m/s^2),Acc z (m/s^2),Gyro x (rad/s),Gyro y (rad/s),Gyro z (rad/s),Beccheggio/Pitch (rad/s),Rollio/Roll (rad/s),Imbardata/Yaw (rad/s),Mag x (microTesla),Mag y (microTesla),Mag z (microTesla),Altitudine (m),Pressione (milliBar)
0.031134521484375,0.0636010961644351,-0.0100219200596213,0.0034071780949831,0.0017506210133433,0.0078306701034307,0.0247449576854705,0.2039566509996476,0.0963815333818702,2.3553347984444577,-16.30941390991211,-21.53385162353516,-30.7056884765625,-0.0060776446954694885,1009.2931520617504
0.041203857421875,0.0133533295046538,-0.0168044198065996,0.0112836105585098,-0.008837841451168,0.0331400223076343,0.0091923642903566,0.2039515671165361,0.0966130683668614,2.355503455865991,-16.417200088500977,-21.215591430664062,-30.779754638671875,-0.006183725133517289,1009.2931643165302
0.051273681640625,-0.0516533956740051,-0.020865677896142,0.0278700037002563,-0.0121654728427529,0.079921655356884,-0.0097424127161502,0.203840315802974,0.0971967645379067,2.355511148061461,-16.583486557006836,-21.87882232666016,-31.0247802734375,-0.006289810715607279,1009.2931765719044
0.061343505859375,-0.060020972655341,-0.0109087858967483,0.0789881965190172,-0.0129369897767901,0.1212717592716217,-0.0250446703284978,0.2036773416480442,0.0982411227631478,2.355346727124211,-16.82823944091797,-22.408599853515625,-30.95687866210937,-0.0063958962976972695,1009.2931888272784
0.071413818359375,-0.0262052853584289,0.0029752164185047,0.1479781461149454,-0.0327410846948623,0.1212752982974052,-0.029820641502738,0.2033779482018343,0.0994877987715592,2.355099207609519,-16.89885902404785,-22.433631896972656,-31.13824462890625,-0.006501987023829451,1009.2932010832468
0.081483642578125,0.0451779891148209,0.0060847267411649,0.1705026971340179,-0.0457913726568222,0.1083645522594451,-0.0220026653259992,0.2029227133822081,0.1006520435878531,2.354870600459561,-16.89999771118164,-22.59019470214844,-31.574249267578125,-0.006608072605919442,1009.293213338621
0.0915537109375,0.1099179531160742,0.0086615914918482,0.2165390566438436,-0.0603199750185012,0.0940540358424186,-0.0137455826625227,0.2023497982364842,0.1017103748290673,2.3547392370100124,-16.594552993774414,-22.67682647705078,-31.11532592773437,-0.0067141607600305275,1009.2932255942922
0.10162255859375,0.126398401665315,0.0538077241636812,0.2535895611435175,-0.0733092725276947,0.0482026562094688,-0.0037504727952182,0.2016909922155253,0.1024772754581674,2.354724703789975,-16.630828857421875,-22.546127319335938,-31.34286499023437,-0.006820236054036138,1009.2932378484777
0.111692626953125,0.1652780943535268,0.1037204867154359,0.1667792926967144,-0.0721175596117973,0.0053490297868847,-0.008820129558444,0.2009677260479178,0.1027152900864996,2.354742679985229,-16.655912399291992,-22.489295959472656,-31.105133056640625,-0.006926324208147224,1009.2932501041489
0.1217626953125,0.182253925204277,0.1146034075185656,0.1160930615544319,-0.0673576965928077,0.0182347353547811,-0.0056938445195555,0.2002939540590275,0.1027881085088729,2.3547672627855647,-16.72977066040039,-22.238243103027344,-31.5311279296875,-0.00703241236225831,1009.2932623598202
0.131832763671875,0.1457937878131866,0.1280963646896183,0.1315846451967954,-0.0702740848064422,0.0127514656633138,0.000256816856563,0.1996582742947719,0.1028946478964784,2.354827315787217,-16.698699951171875,-22.31183624267578,-31.45947265625,-0.007138500516369395,1009.2932746154914
0.14190283203125,0.1061724829774349,0.1416039349079132,0.0280061973005533,-0.0726506859064102,0.00230921106413,0.0024573868140578,0.1989930792944075,0.10286170429538,2.3549284873163865,-16.29483985900879,-22.06200408935547,-31.64569091796875,-0.007244588670480481,1009.2932868711626
0.1519716796875,0.1002237306408584,0.1138897062912583,-0.0189852709770202,-0.0558083206415176,0.0010229041799902,0.0081882439553737,0.1983983515723002,0.1028142074022552,2.3550579470167627,-16.558475494384766,-22.44940948486328,-31.527069091796875,-0.007350663964486091,1009.2932991253482
0.162041748046875,0.1254871320392936,0.1040655007608234,-0.0381610960900783,-0.0361384823918342,0.0054077985696494,0.0086167454719543,0.1979991004579503,0.102855521687791,2.355181525085131,-16.682531356811523,-22.25617218017578,-31.180084228515625,-0.007456752118597177,1009.2933113810194
0.17211181640625,0.1254867667131126,0.136988257806003,-0.0307990428894758,-0.0229104422032833,0.0027209655381739,0.0074415556155145,0.1977814791707767,0.1029449325784171,2.355261777809195,-16.703834533691406,-22.370704650878903,-31.05828857421875,-0.007562840272708262,1009.2933236366907
0.182181396484375,0.1538211730547249,0.1403666481979191,0.0386766443967819,-0.0268812179565429,0.0237434264272451,0.0198502875864505,0.1975726030327975,0.1031541056143566,2.3553922359751023,-16.731618881225586,-22.38568878173828,-31.170135498046875,-0.007668923282777159,1009.2933358917677
0.192251708984375,0.1792114887684583,0.1516373992748558,0.1034919386565685,-0.0425364300608634,0.0281199738383293,0.0369824804365634,0.1972352432745357,0.1034806649559386,2.355692801288994,-16.713024139404297,-22.5072021484375,-31.149688720703125,-0.00777501400890934,1009.2933481477361
0.20232177734375,0.1636806690942496,0.1273399933643639,0.1282037705868482,-0.0639277398586273,0.0226317308843135,0.0555308647453784,0.1966848158655867,0.1037631707284163,2.356208133924805,-16.799175262451172,-22.24134063720703,-31.12924194335937,-0.007881102163020424,1009.2933604034073
0.212390869140625,0.1446600345429033,0.0970842635713517,0.1469943957746028,-0.0751566886901855,0.0208918899297714,0.0618247091770172,0.1959972688355568,0.1039383640025031,2.3568720351980423,-16.76700782775879,-22.20063018798828,-31.1796875,-0.00798718002904713,1009.29337265789
0.222460693359375,0.0887595758836716,0.0778131613902747,0.1174894843488931,-0.0766637697815895,0.0165759697556495,0.057713858783245,0.1952383949126677,0.1040567455194211,2.3575573984341363,-16.744905471801758,-22.255027770996094,-31.31747436523437,-0.00809326561113712,1009.293384913264
0.232530517578125,0.0189387284215539,0.0691148911498487,0.0842354495227336,-0.0826684311032295,0.0046980665065348,0.0518025644123554,0.1944431801408506,0.1040966345484716,2.35818865650724,-16.946794509887695,-22.23162078857422,-31.400604248046875,-0.008199351193227112,1009.2933971686382
0.242600830078125,-0.0193842071667313,0.0292896612398326,0.0416027609765529,-0.0879271104931831,-0.0098941922187805,0.045631755143404,0.1935856406562251,0.1040494047866003,2.358763612111837,-16.713735580444336,-21.97834014892578,-31.29452514648437,-0.008305441919359292,1009.2934094246066
0.2526708984375,-0.0435155357953161,-0.0258504805713892,-0.0256873989641666,-0.0954672843217849,-0.0240012854337692,0.0336404778063297,0.1926296096339846,0.1038464663569055,2.359265061968941,-16.779050827026367,-22.03577423095703,-31.19683837890625,-0.008411530073470378,1009.2934216802778
0.26274072265625,-0.0607004062868654,-0.0341300870083272,-0.0996329251408576,-0.1003184989094734,-0.0176150240004062,0.0167424567043781,0.1916140356211371,0.1036671551793455,2.359613509864092,-16.624895095825195,-21.959190368652344,-31.17877197265625,-0.008517615655560369,1009.2934339356518
0.272809814453125,-0.0399701913386583,0.0214298876501619,-0.1419780289173126,-0.1000445857644081,0.006042611785233,0.0168263148516416,0.1905618203313683,0.103668844835188,2.359851111248825,-16.758874893188477,-21.81682586669922,-31.39779663085937,-0.008623693521587074,1009.2934461901345
0.282879638671875,-0.0164545103903859,0.0681904697813093,-0.1788075841426849,-0.0809100419282913,0.0226966887712478,0.0307400003075599,0.1896526965663955,0.1038669958964462,2.360166641216733,-16.61145782470703,-21.71109771728516,-31.606658935546875,-0.008729779103677063,1009.2934584455087
0.29294970703125,0.029362580345571,0.0925347835734486,-0.2283066513270139,-0.0537073239684104,0.0241760984063148,0.0385950244963169,0.1890108418670577,0.1041167797351874,2.3605735871059705,-16.8560791015625,-21.755104064941406,-31.75741577148437,-0.008835867257788151,1009.2934707011799
0.30302001953125,0.0872169495515525,0.0831638747684657,-0.2274216851860284,-0.0320297256112098,0.0328295081853866,0.0464968904852867,0.1886283050457475,0.1043804518829179,2.3610453577033663,-16.668561935424805,-21.692855834960938,-31.94622802734375,-0.008941957983920331,1009.2934829571483
0.313089599609375,0.0831196703005582,0.0372452964194119,-0.1494850435465574,-0.0242000818252563,0.0351436398923397,0.0595585852861404,0.1884129276927273,0.1046476245000816,2.3616005775996607,-16.632604598999023,-21.65338134765625,-31.694976806640625,-0.009048040993989226,1009.2934952122253
0.32315869140625,0.0447237425412982,-0.0224622994378209,-0.0594359393090009,-0.040634449571371,0.0172586515545845,0.0691369101405143,0.1881952462426538,0.1047774810882568,2.3622888469242502,-16.710615158081055,-21.47201538085937,-31.532867431640625,-0.009154118860015933,1009.293507466708
0.333228759765625,-0.0027965719159692,-0.0383121949985623,0.0328910467326641,-0.0643234923481941,0.0141139039769768,0.065580353140831,0.1877926193397817,0.1047626989933435,2.363040080421906,-16.92035484313965,-21.43403625488281,-31.803955078125,-0.009260207014127018,1009.2935197223792
0.343298583984375,-0.0409076183192431,-0.054381578528881,0.1353460435569286,-0.0990678891539573,0.0138337397947907,0.0607709512114524,0.1870876925993035,0.1047437869746941,2.3637743564823723,-16.82444190979004,-21.37345123291016,-31.66119384765625,-0.00936629259621701,1009.2935319777533
0.35336865234375,-0.0410753761015832,-0.0901652779631316,0.164782565921545,-0.1285253763198852,-0.0006706612184643,0.0591636821627616,0.1859986114431116,0.1046616245664848,2.3645133821859816,-16.859844207763672,-21.49712371826172,-32.252716064453125,-0.009472380750328094,1009.2935442334245
0.363438720703125,-0.0240204156000167,-0.07587766328305,0.0903045403033494,-0.1459829211235046,-0.0242753215134143,0.0605320110917091,0.1846399253697276,0.1043699273205225,2.3652744909029706,-16.81324577331543,-21.36901092529297,-32.21136474609375,-0.009578468904439181,1009.2935564890957
0.3735087890625,-0.0351848567582666,-0.049013183363527,0.0209556942671537,-0.1441971510648727,-0.0427475124597549,0.0615557990968227,0.1831892089244277,0.103883080312886,2.3660496005298897,-16.811935424804688,-21.36492156982422,-31.826324462890625,-0.009684557058550267,1009.293568744767
0.38357763671875,-0.0370649714164435,-9.26467195153e-05,4.90998387336e-05,-0.1189652979373931,-0.054086185991764,0.0589850507676601,0.1818846910272017,0.1033052467625425,2.366799294965731,-17.012428283691406,-21.52256774902344,-31.5419921875,-0.009790632352555877,1009.2935809989526
0.39364794921875,-0.0408899365320801,0.0345839682556688,-0.0135755208879709,-0.0886000916361808,-0.066832311451435,0.0574809536337852,0.1809032579923503,0.1026403753944697,2.367471533507109,-16.782608032226562,-21.355926513671875,-31.54046630859375,-0.009896723078688057,1009.2935932549209
0.4037177734375,-0.0667126523137092,0.0533984127104282,-0.0110024555295705,-0.0544192194938659,-0.0787233188748359,0.0505775101482868,0.1803097146521934,0.1018429085706962,2.368090724205704,-16.672605514526367,-21.077903747558597,-31.266387939453125,-0.010002808660778049,1009.293605510295
0.413787841796875,-0.0759641725227236,0.0815698835752904,0.0256798001796007,-0.0305293202400207,-0.1045970097184181,0.0379186794161796,0.1800036310113531,0.1008367789387328,2.3685851338070387,-16.618757247924805,-21.22749328613281,-31.217193603515625,-0.010108896814889134,1009.2936177659662
0.42385791015625,-0.0163011464595794,0.0907369403712451,0.0521755929172039,-0.0164521187543869,-0.1279792934656143,0.032779574394226,0.1799146192159791,0.0995925610447751,2.3689673064202603,-16.708574295043945,-21.482215881347656,-31.454498291015625,-0.01021498496900022,1009.2936300216375
0.4339267578125,0.0391280414260923,0.066744801017642,0.0364431862562894,-0.0070857806131243,-0.1445521563291549,0.0408553443849086,0.179940436850661,0.0981525934522587,2.369349742153857,-16.973709106445312,-21.397056579589844,-31.52401733398437,-0.01032106026300583,1009.2936422758231
0.4439970703125,0.0394971669994294,0.0461921345934271,0.0114046065896749,-0.0051352819427847,-0.1458626985549926,0.0403197854757308,0.1800125783367801,0.0966350438323328,2.369756702666908,-16.99877166748047,-21.40418243408203,-31.59527587890625,-0.01042715098913801,1009.2936545317915
0.45406689453125,-0.00410064025186,0.0646200639486312,0.0167167415231466,-0.0131913227960467,-0.1146899089217186,0.0370453298091888,0.1800149132373821,0.095253914535259,2.3701652733303424,-17.250661849975586,-21.32899475097656,-31.557830810546875,-0.010533236571228,1009.2936667871655
0.46413671875,-0.0571301465846598,0.0469391535684466,0.0394061277151107,-0.0262882150709629,-0.0713371038436889,0.0347134657204151,0.1798728595082051,0.0942759874996549,2.370538311185097,-17.259531021118164,-21.271018981933597,-31.306304931640625,-0.010603073759614947,1009.2936732778418
0.474206787109375,-0.0930249051779508,0.0670450991384685,0.0167921448469162,-0.0494024083018302,-0.0098804971203207,0.0283560492098331,0.1795218313844647,0.0938163319863229,2.3708949704744624,-17.29017448425293,-21.277359008789062,-31.49005126953125,-0.010656201072981123,1009.2936771109813
0.48427685546875,-0.1037928212992846,0.0711652478083968,0.0479389782607555,-0.0743719413876533,0.047842189669609,0.025565855205059,0.1789098272122267,0.0939766047879215,2.371217025853793,-17.52492332458496,-21.41905212402344,-31.734100341796875,-0.010709328386347299,1009.2936809441208
0.494345947265625,-0.0800616709694266,0.0620015520133078,0.0855015239357948,-0.0970098376274108,0.0692992135882377,0.0189187470823526,0.1780223357870654,0.0945129342257076,2.371523470260466,-17.068302154541016,-21.25096893310547,-31.328643798828125,-0.010762450547599299,1009.2936847768885
0.504415771484375,-0.0301036810364574,0.0360182388424873,0.0679413173258304,-0.1113608106970787,0.048940148204565,0.0191155541688203,0.1769582189862585,0.0951042877194739,2.371821924063761,-17.080970764160156,-21.313491821289062,-31.452850341796875,-0.010815576572936931,1009.2936886099351
0.51448583984375,0.0217461870577186,0.0132673317216336,0.0188841486901044,-0.1021049171686172,-0.0027061770670115,0.0209658406674861,0.1758726359067688,0.0953115148618169,2.3721360574942687,-16.97953224182129,-21.207008361816406,-31.284576416015625,-0.010868703886303108,1009.2936924430746
0.5245556640625,0.0594436111588031,-0.0110289051450788,-0.0641372488677501,-0.0818811431527137,-0.0446565560996532,0.0221903622150421,0.174952661284859,0.0950324859680748,2.3724517314337974,-17.127304077148438,-21.142990112304688,-31.617828369140625,-0.01092182991164074,1009.2936962761212
0.5346259765625,0.0566468200471252,-0.000120265378803,-0.1093652146041393,-0.0539576783776283,-0.0803483948111534,0.0236523896455764,0.1742848580710592,0.0943472266171295,2.3727535628027647,-17.011320114135742,-21.11212158203125,-31.54339599609375,-0.010974958513035461,1009.2937001093536
0.544696044921875,0.0453835946895182,0.0336347047068178,-0.1492903977572917,-0.0362971946597099,-0.0766745656728744,0.0169172547757625,0.1738600154188612,0.0934573842347856,2.373002309030994,-17.126384735107422,-21.06280517578125,-31.677276611328125,-0.011028085826401638,1009.293703942493
0.5547646484375,0.0151957425009459,0.0245678934149444,-0.1449590905547142,-0.0339539870619773,-0.0469489470124244,0.0146289579570293,0.1735410000113526,0.0927323872126409,2.373199082750271,-16.977787017822266,-20.943679809570312,-31.563232421875,-0.011081205411596549,1009.293707775075
0.5648349609375,-0.0222827781524509,0.0036054771460592,-0.104846860396862,-0.0381724350154399,-0.0099880015477538,0.0079596024006605,0.1731833550430701,0.0923914938641207,2.3733585252046017,-17.30914878845215,-21.150421142578125,-31.89071655273437,-0.011134334012991269,1009.2937116083074
0.57490478515625,-0.0379111399170011,0.004654109416157,-0.1220621990919113,-0.0501300357282161,0.0235888920724391,-0.0012988296803086,0.1727342673347564,0.092406635306648,2.373426749450616,-17.05963706970215,-20.736671447753903,-31.4368896484375,-0.011187460038328902,1009.2937154413539
0.584974609375,-0.0104473789300769,0.0141182494625449,-0.0920709654539823,-0.0608367435634136,0.0712139382958412,-0.0043931566178798,0.1721804935727887,0.0928715541206327,2.3734430874281145,-16.90340232849121,-21.10702514648437,-31.23150634765625,-0.011240586063666534,1009.2937192744005
0.595044921875,0.0037128099780529,0.0213711432002484,-0.0229155961632728,-0.071018137037754,0.0884802564978599,0.0048200176097452,0.171537328188171,0.0937068233845477,2.3734943403546755,-17.088367462158203,-21.179351806640625,-31.406402587890625,-0.011293714665061256,1009.2937231076329
0.60511474609375,0.0261433260381221,0.0091352003529667,-0.0261526783883571,-0.0718801990151405,0.0883652046322822,0.0044538327492773,0.1708285518690334,0.0946145086875741,2.3736167706803406,-16.69341278076172,-21.034278869628903,-31.587371826171875,-0.011346840690398888,1009.2937269406796
0.615183837890625,0.0286920606728643,0.0140527830109,-0.0214291569977998,-0.0690631419420242,0.0795664638280868,-0.0002297270111739,0.1701296824968702,0.095457969038755,2.373704886047964,-16.840662002563477,-21.17681121826172,-31.855010986328125,-0.011399962851650887,1009.2937307734472
0.625253662109375,0.0146973645247519,0.0047132922574877,-0.0035270050823688,-0.0612603425979614,0.0642213299870491,-0.0077275903895497,0.169473067901044,0.0962018359347666,2.3737239905275263,-16.995027542114258,-21.09406280517578,-31.7548828125,-0.01145308887698852,1009.2937346064938
0.63532373046875,-0.0075248425468802,0.009042407502979,-0.0224292739510536,-0.0522430203855037,0.0293685458600521,-0.0130533650517463,0.1688837729733471,0.0966509962502044,2.3736839839716657,-16.902555465698242,-21.00652313232422,-31.86044311523437,-0.011506216190354695,1009.2937384396333
0.645393798828125,0.0111832189239561,0.0146292677246034,-0.0375923562914133,-0.0451206602156162,0.0009795152582228,-0.0053951782174408,0.1684091205643203,0.096736106620785,2.3736405668764404,-16.805217742919922,-21.000755310058597,-31.8216552734375,-0.011559343503720872,1009.2937422727729
0.6554638671875,0.0366850321881473,0.0256355226464569,0.0318371537655591,-0.0437451526522636,-0.0328956022858619,0.0101614575833082,0.1679843142671008,0.0965203690347761,2.3737184129747426,-16.731809616088867,-21.060806274414062,-31.662750244140625,-0.011612470817087049,1009.2937461059123
0.665533935546875,0.0681129475656896,0.0500951333813369,0.0637555560737848,-0.0407781228423118,-0.0836027190089225,0.0215605851262807,0.1675890413627975,0.0958760253253801,2.3739379889384487,-16.769927978515625,-21.19507598876953,-31.846435546875,-0.011665598130453226,1009.2937499390518
0.675602783203125,0.0711255003198981,0.0384305606812238,0.0114835170447826,-0.0382753610610961,-0.1156481429934501,0.0202740281820297,0.1672183948548765,0.0947953368928644,2.3742009129503523,-16.881052017211914,-21.221893310546875,-32.05072021484375,-0.011718719003676681,1009.2937537717266
0.6856728515625,0.0283139480754733,0.012171937700361,-0.0023316578179597,-0.0426165759563446,-0.0971535518765449,0.011519419029355,0.1668550379115701,0.0936875605193039,2.3743962572109254,-17.107440948486328,-21.009841918945312,-31.92596435546875,-0.011771846317042858,1009.2937576048662
0.695742919921875,-0.0390126714181154,0.0310284677311778,0.0633586657106876,-0.0601297616958618,-0.0545446202158927,0.0098809329792857,0.1663601235994347,0.0929172114200908,2.3745534236090986,-16.90504264831543,-20.690895080566406,-31.6689453125,-0.011824973630409033,1009.2937614380056
0.7058125,-0.1141223460033536,0.0657080053158104,0.0840489870399236,-0.0767721161246299,-0.0257007181644439,0.0125398337841033,0.165722034171792,0.0925179384297431,2.37474384253333,-16.945585250854492,-20.719970703125,-31.945831298828125,-0.011878098367718122,1009.2937652709593
0.7158828125,-0.119641986207664,0.0978996716074645,0.0608276859283447,-0.0866950005292892,-0.0121855549514293,0.0122935362160205,0.1649196338038514,0.0923173405188609,2.374938192341062,-17.140993118286133,-20.815460205078125,-31.771270751953125,-0.011931226969112843,1009.2937691041917
0.725951904296875,-0.0603133066654205,0.0938895591832697,0.0274988323003053,-0.0880375057458877,-0.0242289006710052,0.0081746932119131,0.1640565531607093,0.0921412599444838,2.375123345378265,-17.20180320739746,-20.692123413085938,-31.75994873046875,-0.011984349130364842,1009.2937729369595
0.73602197265625,0.0094166476428508,0.0848744780786335,-0.0352566068202257,-0.0736791118979454,-0.0550642162561416,0.0098896883428096,0.1632640131706044,0.0917720942424906,2.375279323267152,-17.426197052001953,-20.51871490478516,-31.233917236328125,-0.012037476443731019,1009.2937767700989
0.746091796875,0.0451619878280907,0.0941894189126789,-0.0920966844171285,-0.0493167750537395,-0.0820028856396675,0.0134870875626802,0.1626648019504268,0.091128260446647,2.3754346400711874,-17.186553955078125,-20.71136474609375,-31.509979248046875,-0.012090602469068651,1009.2937806031455
0.75616162109375,0.050694049122557,0.1232899873211979,-0.1011053357809782,-0.0269389636814594,-0.1009969785809516,0.0178929753601551,0.1623164875108091,0.0902540640754448,2.3756304087131714,-17.105052947998047,-20.567123413085938,-31.333953857421875,-0.012143728494406283,1009.293784436192
0.76623193359375,0.0417003761321306,0.1048227488689124,-0.1277367375969886,-0.025226816534996,-0.1304624676704406,0.0218685418367385,0.1621090913766372,0.0890727827741938,2.375855526713189,-16.978723526000977,-20.699447631835938,-31.53964233398437,-0.012196857095801004,1009.2937882694245
0.776302001953125,0.0396411785800009,0.0754646985679864,-0.1671364355713128,-0.0265876799821853,-0.105884164571762,0.0307512190192937,0.1618741705348396,0.0878083981774958,2.376142385628017,-17.28581428527832,-20.39348602294922,-31.706451416015625,-0.012249984409167181,1009.293792102564
0.78637060546875,-0.0055699090868234,0.0688625238239765,-0.0804541774183511,-0.0262119062244892,-0.0506840199232101,0.0336996018886566,0.1616403847854574,0.0869535900607988,2.37650716350353,-17.278377532958984,-20.280906677246094,-31.46664428710937,-0.012303103994362092,1009.2937959351459
0.79644091796875,-0.052090033525601,0.1379864750631153,-0.0793687202692031,-0.0179645270109176,-0.0407431945204734,0.0237930044531822,0.1614075989513698,0.0864519327850522,2.376827534577761,-17.409584045410156,-20.651268005371094,-31.80999755859375,-0.012356232595756814,1009.2937997683783
0.8065107421875,-0.0176619134187698,0.1679590040005743,-0.1719043806254863,0.0010174196213483,-0.0319664813578128,0.013300416059792,0.1612885552645425,0.0860300952977725,2.3770187247840844,-17.314085006713867,-20.38660430908203,-31.62411499023437,-0.012409358621094446,1009.2938036014249
0.816580810546875,0.0537635196957737,0.0975529039964079,-0.1294973175287246,0.0203041713684797,0.0141008738428354,0.0213434118777513,0.1613889004019913,0.0859489150043348,2.377181440736636,-17.146448135375977,-20.573143005371094,-31.837921142578125,-0.012462485934460622,1009.2938074345644
0.826651123046875,0.0827145235657692,0.0801898273937404,-0.0132850135087966,0.0222962163388729,0.0215212386101484,0.0282085090875625,0.1615893384545909,0.0861771353852192,2.377415495586337,-17.07539939880371,-20.39537811279297,-31.92950439453125,-0.012515614535855344,1009.2938112677969
0.836720703125,0.0611367518775165,0.0780843795470893,0.0122276134103536,0.0059165712445974,0.0016098548658192,0.033166266977787,0.1616810057859257,0.0862746347178877,2.377711754108355,-17.18255615234375,-20.61705780029297,-31.8106689453125,-0.012568739273164431,1009.2938151007504
0.846789794921875,0.0493248796612024,-0.0053811085164546,0.0657154579699039,-0.0134195769205689,0.0126798171550035,0.0361897535622119,0.1616225164804471,0.0863038701573719,2.3780765012475125,-17.384042739868164,-20.686012268066406,-31.985992431640625,-0.012621861434416431,1009.2938189335182
0.85685986328125,0.0240169084686785,-0.0439363184906542,0.1350882694035768,-0.0377526357769966,0.0041548199951648,0.0310946851968765,0.1613340759839488,0.0863793838865039,2.3784582494340056,-17.258893966674805,-20.734527587890625,-31.97222900390625,-0.012674988747782607,1009.2938227666577
0.8669296875,-0.0051768181160092,-0.0358674321949481,0.0956476548969745,-0.0618555694818496,-0.0329826958477497,0.0225613862276077,0.1608227436957844,0.0861874893559217,2.378774462158708,-17.242334365844727,-20.60780334472656,-31.757232666015625,-0.01272811477312024,1009.2938265997043
0.876999755859375,0.0130924866113811,-0.075509268362075,-0.0090519059836864,-0.0616719312965869,-0.0512682572007179,0.0159502923488616,0.1601129371666107,0.085664197736753,2.3790077047919844,-17.227087020874023,-20.582176208496094,-31.5098876953125,-0.012781242086486417,1009.2938304328437
0.88706982421875,0.0515958933331072,-0.089467066565901,-0.0772206023246049,-0.0440636426210403,-0.0401897728443145,0.0163811910897493,0.1594749810027305,0.085154192234905,2.3792183067365267,-17.08742332458496,-20.497901916503903,-31.71026611328125,-0.012834369399852594,1009.2938342659833
0.897139892578125,0.0574392125338315,-0.0452092610359191,-0.1115408050775527,-0.0115299429744482,-0.0452790521085262,0.0244540777057409,0.1591468146566014,0.0847456441484838,2.3794594681253125,-17.227130889892578,-20.583480834960938,-31.811798095703125,-0.012887496713218769,1009.2938380991227
0.9072099609375,0.0489887795746326,0.0003518821775913,-0.1786117693096399,0.020611748099327,-0.0779754817485809,0.0205179266631603,0.1591850913178552,0.0841641408052026,2.37967068201134,-17.274436950683594,-20.72943115234375,-32.033660888671875,-0.012940624026584946,1009.2938419322622
0.91727880859375,0.1010100587129592,-0.0412432800143957,-0.2346352698266506,0.0429558306932449,-0.0974512323737144,0.0265743769705295,0.159494622708629,0.0832742638312552,2.3798615720641694,-17.368864059448242,-20.67573547363281,-32.039093017578125,-0.012993744899808401,1009.293845764937
0.927348876953125,0.1446340963840484,-0.1160939383372664,-0.1967301943242549,0.0537714585661888,-0.0750143676996231,0.0313981622457504,0.1600168215819335,0.0823890093341775,2.380091775559115,-17.562938690185547,-20.624420166015625,-31.571929931640625,-0.013046872213174578,1009.2938495980766
0.937418701171875,0.049377778892219,-0.134245827230066,-0.129722358456254,0.0433825179934501,-0.0282887779176235,0.0244518853724002,0.1605839999732323,0.0818782374602492,2.3803418423732285,-17.74626350402832,-20.735641479492188,-31.7330322265625,-0.01309999823851221,1009.2938534311231
0.947489013671875,-0.0736971043735742,-0.1003840357691049,-0.0400151995241642,0.0144358230754733,0.0193818043917417,0.0081062018871307,0.1609285866842172,0.0818593445245555,2.3804720560493213,-17.67566680908203,-20.793800354003903,-31.5831298828125,-0.013153126839906932,1009.2938572643556
0.957558837890625,-0.0980064929828047,-0.0876540257945656,0.0096375969171524,-0.013200044631958,0.0248987693339586,-2.79694795608e-05,0.1609915493969588,0.0821464416223042,2.380519212553252,-17.608253479003906,-20.539291381835938,-31.56109619140625,-0.013206252865244563,1009.2938610974021
0.967628662109375,-0.0341276758555322,-0.1182183831453323,-0.0447322911739349,-0.032407559454441,-0.0170580018311738,-0.0006162617355585,0.1607866194134277,0.0822384659554269,2.380530995624623,-17.420644760131836,-20.85216522216797,-31.5262451171875,-0.013259378890582197,1009.2938649304486
0.977697998046875,0.032125103861466,-0.1218998481370508,-0.1308627606630325,-0.0207356326282024,-0.0512243956327438,0.006067409645766,0.1605299834012266,0.0819131411941951,2.380573534079125,-17.464696884155273,-20.73863220214844,-31.876373291015625,-0.013312502339862739,1009.2938687633094
0.987767578125,0.069577321029827,-0.0806499922513961,-0.1929623662233352,0.0120390895754098,-0.0718686804175376,0.0039808223955333,0.1604475080090167,0.0813182593686241,2.3806206074321805,-17.409204483032227,-20.62908935546875,-32.040557861328125,-0.013365627077171828,1009.293872596263
0.997837646484375,0.0709465635564178,0.0128929454512894,-0.2313122628837823,0.0437616668641567,-0.0762108638882637,0.010763581842184,0.1607277708493175,0.0806217308189572,2.3806443132082795,-17.443439483642578,-20.58910369873047,-31.546905517578125,-0.013418754390538004,1009.2938764294025
1.007907958984375,0.0607991904862225,0.0718828945584595,-0.2308504905909299,0.0653857365250587,-0.0611075386404991,0.0215350035578012,0.1613340370697429,0.0799598694470806,2.380748218127957,-17.366270065307617,-20.66129302978516,-31.501617431640625,-0.013471882991932724,1009.293880262635
1.017977783203125,0.0370458283245563,0.0862720699168741,-0.1910042178928852,0.0755691677331924,-0.0339809097349643,0.0331523865461349,0.1621095527313057,0.079485140260434,2.380966621601942,-17.398744583129883,-20.70159912109375,-31.584716796875,-0.013525009017270356,1009.2938840956815
1.0280478515625,0.0026276450898498,0.0911086962930858,-0.1534603769183158,0.0795013234019279,-0.0123493839055299,0.0402443818747997,0.1629340502978634,0.0791703107081369,2.38130368895716,-17.52303123474121,-20.87792205810547,-31.85409545898437,-0.013578136330636533,1009.2938879288209
1.03811669921875,0.0135517016209661,0.0856431243635714,-0.088071082162857,0.0789631903171539,0.0310450382530689,0.0469594337046146,0.1637919452235076,0.0791504467299053,2.381683819470431,-17.205642700195312,-20.575401306152344,-31.6719970703125,-0.013631257203859989,1009.2938917614958
1.048186767578125,0.0134238374575972,0.0792702283307909,0.0466010076552629,0.073508508503437,0.0625808611512184,0.0485432147979736,0.1646180478274831,0.0795779995383047,2.382106623536976,-17.568477630615234,-20.53504943847656,-31.87640380859375,-0.013684384517226166,1009.2938955946353
1.058257080078125,-0.0189035840429365,0.0578176904574036,0.1413707106739282,0.0589528679847717,0.0565938167273998,0.0544874221086502,0.1653394403011787,0.0801468501871955,2.3825882479149207,-17.52288246154785,-20.71595001220703,-31.70907592773437,-0.013737513118620887,1009.2938994278677
1.068326904296875,-0.0277667625214904,0.0031995266936719,0.1825239743173122,0.039464920759201,0.0357063822448253,0.0510167889297008,0.1658808682596936,0.0805612626447069,2.383084395745632,-17.51336669921875,-20.74037170410156,-31.685943603515625,-0.013790639143958519,1009.2939032609142
1.078396728515625,-0.0533422986090183,-0.0633669951476156,0.261070856809616,0.0170195251703262,0.0237306989729404,0.0371460281312465,0.1661307261055341,0.080827226166642,2.383517908723808,-17.607515335083008,-20.629074096679688,-31.9022216796875,-0.013843765169296151,1009.2939070939609
1.088466796875,-0.0714464759025722,-0.0580078062020242,0.3125175509303808,-0.0109788198024034,0.0101440493017435,0.0176452975720167,0.1660814326143626,0.0809660591176961,2.3838090697785983,-17.710756301879883,-20.583160400390625,-31.96044921875,-0.013896892482662328,1009.2939109271003
1.098535888671875,-0.0662622781977057,-0.0444756860643625,0.2636228793799877,-0.0278695933520793,-0.0158922057598829,0.0017033503390848,0.1658096423269509,0.0809057830883103,2.383914364509256,-17.7484130859375,-20.539772033691406,-31.997833251953125,-0.013950014643914328,1009.2939147598681
1.108605712890625,0.0091111618902534,-0.0123116384319961,0.1759188769638538,-0.0215262100100517,-0.0274226274341344,-0.0020634247921407,0.1654684534528003,0.0806729066220453,2.383927217333063,-17.581222534179688,-20.69207763671875,-31.428466796875,-0.01400314066925196,1009.2939185929147
1.11867578125,0.0434429089505225,0.0619508447393774,0.0885737709879875,0.004529608413577,-0.023853950202465,0.0055972505360841,0.1652871821817323,0.0804154268294285,2.383956864621265,-17.656312942504883,-20.58252716064453,-31.365234375,-0.014056267982618137,1009.2939224260542
1.128745849609375,0.0269205209556967,0.1442312146715819,0.0217155727237462,0.0347333177924156,-0.0071751046925783,0.0144195044413208,0.1654397798188751,0.0802532179316013,2.384030984380711,-17.591272354125977,-20.84412384033203,-31.473419189453125,-0.014109395295984314,1009.2939262591937
1.13881591796875,0.0142106769863516,0.1861653995595872,0.0119762689977884,0.0552591495215892,-0.0139404386281967,0.0125537412241101,0.1658766384187843,0.0801339418477648,2.3841447327086818,-17.55976104736328,-21.03081512451172,-31.451690673828125,-0.01416252260935049,1009.2939300923332
1.148885986328125,0.0287353152927011,0.1490992590993642,-0.0249310276389122,0.0565891303122043,-0.0088878888636827,0.0164315700531005,0.1664846084807351,0.0799548587746323,2.3842502840093664,-17.719585418701172,-21.30091857910156,-31.251220703125,-0.014215649922716667,1009.2939339254726
1.158955810546875,0.0198593503978103,0.0689738752439618,0.0392225878417491,0.0503202490508556,0.0378232821822166,0.0180265232920646,0.1671118597679021,0.0800458503507022,2.3843858429342046,-17.506933212280273,-20.986289978027344,-31.456451416015625,-0.0142687759480543,1009.2939377585192
1.169024658203125,-0.0174379684697836,0.0639845425240695,0.2041436854511499,0.0252721551805734,0.0751706585288047,0.0178856421262025,0.1675708027087966,0.0805993641656408,2.3845400299492594,-17.61457061767578,-20.81968688964844,-31.746795654296875,-0.014321896821277755,1009.2939415911941
1.179094970703125,-0.0505393700174987,0.0857128285989165,0.270735341733694,-0.0092696938663721,0.0660988390445709,0.0144069585949182,0.1676977995283223,0.0812875427895148,2.384697777155818,-17.85326385498047,-20.78687286376953,-31.780303955078125,-0.014375025422672475,1009.2939454244265
1.1891650390625,-0.0037406478330492,0.0561046029292046,0.2751063964247703,-0.026888633146882,0.0367989987134933,0.0173478871583938,0.1675296202610096,0.081786007493296,2.384871007382962,-17.702964782714844,-20.787673950195312,-31.90087890625,-0.014428152736038652,1009.2939492575659
1.199234619140625,0.0454926810871809,-0.0118774847984313,0.2587286775976419,-0.0375930778682231,0.0119506530463695,0.0190952159464359,0.1671843590335752,0.0820138734923013,2.385073472373872,-17.633325576782227,-20.92109680175781,-31.8919677734375,-0.01448127747334774,1009.2939530905196
1.209304931640625,0.0267629192411899,-0.0284152164928615,0.2708820567280054,-0.0440680235624313,-0.0247517023235559,0.0144096510484814,0.1667430693582018,0.0819327270262534,2.3852633032278514,-17.73458480834961,-21.000083923339844,-31.886962890625,-0.014534406074742462,1009.293956923752
1.219375,0.0007649930231273,-0.0091324238739907,0.2151648456811905,-0.042536936700344,-0.0543679818511009,0.0060258940793573,0.166245827030736,0.0815026731636271,2.3854061816070247,-17.796327590942383,-20.811866760253903,-31.64129638671875,-0.014587533388108639,1009.2939607568916
1.22944482421875,0.0003662760291248,-0.0155402450896799,0.1713017385572195,-0.0298155490309,-0.0678089559078216,0.0039108111523091,0.1658308375768441,0.0808553794891755,2.385491298875684,-17.45374870300293,-20.539695739746094,-32.233306884765625,-0.014640659413446269,1009.2939645899381
1.239513916015625,-0.0085251786958426,-0.0135578391008079,0.1124818853199482,-0.0173315480351448,-0.0543230473995208,-0.003501187544316,0.165587152166224,0.0802222484931067,2.3855173139165315,-17.504213333129883,-20.45892333984375,-31.96142578125,-0.014693781574698268,1009.2939684227059
1.249583740234375,-0.042970030741766,-0.0062866790540516,0.108888244742155,-0.0163317993283271,-0.0308150574564933,-0.0150017831474542,0.1654106437086835,0.0798192854279221,2.385440642180684,-17.580305099487305,-20.491111755371094,-31.8818359375,-0.014746907600035901,1009.2939722557525
1.25965380859375,-0.0626475948318839,0.0010028934322297,0.09056465254426,-0.0206060148775577,-0.0159663911908864,-0.0201380643993616,0.165189666818196,0.0795913421901292,2.3852763685269824,-17.40540885925293,-20.744468688964844,-31.98638916015625,-0.014800034913402078,1009.2939760888919
1.26972412109375,-0.0382249551065266,-0.0254044903695583,0.0616612141430377,-0.0239863656461238,-0.0030476625543087,-0.0137648535892367,0.1649502793056295,0.0795383224606444,2.385133540604696,-17.659740447998047,-20.858154296875,-32.08123779296875,-0.014853163514796798,1009.2939799221243
1.279793701171875,-0.0142951403994113,-0.0463644224204123,0.0821007755815982,-0.0307558290660381,-0.0047686398029327,-0.0062926351092755,0.1647016851657958,0.0795518020654511,2.385066224692915,-17.610074996948242,-20.826705932617188,-31.9805908203125,-0.014906288252105887,1009.293983755078
1.28986376953125,-0.0401038276556879,-0.0519958524361252,0.0768599523186683,-0.0492075383663177,-0.0021784491837024,-0.0091736428439617,0.1643361172068752,0.0795388146123642,2.385017684657864,-17.737016677856445,-20.770301818847656,-32.034423828125,-0.014959415565472063,1009.2939875882174
1.299933837890625,-0.0702741441875696,-0.0738188310571014,0.0876075563043355,-0.067120686173439,-0.0026928547304123,-0.0213973186910152,0.1637818214726351,0.0795566775280886,2.384908223722477,-17.556779861450195,-20.61254119873047,-31.720947265625,-0.015012542878838242,1009.293991421357
1.3100029296875,-0.0741670599728822,-0.0991758290231227,0.0471352606624364,-0.0809579417109489,0.000751944258809,-0.0373270139098167,0.1630479116022496,0.079609319085387,2.3846712364667098,-17.712963104248047,-20.499305725097656,-31.680389404296875,-0.015065665040090239,1009.2939952541248
1.32007275390625,-0.0724104986291378,-0.0907015767969191,-0.0111550157427787,-0.089395634829998,0.0182238779962062,-0.043774526566267,0.1621763210826758,0.0797570772128134,2.3843191511209225,-17.574920654296875,-20.479293823242188,-31.435943603515625,-0.015118791065427871,1009.2939990871713
1.330142822265625,-0.0118916594542562,-0.0634571576490998,-0.0760340228885412,-0.0770462900400161,0.0336118899285793,-0.0371115654706954,0.1613270602190057,0.0800494193469251,2.3839750838004408,-17.63457489013672,-20.762474060058597,-31.5355224609375,-0.015171918378794048,1009.2940029203107
1.340212890625,0.0299869958542287,-0.0111734281823039,-0.116909638634324,-0.0523698963224887,0.0334149301052093,-0.0209406167268753,0.1606840052847287,0.0804152876461825,2.383737349536034,-17.756488800048828,-20.724571228027344,-31.60137939453125,-0.015225045692160225,1009.2940067534503
1.350282958984375,0.0968853069331496,0.0466094832226634,-0.1576847166150808,-0.0278517678380012,0.0196069739758968,-0.0057744476944208,0.1603153895156044,0.080673036890246,2.383632647285772,-17.695398330688477,-20.472244262695312,-31.53863525390625,-0.015278173005526401,1009.2940105865898
1.360352783203125,0.1462892431799322,0.0599824672758579,-0.1552607043385505,-0.0069921249523758,0.0161011144518852,0.0052061430178582,0.1602128813028768,0.0808398318520342,2.383636239381903,-17.476150512695312,-20.85760498046875,-31.605224609375,-0.015331299030864033,1009.2940144196364
1.3704228515625,0.1745765224441886,0.0403084833823144,-0.1108025539308786,0.0071023879572749,0.0010140417143702,0.0170095395296812,0.1602827972782485,0.0808711720709412,2.3837471715858847,-17.438140869140625,-20.65318298339844,-31.619110107421875,-0.015384426344230212,1009.2940182527758
1.38049169921875,0.155802921456471,0.0231046889945864,-0.0870370629400014,0.01199890114367,-0.0117316227406263,0.0304163470864295,0.160468745039395,0.0807256683235217,2.383999230558598,-17.469762802124023,-20.53905487060547,-31.746246337890625,-0.015437547217453666,1009.2940220854507
1.39056201171875,0.1113000551242381,0.0127039987504482,-0.0745183576285839,0.0147584695369005,-0.019134946167469,0.0309519059956073,0.1607237055770057,0.0804716358660823,2.3843185118257906,-17.51261329650879,-20.406951904296875,-31.56524658203125,-0.015490675818848387,1009.2940259186831
1.400631591796875,0.0554556375011801,-0.0025476386561989,-0.0418155269443988,0.0046089887619018,-0.0176136568188667,0.0153222810477018,0.1609103785686809,0.0801824862856683,2.384549631928917,-17.569456100463867,-20.73487091064453,-31.60235595703125,-0.015543800556157474,1009.2940297516367
1.41070166015625,-0.0034378654941916,-0.0422527493178844,-0.0251566530883312,-0.0074905501678586,0.0039566163904964,0.0047135795466601,0.1609360160408268,0.0800676583098165,2.3846527465347247,-17.779720306396484,-20.56897735595703,-31.547332763671875,-0.015596927869523651,1009.2940335847762
1.420771728515625,-0.0070236150264739,-0.0674340984560549,-0.0145277070462703,-0.0202519614249467,0.0124253518879413,0.0002815788611769,0.1607925358374129,0.0801582659736101,2.3846817645536778,-17.712947845458984,-20.47936248779297,-31.652008056640625,-0.015650055182889828,1009.2940374179157
1.430841796875,0.0054010553259402,-0.0263214590840041,-0.0385293448805809,-0.0233926270157098,0.0258364975452423,0.004165799356997,0.1605258454590964,0.0803869110372576,2.384718092815778,-17.592077255249023,-20.36339569091797,-31.95565795898437,-0.015703182496256005,1009.2940412510552
1.440911865234375,0.0252673469211906,0.0023959552258253,0.0150134447365999,-0.0238086804747581,0.0437740832567215,0.0125123988837003,0.1602308159522304,0.0808209513425053,2.384806680532435,-17.90808868408203,-20.51283264160156,-32.052734375,-0.01575630980962218,1009.2940450841947
1.450980712890625,0.0313187559146434,0.0245012579195201,0.0264981308251619,-0.0172815397381782,0.0391095578670501,0.0195412784814834,0.1600101769692719,0.0813074550468018,2.384971378308838,-17.902416229248047,-20.426124572753903,-31.6495361328125,-0.015809430682845637,1009.2940489168695
1.46105078125,0.0382532313529402,0.0241296481281518,0.0025853403180837,-0.0060737496241927,0.0288766119629144,0.0314690247178077,0.1598945249318766,0.0816883238199262,2.385215499879937,-17.5952091217041,-20.34457397460937,-31.72412109375,-0.015866878415193415,1009.294053625072
1.47112060546875,0.0372703577954322,-0.020583938345313,0.0552238745719194,0.0005556577816605,0.0230594705790281,0.0393051132559776,0.1598819632016345,0.0819450982653704,2.3855569310763385,-17.759258270263672,-20.36167907714844,-31.546417236328125,-0.01594645931008496,1009.2940628163208
1.481190673828125,0.0387844156201928,-0.0692829411931336,0.1145961009949445,-0.000912856310606,0.0125387562438845,0.0381359383463859,0.1599214320932191,0.0820988705908471,2.385948182332564,-17.84511375427246,-20.426246643066406,-31.49884033203125,-0.016026042134397414,1009.2940720077922
1.4912607421875,0.0132700351353734,-0.1123939147755503,0.1437970610380172,-0.006227727048099,-0.0086576100438833,0.0320231840014457,0.1599352989053978,0.0820448864627726,2.386314126971998,-17.744277954101562,-20.54315185546875,-31.848297119140625,-0.01610562495870987,1009.2940811992638
1.50133056640625,-0.0167293087437748,-0.1079609007641673,0.1576987451404333,-0.0189733691513538,-0.0285681709647178,0.0187279190868139,0.1598831375905577,0.0817880093682135,2.3865785751469644,-17.56424903869629,-20.502426147460938,-31.5849609375,-0.016185205853601416,1009.2940903905125
1.51140087890625,-0.0581244183190166,-0.1175825694598257,0.1445633692353963,-0.03672306984663,-0.0218181237578392,-0.001524090534076,0.1596312190711752,0.0814844080389295,2.3866789563384847,-17.632171630859375,-20.522300720214844,-31.81805419921875,-0.016264790607334784,1009.2940995822069
1.521470703125,-0.1002571945190429,-0.1433944715864956,0.112271457439661,-0.0527365915477275,-0.0010575833730399,-0.0230019390583038,0.1591753635697304,0.0813941564386416,2.386587160239765,-17.66324806213379,-20.617965698242188,-31.950653076171875,-0.01634437150222633,1009.2941087734555
1.531539794921875,-0.1180536210376769,-0.1301965518392622,0.029562194570899,-0.0585731752216815,0.0181376822292804,-0.0375979244709014,0.1585912079481277,0.0815404769533589,2.386321871555891,-17.55380630493164,-20.490234375,-31.688690185546875,-0.016423946608855138,1009.2941179640358
1.54160986328125,-0.0956679670326411,-0.076314008873701,-0.0779559308618307,-0.0502409003674984,0.0299623012542724,-0.0519237741827964,0.1579899389429597,0.0818644125469282,2.385903339816952,-17.399734497070312,-20.501617431640625,-31.583251953125,-0.016503529433167595,1009.2941271555072
1.5516796875,-0.0613136428143829,-0.0392991602092981,-0.1583142466902732,-0.0340001471340656,0.050761055201292,-0.0579241439700126,0.157532032766074,0.0823764740070759,2.3853811538223524,-17.500160217285156,-20.35601043701172,-31.8555908203125,-0.01658311032805914,1009.294136346756
1.56174951171875,0.0112527039635926,0.0144805069036781,-0.1899848117172718,-0.014315522275865,0.0678340494632721,-0.0531551912426948,0.1573218816504438,0.0830876472973275,2.384820958986281,-17.596235275268555,-20.518875122070312,-32.185333251953125,-0.016662691222950686,1009.2941455380046
1.57181982421875,0.0689455989975482,0.0247702841192483,-0.1729541819393634,0.0003518378362059,0.0699808225035667,-0.0366529114544391,0.157318262450663,0.0838697445515908,2.3843641109591127,-17.59577751159668,-20.511886596679688,-32.014495849609375,-0.01674227597668405,1009.294154729699
1.5818896484375,0.1152335221156477,0.0562735297553241,-0.1409539465665817,0.0045676557347178,0.073593869805336,-0.0105532612651586,0.1574191507616858,0.084625658636627,2.3841257132315024,-17.658761978149414,-20.408187866210938,-32.201416015625,-0.016821856871575596,1009.2941639209477
1.591959716796875,0.1678855734381824,0.0919701354280114,-0.0781973384022712,0.0004027383401989,0.0537490583956241,0.014701229520142,0.1575513089954032,0.0852187816732427,2.3841576898229992,-17.575977325439453,-20.619125366210938,-32.189727783203125,-0.016901439695888053,1009.2941731124192
1.602028564453125,0.1979410314187407,0.1046263495139777,-0.0093652097165584,-0.0010908301919698,0.0261330101639032,0.0334794297814369,0.1576838568650765,0.0855174634580778,2.3844092555929004,-17.6779842376709,-20.575950622558597,-32.044464111328125,-0.016981012873095953,1009.2941823027766
1.6120986328125,0.1729143613856285,0.0855953396990895,-0.0069885437130928,-0.0115959364920854,-0.0148069653660058,0.0367519222199916,0.1577428631330579,0.0854290722368687,2.384793953503345,-17.58013916015625,-20.55004119873047,-31.403594970703125,-0.01706059569740841,1009.294191494248
1.622168701171875,0.0990592169061303,0.0568413927711546,-0.0393126042127609,-0.0204050652682781,-0.0266374088823795,0.0309067834168672,0.1576477364925737,0.0850643009453524,2.3851696665335926,-17.921981811523438,-20.5880126953125,-31.46371459960937,-0.017140178521720867,1009.2942006857196
1.63223876953125,0.0018551263473927,0.0499180232487618,-0.0551309355914592,-0.0204194448888301,-0.0101947858929634,0.0152181033045053,0.1574891005923594,0.0847612858175404,2.3854359193826644,-17.725797653198242,-20.87561798095703,-31.435699462890625,-0.01721976134603332,1009.2942098771911
1.642308837890625,-0.0765563662622123,0.0621077888667583,-0.0787614020258188,-0.0120436260476708,0.0185827165842056,0.0025471709668636,0.1572953858651132,0.0847433134857595,2.3855396525600017,-17.780607223510742,-20.764366149902344,-31.1331787109375,-0.017299344170345777,1009.2942190686626
1.65237841796875,-0.118506990828365,0.0963883902616798,-0.0733592507213354,-0.0058496454730629,0.054034985601902,0.0003189044073224,0.1571731972931614,0.0851347015176522,2.3855430304398397,-17.806215286254883,-20.437576293945312,-31.617889404296875,-0.01737892313581641,1009.2942282596885
1.66244873046875,-0.0967420260049402,0.1101800381183624,-0.0304354702740907,-0.0001336159184575,0.0766002982854843,0.0045449519529938,0.157083083494723,0.0858707537959835,2.385546745087419,-17.588199615478516,-20.543426513671875,-31.94873046875,-0.01745850788954978,1009.2942374513829
1.672518798828125,-0.0164741649389266,0.1243565936394035,0.004785480710864,0.0055967085063457,0.0837676674127578,0.0199398882687091,0.157048157248097,0.0867632289548776,2.3856430142484384,-17.531858444213867,-20.761886596679688,-32.04693603515625,-0.017538090713862232,1009.2942466428544
1.682588623046875,0.0372968074109405,0.1071269341580569,0.0766658910512924,0.0157533902674913,0.0690671801567077,0.0399877093732357,0.1571231998500054,0.0876274151090005,2.3859082634429,-17.784835815429688,-20.59415435791016,-32.029571533203125,-0.017617671608753778,1009.2942558341031
1.69265771484375,0.0712202659312635,0.0936890681751072,0.110589203441143,0.0256278589367866,0.040942333638668,0.0511535443365573,0.1573270823581169,0.0881931786164561,2.386336599931816,-17.89225959777832,-20.50537109375,-31.999298095703125,-0.017697246715382593,1009.2942650246832
1.7027275390625,0.0585391365997493,0.0575200226850807,0.1829565205156803,0.0283783841878175,0.0140153430402278,0.0560824312269687,0.1576251032976504,0.0884260866968699,2.386857096368345,-17.82175064086914,-20.4356689453125,-31.958892822265625,-0.017776827610274135,1009.294274215932
1.712797607421875,0.0103789898689836,0.0336263752698898,0.2666583015531301,0.0141781438142061,-0.0229456033557653,0.0455128774046897,0.157861852109802,0.0882874199992395,2.3873619847381757,-17.765201568603516,-20.628990173339844,-32.030029296875,-0.017856410434586592,1009.2942834074034
1.722867919921875,-0.0422902317840605,0.0010907178461551,0.3022352263689041,-0.0082226432859897,-0.0536693930625915,0.0322499200701713,0.1578861276383952,0.0877600590436619,2.38776288165054,-17.57918930053711,-20.508071899414062,-32.131683349609375,-0.01793599518831996,1009.2942925990978
1.7329375,-0.0615122341264039,-0.0262196061447262,0.2940729627013206,-0.0395619198679924,-0.0740897133946418,0.0132253635674715,0.1575846908603701,0.0869874599671461,2.388040924533892,-17.780546188354492,-20.42938995361328,-31.99813842773437,-0.018015574153790594,1009.2943017901237
1.743007568359375,-0.1070578144446015,-0.0249944482639431,0.2027455090910196,-0.0615111589431762,-0.0722585394978523,-0.0074962051585316,0.1570004867260177,0.086147774583968,2.3881265087926518,-17.57206153869629,-20.343276977539062,-32.132354736328125,-0.01809515697810305,1009.2943109815952
1.753077880859375,-0.1296825379025191,0.0037248657420277,0.1105535476058721,-0.0573188140988349,-0.034599844366312,-0.0229145754128694,0.1563196244131362,0.085614392527108,2.3880273534186838,-17.627954483032227,-20.424102783203125,-32.0640869140625,-0.018174741731836416,1009.2943201732895
1.763147705078125,-0.0991844507209956,0.0412136155284941,0.023224808242917,-0.0435488149523735,0.0032069403678178,-0.034878809005022,0.1557254193432677,0.0855472715052441,2.387771501299352,-17.73469352722168,-20.438934326171875,-31.7225341796875,-0.01825432262672796,1009.2943293645383
1.773216552734375,-0.0617294570736587,0.0915248758785426,-0.0622024814128875,-0.0239780433475971,0.0441932529211044,-0.0295415688306093,0.1553272623067077,0.0858937246237309,2.3874497832601347,-17.616113662719727,-20.403076171875,-31.84393310546875,-0.01833389580393586,1009.2943385548956
1.78328662109375,0.0120144090510904,0.0860172183729708,-0.053531099179387,-0.0087918993085622,0.0776297748088836,-0.0199749618768692,0.155144906726074,0.086591709604267,2.3872001770867577,-17.92637062072754,-20.606658935546875,-31.705535888671875,-0.01841347862824832,1009.2943477463671
1.793356689453125,0.0562559940986335,0.0651699529163539,0.010507365489006,0.0040344167500734,0.0862895771861076,-0.0071001751348376,0.1551399851291804,0.0874961086461835,2.387053525174172,-17.63852882385254,-20.677780151367188,-31.6015625,-0.01849306145256077,1009.2943569378386
1.8034267578125,0.0717075379915535,0.0660858987174928,0.0730021078467369,0.0034156432375311,0.0723660215735435,0.0027742753736674,0.1552190697038472,0.0882993822298904,2.3870150828927774,-17.537809371948242,-20.57282257080078,-32.00244140625,-0.01857264427687323,1009.2943661293102
1.81349658203125,0.0972726988155394,0.0398182156473398,0.1151759467095136,0.0019130874425172,0.045408971607685,0.005242493469268,0.155303374124687,0.0888766263983286,2.387051761634884,-17.662994384765625,-20.346023559570312,-31.896240234375,-0.018652225171764774,1009.2943753205589
1.823566650390625,0.1154510373238474,-0.0024184593185782,0.1399608438760042,-0.00486945733428,-0.0006541111506521,0.0042153568938374,0.1553456925245589,0.0890403041685703,2.38711743511795,-17.931045532226562,-20.51129913330078,-31.892578125,-0.01873180799607723,1009.2943845120304
1.83363671875,0.1276444562036544,-0.0286021173670887,0.1210878011018037,-0.0167412962764501,-0.0574838370084762,0.0044816732406616,0.1552687656073828,0.0886750536204804,2.3871717045956258,-17.701732635498047,-20.479476928710938,-31.968780517578125,-0.018811390820389684,1009.2943937035019
1.843706787109375,0.1190004734337329,-0.0484296843871474,0.0594587356626987,-0.0280492696911096,-0.0880424305796623,-0.0008963458240032,0.1550293393299712,0.0878463782508043,2.387219687893092,-17.493467330932617,-20.50990295410156,-31.98617553710937,-0.01889097364470214,1009.2944028949735
1.853775634765625,0.0833512140341103,-0.0587036795116961,-0.0172112470418214,-0.0262593571096658,-0.0844623446464538,-0.0100397765636444,0.1546948375354906,0.0869153097458637,2.387191246896436,-17.65030860900879,-20.66161346435547,-32.19708251953125,-0.01897054682191004,1009.2944120853308
1.863845458984375,0.0687167586777359,-0.0009266133256256,-0.098645667669177,-0.0174428503960371,-0.0559531711041927,-0.0226790755987167,0.154403168564529,0.0862262224130652,2.3870428648659745,-17.73526954650879,-20.317047119140625,-31.819091796875,-0.019050127716801587,1009.2944212765794
1.873915771484375,0.0497035767804831,0.0532294858843088,-0.2033008048862218,-0.0071579869836568,-0.0194681286811828,-0.0334659442305564,0.1542165328413894,0.0859146633488126,2.3867611629896706,-17.76153564453125,-20.519065856933597,-31.801025390625,-0.019129712470534955,1009.2944304682738
1.88398583984375,0.0462293978638947,0.0764462569512426,-0.2886030068576335,-0.0032151658087968,0.0368627533316612,-0.0288851298391819,0.1541262736898187,0.0860873217405559,2.3864403782369994,-17.857376098632812,-20.66118621826172,-31.76156616210937,-0.019209295294847408,1009.2944396597453
1.8940556640625,0.0832752992536872,0.1066423655115067,-0.2682224821299314,-0.0031328741461038,0.0965433940291404,-0.0126699414104223,0.1540613364946314,0.0868835879236631,2.3862115543047557,-17.834692001342773,-20.647293090820312,-31.96493530273437,-0.019288876189738954,1009.2944488509941
1.904125732421875,0.1351255326740443,0.1158393790543079,-0.2212561482936143,-0.0018209479749202,0.130956694483757,0.0111647434532642,0.1540684592992075,0.0881314281917997,2.3861867134515897,-17.64320945739746,-20.5126953125,-32.15228271484375,-0.01936845901405141,1009.2944580424655
1.91419580078125,0.1621713605098426,0.1074710714206099,-0.1635860496133565,-0.0055807996541261,0.1176177114248275,0.0341821759939193,0.1540696291223515,0.0894531687227222,2.386408130697653,-17.412822723388672,-20.360145568847656,-31.978179931640625,-0.019448041838363867,1009.2944672339371
1.924265625,0.188005985924974,0.0630026918798685,-0.1152940201312303,-0.0016836738213896,0.0818501338362693,0.0508985444903373,0.1540978354320427,0.0904823243062998,2.386831339477928,-17.511459350585938,-20.463546752929688,-31.74041748046875,-0.019527622733255413,1009.2944764251857
1.934335693359375,0.1568026730835437,0.0010519932709634,-0.0881318724393844,0.0087098460644483,0.037132728844881,0.0543968752026557,0.1542212986942191,0.0910349272049473,2.3873746106198275,-17.776704788208008,-20.50434112548828,-32.097503662109375,-0.019607205557567866,1009.2944856166573
1.944404541015625,0.0784233291778713,-0.0433355761185288,-0.0933352863013744,0.0277624875307083,0.0009979144670069,0.0485821478068828,0.1544431534188329,0.0911279314127835,2.3878826195081064,-17.478673934936523,-20.37279510498047,-32.365142822265625,-0.01968677873477577,1009.2944948070146
1.954474609375,0.014313772034645,-0.0620623422898352,-0.0579664512783288,0.0409118458628654,-0.0125437267124652,0.0286891348659992,0.1547806196284888,0.0909998706154185,2.388260193186282,-17.41107749938965,-20.485389709472656,-32.608367919921875,-0.019766361559088223,1009.2945039984862
1.964544921875,-0.0450829312425106,-0.0197933724895119,-0.0214133749067783,0.0378160215914249,-0.0328305438160896,-0.0052401386201381,0.1551122835219847,0.0907244715328491,2.388341756284301,-17.446964263916016,-20.65400695800781,-32.120880126953125,-0.01984594631282159,1009.2945131901805
1.97461474609375,-0.0704717125862836,-0.0342573666498065,0.0022504092752933,0.0277894865721464,-0.0122269978746771,-0.0267041511833667,0.1553337403953067,0.0904898494572332,2.3881346768448912,-17.401636123657227,-20.690216064453125,-32.0089111328125,-0.019925527207713137,1009.2945223814293
1.9846845703125,-0.0383729852750897,-0.0718789490357041,0.0771516287416219,0.0039966627955436,0.0273126922547817,-0.027395000681281,0.1553736218656348,0.0906686175044055,2.387816119509917,-17.50697898864746,-20.46031188964844,-31.846435546875,-0.020005108102604682,1009.2945315726779
1.994754638671875,-0.0136263742923736,-0.0464455248326063,0.1145394023716449,-0.0047395713627338,0.0511567704379558,-0.0214806534349918,0.1552650052874664,0.0912195408396449,2.387563055438389,-17.485065460205078,-20.60913848876953,-31.865509033203125,-0.02008469092691714,1009.2945407641495
2.00482470703125,0.0321755188744515,0.0027355624437332,0.110755207657814,-0.0080971028655767,0.0478234738111496,-0.0153414132073521,0.1551208827481945,0.0918520325249519,2.387372878034416,-17.512950897216797,-20.52423858642578,-32.185546875,-0.020164273751229596,1009.2945499556209
2.014894775390625,0.0625751141175627,0.0071519175812602,0.1343956109642982,0.0051667718216776,0.0422414913773536,-0.0142015805467963,0.1550824878678438,0.0924229411280379,2.3872151414336487,-17.72829246520996,-20.62732696533203,-32.1251220703125,-0.02024385657554205,1009.2945591470925
2.024964599609375,0.1324224111951887,-0.0241788940973579,0.1831803923994302,0.0152576407417654,0.0015076058916747,-0.0100843962281942,0.1552001971059107,0.0927228234468122,2.387071256360418,-17.5524959564209,-20.53926086425781,-32.24676513671875,-0.020323437470433595,1009.2945683383412
2.03503369140625,0.1885044369664043,-0.0265200503960251,0.1810042174041271,0.0200502648949623,-0.0534778796136379,-0.0066425269469618,0.1554064626525548,0.0924654610209098,2.386970470384796,-17.662229537963867,-20.50188446044922,-32.254669189453125,-0.020403012577062406,1009.2945775289213
2.045103515625,0.1766303862340748,-0.0248757903203368,0.1983130796015262,0.0129841398447752,-0.0830012336373329,-0.0085228905081748,0.1555761725184208,0.0917288521581905,2.386896887136689,-17.610313415527344,-20.4996337890625,-32.17279052734375,-0.020482593471953952,1009.2945867201701
2.055173828125,0.1331273445941507,-0.033890871424973,0.2321300090074539,-0.0079682804644107,-0.0929199084639549,-0.015805572271347,0.1556187014436718,0.0908100745832751,2.386788881197825,-17.65472412109375,-20.373764038085938,-32.049407958984375,-0.020562178225687316,1009.2945959118645
2.065243896484375,0.082094126645103,-0.0218584883257746,0.1893213793724775,-0.0287425778806209,-0.0877918973565101,-0.0330277532339096,0.1554551503298712,0.0899089651384868,2.38656246071961,-17.663400650024414,-20.386276245117188,-32.182159423828125,-0.020641761049999773,1009.2946051033359
2.0753134765625,0.075815630897507,0.0072451488226652,0.1121317567080259,-0.0359805151820182,-0.0498581007122993,-0.0427869036793708,0.1551229916072522,0.0892523525508439,2.3862018208214884,-17.47310447692871,-20.488319396972656,-31.976959228515625,-0.020721340015470407,1009.2946142943617
2.0853837890625,0.0970122212484478,0.0269189865857362,0.0951186625868082,-0.0265429858118295,0.001015274785459,-0.0421412512660026,0.154775141941806,0.0891133275065241,2.385789552801509,-17.540374755859375,-20.5662841796875,-31.911651611328125,-0.020800924769203775,1009.2946234860561
2.095453857421875,0.1628975558925419,0.0760889679461717,0.0641951165348291,-0.0151108335703611,0.0130791272968053,-0.0283809676766395,0.1545217799930333,0.0893222257985626,2.3854202123130337,-17.49854278564453,-20.38740539550781,-32.35797119140625,-0.02088050759351623,1009.2946326775277
2.105523681640625,0.2680141000762581,0.0767442169845104,0.0581833088994026,-0.0079942988231778,0.0019584982655942,-0.0004269573837518,0.1544195187857189,0.0895305025902472,2.385268643124183,-17.524362564086914,-20.625457763671875,-32.115997314453125,-0.020960088488407774,1009.2946418687764
