Timestamp,Acc x (m/s^2),Acc y (m/s^2),Acc z (m/s^2),Gyro x (rad/s),Gyro y (rad/s),Gyro z (rad/s),Beccheggio/Pitch (rad/s),Rollio/Roll (rad/s),Imbardata/Yaw (rad/s),Mag x (microTesla),Mag y (microTesla),Mag z (microTesla),Altitudine (m),Pressione (milliBar)
0.021987548828125,-0.6521987839225679,-0.351440717434138,-0.5134586409479379,0.2558818161487579,0.0110695529729127,0.3542194366455078,0.104121562245961,0.084473413567844,2.253915778433731,-14.002921104431152,-18.568389892578125,-33.176971435546875,-0.008799560686705272,1014.5486695093898
0.0320595703125,-0.5883323148202151,-0.2694355111815035,-0.453026676338911,0.2904112935066223,-0.0195139292627573,0.3097074031829834,0.1071601270695155,0.084149430216659,2.2570368536682954,-14.021674156188965,-18.507164001464844,-33.05419921875,-0.00895866232881083,1014.5486878849404
0.04213134765625,-0.4430374895051121,-0.2861560520969331,-0.4191144698649645,0.3147941529750824,-0.1014769673347473,0.2697101831436157,0.1104489198589155,0.0832402932793155,2.2596979553373373,-14.150397300720217,-18.87924575805664,-33.162811279296875,-0.009117760114374348,1014.5487062600455
0.052202392578125,-0.3561407848838716,-0.3203444451637566,-0.3661526950061321,0.3226821422576904,-0.1331402510404586,0.2432417273521423,0.1138658556591729,0.0817665578665477,2.2620195866296786,-14.429911613464355,-19.5756950378418,-32.958526611328125,-0.009276846330311722,1014.5487246338145
0.0622744140625,-0.3736097330138087,-0.2426105595547705,-0.2260217552602291,0.3213396370410919,-0.1391078531742096,0.2167954593896865,0.1173141861276006,0.080161418171676,2.2640806609854507,-14.55376148223877,-19.792314529418945,-32.755462646484375,-0.009435947972417284,1014.548743009365
0.072346435546875,-0.42300906615071,-0.0725520990569144,-0.1568383289188146,0.311444342136383,-0.1350203305482864,0.1940624713897705,0.1206561257532402,0.078561050781061,2.265897302760146,-14.827645301818848,-19.698217391967773,-32.85443115234375,-0.009595049614522845,1014.5487613849156
0.08241748046875,-0.4338688252739608,0.0475677337955683,-0.1389998898893594,0.3024172782897949,-0.139274463057518,0.169119045138359,0.123880549060567,0.0769970686784249,2.2674859557304066,-14.875773429870604,-19.564971923828125,-33.00347900390625,-0.00975413583046022,1014.5487797586845
0.092489501953125,-0.4201333645839243,0.1405238845862448,-0.1566746627897024,0.2928294241428375,-0.1578547656536102,0.155476838350296,0.126990437327729,0.0753181122016598,2.268883064429477,-14.732159614562988,-20.01563835144043,-32.615753173828125,-0.009913237472565782,1014.5487981342351
0.1025615234375,-0.4255081164248287,0.22267697487697,-0.1817833850830793,0.2914248704910278,-0.1599871665239334,0.1481392979621887,0.1300216147296325,0.0735409289462974,2.2701921769257765,-14.755898475646973,-20.018009185791016,-32.12310791015625,-0.010072339114671343,1014.5488165097856
0.112633544921875,-0.4814759412318468,0.2936316486746073,-0.1871627400338649,0.2882059812545776,-0.1358009725809097,0.1366479992866516,0.1330257232108521,0.0718880774323404,2.271416938519807,-15.119956016540527,-20.21002960205078,-32.14105224609375,-0.010231440756776903,1014.5488348853363
0.12270458984375,-0.5442044923454523,0.3860224937327206,-0.1763292113304138,0.2982354462146759,-0.0969648882746696,0.1159421876072883,0.1360657566858751,0.0705775581049428,2.2724862548118496,-15.081772804260254,-20.300682067871094,-32.1959228515625,-0.01039052697271428,1014.5488532591052
0.132776611328125,-0.5775322499949485,0.4572735201284289,-0.1869464669346809,0.3206963241100311,-0.0373654402792453,0.0929645374417305,0.1392569017280161,0.0697704453385336,2.2733300258246745,-14.892395973205566,-20.0986442565918,-32.25396728515625,-0.010549628614819841,1014.5488716346557
0.1428486328125,-0.5795021618284285,0.4981279469557106,-0.0924544118136167,0.3339884281158447,0.0462769940495491,0.0816418379545211,0.142601584996517,0.0697289041703943,2.273969239298467,-15.094826698303224,-20.251502990722656,-32.2398681640625,-0.010708730256925399,1014.5488900102064
0.15291943359375,-0.5882744471531361,0.5412072102256119,0.0958282721608877,0.3358832895755768,0.1250377148389816,0.076774463057518,0.1460229282921417,0.0705154032841001,2.274529193430149,-15.16906452178955,-20.52029228210449,-32.494873046875,-0.01086781261632073,1014.5489083835298
0.162991455078125,-0.5834617861744016,0.5636882143639028,0.2814695017158985,0.3228729665279388,0.1870446354150772,0.0729086175560951,0.1493896100185683,0.072033402456837,2.275049212861354,-14.993815422058104,-20.331632614135746,-32.13531494140625,-0.011026914258426291,1014.5489267590805
0.1730634765625,-0.5340161296777427,0.5440116001218557,0.4825947161287069,0.3057136535644531,0.2137882262468338,0.0710049048066139,0.1525923204874477,0.07402771145342,2.2755453353705124,-15.000569343566896,-20.541013717651367,-32.158203125,-0.011186015900531853,1014.548945134631
0.183134521484375,-0.5018979670137167,0.5199651002325117,0.6566355242609977,0.2877216041088104,0.2205784916877746,0.0635198280215263,0.1556390273434325,0.0761594430532891,2.275993446777717,-14.899161338806152,-20.690290451049805,-31.87969970703125,-0.01134510211646923,1014.5489635083999
0.19320654296875,-0.4987118112582713,0.5113391645759344,0.8601689688593148,0.2535472512245178,0.208539992570877,0.0521252118051052,0.1584098347354569,0.078265178074425,2.2763583474287765,-14.882044792175291,-20.69109916687012,-32.17333984375,-0.01150420375857479,1014.5489818839505
0.203278564453125,-0.4550609586454928,0.4992959678217768,1.0423486597836018,0.1999452710151672,0.1647051572799682,0.0416294261813163,0.1607206554893327,0.0801286316434197,2.2766525011143464,-14.894082069396973,-20.94849967956543,-32.264495849609375,-0.01166330540068035,1014.5490002595011
0.213349609375,-0.3665331456910818,0.4458158681772649,1.1039859085291623,0.1494685113430023,0.0765930116176605,0.0330022349953651,0.1625079008637261,0.0813370033845058,2.2768738038654988,-14.73144245147705,-21.008277893066406,-32.169586181640625,-0.011822391616617727,1014.54901863327
0.223421630859375,-0.3010878098994493,0.3415504609301686,1.088158224800229,0.100108690559864,-0.0203109011054039,0.0229490678757429,0.1637792734902365,0.0815812591287625,2.277058843015873,-14.583090782165527,-20.66275978088379,-31.951629638671875,-0.011981493258723287,1014.5490370088206
0.23349365234375,-0.282051904713735,0.2635673498004675,1.0183370850771665,0.0661402344703674,-0.1023915708065033,0.0111500611528754,0.1646276752314674,0.0809221057862832,2.2771857561189144,-14.630541801452637,-21.07955741882324,-32.11212158203125,-0.012140594900828848,1014.5490553843712
0.243565673828125,-0.3007467413768172,0.2349744386531412,0.8876672166377305,0.0457047373056411,-0.1599568575620651,-0.0004400154575705,0.1651987708385963,0.0795941301859115,2.277217227791503,-14.590472221374512,-20.98594284057617,-31.9990234375,-0.012299696542934408,1014.5490737599217
0.25363671875,-0.3129962012927979,0.2039956552825868,0.7107102287977933,0.0201663225889205,-0.2298065423965454,-0.010076867416501,0.1655232233068824,0.0776409998167887,2.2771418333322555,-14.777235984802246,-21.04104995727539,-31.959869384765625,-0.012458782758871786,1014.5490921336907
0.26370849609375,-0.2989094429470598,0.145653210298717,0.5094190101683139,-0.0066519742831587,-0.2663352489471435,-0.0170615389943122,0.1655713270316042,0.0751414551092422,2.276986550376208,-15.05836009979248,-21.32331275939941,-31.873291015625,-0.0126178805444353,1014.5491105087958
0.273780517578125,-0.3172355924282223,0.0996802714139223,0.3564695053815842,-0.0191841796040534,-0.2443641275167465,-0.0196200255304574,0.1654285679828815,0.0725564093727225,2.276809320213434,-15.173991203308104,-21.162677764892575,-31.85101318359375,-0.012776982186540862,1014.5491288843464
0.2838515625,-0.3655860740993171,0.1213182488568127,0.2658674434363842,-0.0436303988099098,-0.193048745393753,-0.0207036659121513,0.1650975579405,0.0703984929491545,2.2766246699023704,-15.13428783416748,-20.94863510131836,-31.889404296875,-0.012936068402478237,1014.5491472581153
0.293923828125,-0.3710691816855221,0.145245652411133,0.150168349635601,-0.0631412640213966,-0.1498043537139892,-0.0211691614240407,0.1645237010375992,0.0686961590211254,2.276449620881016,-15.108162879943848,-20.969890594482425,-31.621490478515625,-0.013095173901125844,1014.5491656341113
0.30399560546875,-0.3273988206546753,0.1072498298853635,0.0196592247158288,-0.0704961121082305,-0.0987837761640548,-0.0104856239631772,0.1638289656290575,0.0674660732798758,2.2763388219036145,-15.208653450012209,-21.134418487548828,-31.68914794921875,-0.013254271686689358,1014.5491840092164
0.31406640625,-0.2684947232000529,0.0498749147593975,-0.0599608399659395,-0.0674248486757278,-0.0642934143543243,-0.0036466273013502,0.1631264435622973,0.0666732953656903,2.2763152677043315,-15.125868797302246,-21.121273040771484,-31.482086181640625,-0.013413354046084689,1014.54920238254
0.324138671875,-0.2392294657491147,0.0160291976504027,-0.1784960339754819,-0.046911846846342,-0.0619783326983451,-0.0094099743291735,0.1625359731567845,0.0660690425895328,2.2763038947594687,-15.124312400817873,-21.016908645629883,-31.59649658203125,-0.013572459544732296,1014.549220758536
0.334210693359375,-0.213791219240427,-0.0099298578619956,-0.2534358318865299,-0.0202897619456052,-0.0592764765024185,-0.0206670463085174,0.1621884063832709,0.0654764806102139,2.276169445452904,-14.972039222717283,-20.85609245300293,-31.319091796875,-0.013731561186837857,1014.5492391340865
0.344281494140625,-0.1910541945144534,-0.0473762298114597,-0.2263157697707414,0.0030555073171854,-0.0563762970268726,-0.0325990691781044,0.1620918172894548,0.0649494460626292,2.2758934904031163,-15.028265953063965,-21.00360107421875,-31.43902587890625,-0.013890643546233188,1014.5492575074101
0.354353515625,-0.153273987500742,-0.0965469418242573,-0.2032493669599294,0.0252064503729343,-0.0691160261631012,-0.0298863649368286,0.1622062641145026,0.0643854682868943,2.275566330853485,-15.020737648010254,-21.229829788208008,-31.5633544921875,-0.01404974518833875,1014.5492758829606
0.36442529296875,-0.1412247993972152,-0.129923726247251,-0.2080430309772491,0.041725505143404,-0.0924756750464439,-0.0308102145791053,0.1625147178096355,0.0636059226125362,2.2752343052241453,-15.258273124694824,-20.948719024658203,-31.6590576171875,-0.014208842973902264,1014.5492942580659
0.374496337890625,-0.1262770768405869,-0.1655430289000272,-0.2249602635085582,0.0592146217823028,-0.1155417710542678,-0.0413859710097312,0.1629934853576175,0.0626209353929224,2.2748453988592936,-15.213934898376465,-21.13284683227539,-31.445770263671875,-0.014367929189839639,1014.5493126318347
0.384568359375,-0.1254733227096497,-0.1923411655850708,-0.2172995196223258,0.0675878599286079,-0.1273510307073593,-0.0565385594964027,0.1635952733680108,0.0614747687205799,2.274306846505169,-15.284790992736816,-21.058124542236328,-31.389129638671875,-0.0145270308319452,1014.5493310073854
0.394640625,-0.1699957705251872,-0.2037038327291607,-0.1873772595673799,0.0648097693920135,-0.122597649693489,-0.0739882662892341,0.1642149124805013,0.0603116911937903,2.273604465821636,-15.53773021697998,-21.335180282592773,-31.43930053710937,-0.014686136330592806,1014.5493493833814
0.404711669921875,-0.1988777277469635,-0.1883417206853628,-0.1494558174520731,0.0517562851309776,-0.1169378980994224,-0.0890644192695617,0.1647510569343756,0.0592325583665835,2.272745504841684,-15.46956729888916,-21.21207618713379,-31.67938232421875,-0.014845222546530184,1014.5493677571502
0.41478369140625,-0.2006765207972377,-0.1570978566378355,-0.1318704764008522,0.0404087826609611,-0.1120770946145057,-0.1087688729166984,0.1651501058461715,0.058229580022391,2.271708052058472,-15.572470664978027,-21.325584411621094,-31.29144287109375,-0.015004324188635745,1014.5493861327009
0.42485546875,-0.1700047940818592,-0.1392882053114473,-0.1748410185992717,0.0343458317220211,-0.0879773497581482,-0.1280887722969055,0.1654597853390025,0.05738072522686,2.2704778943060253,-15.394835472106934,-21.50380516052246,-30.9766845703125,-0.01516342197419926,1014.549404507806
0.434927490234375,-0.1570722107399255,-0.1322520230643451,-0.1332335814476013,0.0270586479455232,-0.0398853495717048,-0.1403833627700805,0.1656921755551394,0.056957967293325,2.2690751670256684,-15.413485527038574,-21.45406723022461,-31.24151611328125,-0.01532252361630482,1014.5494228833566
0.44499853515625,-0.1613722094887867,-0.1119789042338728,-0.099701314201951,0.0200513377785682,0.0011065583676099,-0.143299251794815,0.1658543153862182,0.0570019095914335,2.267616812905625,-15.64512538909912,-21.31201934814453,-30.879852294921875,-0.015481609832242196,1014.5494412571255
0.455070556640625,-0.12217059136983,-0.0630447774559259,-0.0952127706110477,0.0251558274030685,0.033249594271183,-0.1473211944103241,0.1659938496046175,0.0574065184078565,2.2661187250823804,-15.316483497619627,-21.390378952026367,-31.06671142578125,-0.015640711474347757,1014.5494596326761
0.465142333984375,-0.0772920966582372,-0.0711485889345407,-0.0902899272561073,0.036077182739973,0.052577219903469,-0.1566095054149627,0.1662235055649546,0.0581074650457654,2.2645593383150344,-15.338177680969238,-21.281635284423828,-31.036529541015625,-0.015799809259911275,1014.5494780077812
0.47521337890625,-0.0379805518914014,-0.0795113436102867,-0.0651683454811573,0.053475871682167,0.0576836727559566,-0.155237004160881,0.1665965794024733,0.0589215454308129,2.262954437692125,-15.375441551208496,-21.340524673461918,-30.962860107421875,-0.015958498655762873,1014.5494963357191
0.485285400390625,-0.0051551177408546,-0.0447455890469253,-0.0076689271926879,0.0672526657581329,0.0442283190786838,-0.1592767536640167,0.1671278577470483,0.059696236384411,2.2613133814489683,-15.458418846130373,-21.41487693786621,-30.576324462890625,-0.016116999092850488,1014.5495146418332
0.495357666015625,0.0300121302954852,-0.0248956640645861,0.0549631778091192,0.082763984799385,0.0181856602430343,-0.1667576879262924,0.1677879121564732,0.0602762962816385,2.259603485777489,-15.270155906677246,-21.309009552001957,-31.0916748046875,-0.016275503371907245,1014.549532948391
0.5054287109375,0.0785566367013379,0.0008953414045274,0.0768143596112728,0.0972947254776954,-0.0157864205539226,-0.1678368002176284,0.1685982582381617,0.0605573052999106,2.2578520261307413,-15.337916374206545,-21.43408203125,-30.906768798828125,-0.016433988441118277,1014.54955125273
0.515500732421875,0.1242246378228068,-0.0019341829329729,0.1061731405645608,0.0963094979524612,-0.0387931168079376,-0.1660730838775634,0.1694974686087355,0.0605326346016073,2.2560879125862674,-15.242289543151855,-21.36543083190918,-30.97177124023437,-0.016592488878205892,1014.549569558844
0.525572509765625,0.1577781670521944,-0.018496172285825,0.1596376042485237,0.0918265879154205,-0.0471256151795387,-0.1618543714284896,0.1703539123754336,0.0603363015071207,2.2543639615859377,-15.144686698913574,-21.48726463317871,-31.1649169921875,-0.016750985473324362,1014.5495878645143
0.5356435546875,0.1810577011570334,0.0003919219270348,0.205693252980709,0.0733971074223518,-0.0496330857276916,-0.1560277938842773,0.1710851452435335,0.0601023413404562,2.252699055408492,-15.188942909240724,-21.48851585388184,-30.97885131835937,-0.016909470542535394,1014.5496061688533
0.545715576171875,0.1793727802773937,0.0098379417948424,0.2080389393240213,0.0538918487727642,-0.0360789261758327,-0.145883023738861,0.1716290978101035,0.0599103498970492,2.251114862975969,-15.398518562316896,-21.610410690307617,-30.98187255859375,-0.01706797097962301,1014.5496244749673
0.55578759765625,0.1781259950866922,0.0129322545483708,0.2061345670074224,0.0281971618533134,-0.0109816407784819,-0.1358231306076049,0.1719648259267897,0.0599034861955065,2.2496608872047297,-15.03784465789795,-21.65775489807129,-30.930206298828125,-0.01722647141671062,1014.5496427810814
0.565858642578125,0.1822877544086426,0.0192125038616359,0.1800175444543361,0.0206899773329496,0.0157921835780143,-0.1302608549594879,0.172103743362715,0.0601560903972282,2.2482967743029656,-14.88490390777588,-21.681774139404297,-31.263214111328125,-0.017384956485921654,1014.5496610854204
0.575930419921875,0.1850795770842581,0.042893093048036,0.1170148525744676,0.0197984483093023,0.0280015412718057,-0.1310438960790634,0.1722160633016118,0.0606125546401269,2.2469346480151566,-14.901150703430176,-21.702354431152344,-31.152313232421875,-0.017543453081040123,1014.5496793910908
0.58600244140625,0.204693026429601,0.0408281233422458,0.0828057089805602,0.0258475542068481,0.0270523894578218,-0.126083493232727,0.1723585785073579,0.0611249879117587,2.245589837540633,-14.918665885925291,-21.66009330749512,-31.1492919921875,-0.017701953518127738,1014.5496976972047
0.596073486328125,0.2413557006554678,0.037323330091685,0.0713064098447561,0.0442526638507843,0.0143788317218422,-0.1242535337805748,0.1726308321271737,0.0615777694774973,2.244292237562621,-14.769692420959473,-21.58050537109375,-31.37469482421875,-0.017860438587338767,1014.5497160015439
0.606145751953125,0.2799366661254316,0.0406100966773927,0.0408504813045263,0.0528882294893264,-0.0239581689238548,-0.1249970868229866,0.1730485114931427,0.0617866724132842,2.242986040123166,-14.735676765441896,-21.65006256103516,-31.15191650390625,-0.018018942866395528,1014.5497343081015
0.6162177734375,0.330723727293685,0.0558154107242822,-0.0020803134053945,0.0439364090561866,-0.0593930333852767,-0.1270521134138107,0.1734607593685854,0.061598666967349,2.241667360568384,-14.67843532562256,-21.77585220336914,-31.25408935546875,-0.018177443303483143,1014.5497526142155
0.62628857421875,0.3469057043530046,0.0433984122216701,0.0240641816765069,0.0328733697533607,-0.0542488731443882,-0.1255519539117813,0.1737709186829737,0.0612894044689143,2.240343403800433,-14.773955345153809,-21.87729263305664,-31.370269775390625,-0.01833592453072503,1014.5497709181109
0.636360595703125,0.3254585367744788,0.0569262945756316,0.0472509959965944,0.0172948110848665,-0.045346975326538,-0.1227095425128936,0.1739475942780301,0.0610480494122687,2.239065160396499,-14.660685539245604,-21.86376571655273,-31.38934326171875,-0.018494424967812645,1014.5497892242249
0.6464326171875,0.3043168184159323,0.0887920899137854,0.0019815292060375,-0.0050389906391501,-0.0184141620993614,-0.1143815740942955,0.1739313743566709,0.0609747027158515,2.2378473079774635,-14.61600399017334,-22.080997467041016,-31.73944091796875,-0.018652925404900256,1014.5498075303389
0.65650341796875,0.2919247716914862,0.092661770953983,-0.0172346279174089,-0.0225126557052135,0.0164786446839571,-0.1054414063692092,0.1737123252889119,0.0612022804419603,2.2367305773744537,-14.464032173156738,-21.956737518310547,-31.48495483398437,-0.018811406632142143,1014.5498258342343
0.666575439453125,0.2959645851342007,0.0849976660668849,-0.0365495692402124,-0.0338095165789127,0.04247722402215,-0.0896219611167907,0.1733526441759381,0.0617416629547606,2.235746962103613,-14.819966316223145,-22.03204917907715,-31.01959228515625,-0.01896990706922976,1014.5498441403482
0.6766474609375,0.3118424281477928,0.0749438895642757,-0.0929670375108718,-0.0356565490365028,0.0574418827891349,-0.0759134292602539,0.172931499781326,0.0624338120044353,2.234915619901172,-14.878642082214355,-22.251707077026367,-30.8526611328125,-0.01912840750631737,1014.5498624464623
0.686718505859375,0.3239145587354898,0.0851527104981243,-0.124332482111454,-0.0353960916399955,0.071787528693676,-0.0642511844635009,0.1725167591091397,0.0632413293994655,2.2342098709696123,-14.677206993103027,-22.022974014282227,-31.2330322265625,-0.019286892575528406,1014.5498807508013
0.696790283203125,0.3022061464048922,0.0821257638923823,-0.1267062255054712,-0.0287304632365703,0.0924438685178756,-0.0506210178136825,0.1721415061536706,0.0642315601069457,2.2336303442446788,-14.662482261657717,-22.118547439575195,-31.325347900390625,-0.019445389170646872,1014.5498990564716
0.706862548828125,0.2496379009082913,0.0796329241633415,-0.1310305184453725,-0.0133594945073127,0.1000634431838989,-0.0407982170581817,0.1718989703304167,0.065335439390061,2.2331685870202818,-14.457829475402832,-22.14337921142578,-31.2769775390625,-0.019603893449703633,1014.5499173630294
0.716933837890625,0.2244728453177958,0.0662025108344852,-0.1193015022069215,-0.0026860833168029,0.1050280183553695,-0.0394723713397979,0.1717789128801069,0.0665008145809572,2.2327560568273443,-14.524888038635254,-21.97467803955078,-31.11532592773437,-0.01976238236088381,1014.5499356678122
0.727005859375,0.2323619911324232,0.0307885214954614,-0.0889320829063654,0.0128404106944799,0.0987413600087165,-0.0316171124577522,0.1717840972524515,0.067653795000161,2.232387004038344,-14.30250072479248,-22.208372116088867,-31.1446533203125,-0.019920882797971426,1014.5499539739262
0.73707763671875,0.2072156402423977,0.000430792632699,-0.0462327588647603,0.022445498034358,0.068120963871479,-0.0290823932737112,0.1719099219882334,0.0686184533945022,2.23205557805214,-14.143582344055176,-22.0262393951416,-31.56317138671875,-0.020079379393089895,1014.5499722795964
0.7471484375,0.1886753365539014,-0.0222413501635193,0.0004752162963151,0.0236721504479646,0.0318361893296241,-0.0297753475606441,0.1721033120484197,0.0692246849322498,2.231733503321755,-14.21180248260498,-21.9683895111084,-31.465118408203125,-0.020237860620331782,1014.5499905834918
0.757220458984375,0.1903008919291198,-0.0540051464319229,0.0100531919807195,0.0133623844012618,0.0008128769695758,-0.0330804213881492,0.1722694716004726,0.0694772170401373,2.2314049119017145,-14.21105670928955,-21.831127166748047,-31.28729248046875,-0.020396361057419394,1014.5500088896058
0.76729248046875,0.165769604197517,-0.082862115342915,0.0376128145575523,0.0040101623162627,-0.008265838958323,-0.0303469523787498,0.1723183200064335,0.0695389523792854,2.231064150981189,-14.294177055358888,-21.90372085571289,-31.23785400390625,-0.02055486149450701,1014.5500271957198
0.777363525390625,0.1048187302809208,-0.0955439022615552,0.0407207174450159,-0.0060987882316112,-0.014561453834176,-0.026903111487627,0.1722602505772125,0.069512210475101,2.230759034684595,-14.13112735748291,-21.90612030029297,-30.94003295898437,-0.02071334656371804,1014.5500455000589
0.787435546875,0.0635850948777049,-0.0740983786508441,0.032577742999792,-0.0097782127559185,-0.0145779643207788,-0.0239853523671627,0.1721412382257628,0.0694573196469943,2.230495164000472,-13.94975757598877,-21.976205825805664,-31.1285400390625,-0.020871847000805653,1014.550063806173
0.797507568359375,0.0639063627213239,-0.0883460997119545,-0.021561258944869,0.0016338294371962,-0.0124666579067707,-0.020280834287405,0.1720604613491111,0.0693919493671653,2.2302730534202406,-14.166834831237791,-22.12233161926269,-30.858917236328125,-0.021030347437893268,1014.5500821122869
0.80757861328125,0.0485258382380008,-0.1146441779203712,-0.0739303286075592,0.0182093437761068,-0.0006547402590513,-0.0198901481926441,0.1721418536895354,0.0694051323666136,2.2300569802624763,-14.26148509979248,-22.23067092895508,-31.10540771484375,-0.0211888325071043,1014.550100416626
0.817650634765625,0.0095138244070112,-0.1376069742262363,-0.080422613236308,0.0359502658247947,0.0105503378435969,-0.029005205258727,0.1723826122515657,0.0695587960804463,2.229789342812828,-14.187886238098145,-22.224271774291992,-31.0289306640625,-0.021347332944191916,1014.55011872274
0.82772265625,-0.0348614700227975,-0.1345790047071874,-0.0655143824398517,0.0618684142827987,0.0182492695748806,-0.0387430526316165,0.1728509145010202,0.0698059607420719,2.2293986290014307,-14.40023708343506,-22.13682556152344,-31.234619140625,-0.02150583338127953,1014.550137028854
0.837793701171875,-0.0447480001997202,-0.1284738196998834,-0.0288712896972894,0.0808474346995353,0.0144226942211389,-0.0502698794007301,0.1735448944296133,0.0700950705504872,2.2288908582005345,-13.99149227142334,-22.176362991333008,-31.157958984375,-0.021664318450490563,1014.5501553331931
0.84786572265625,-0.0268851573813706,-0.1135528755523264,-0.00716156219244,0.1004195362329483,-0.0104501647874712,-0.0605230517685413,0.1744390332114613,0.070271144622261,2.2282458333904698,-14.25829029083252,-22.120744705200195,-31.118865966796875,-0.02182281888757818,1014.5501736393071
0.857936767578125,0.0287874838713556,-0.1282987553939223,0.031921324917674,0.0939593613147735,-0.035841416567564,-0.071255937218666,0.1754223061707208,0.0701893909850718,2.227490501178888,-14.291050910949709,-22.291894912719727,-31.3017578125,-0.02198130395678921,1014.5501919436462
0.868008544921875,0.0623947891145944,-0.1548703898467123,0.0985270097255706,0.0669775530695915,-0.0369048193097114,-0.0862873494625091,0.1762038051448452,0.0699569164067946,2.2266301181431194,-14.316845893859863,-22.22868537902832,-31.08383178710937,-0.022139800551907677,1014.5502102493165
0.87808056640625,0.0898754281710833,-0.1396972245037555,0.1663017383128404,0.0411819033324718,-0.0209496729075908,-0.0991590768098831,0.1766904568799185,0.0698441484833417,2.2256358242966003,-14.258200645446776,-22.31155776977539,-31.27035522460937,-0.022298300988995292,1014.5502285554304
0.888151611328125,0.1317939770985394,-0.1054435111157596,0.1928811176806688,0.0103177297860383,-0.0147429099306464,-0.0985332354903221,0.1768905988868744,0.0698601235351509,2.224591740607619,-14.276440620422363,-22.23990249633789,-31.114044189453125,-0.022456786058206325,1014.5502468597696
0.8982236328125,0.1702948265369981,-0.0775349289707839,0.1409054312497377,-0.013569489121437,-0.0059037827886641,-0.0927500426769256,0.1768054641474795,0.0699321781435418,2.223612292413064,-13.891800880432127,-22.212465286254883,-31.1793212890625,-0.022615286495293936,1014.5502651658835
0.908295654296875,0.2299679356027394,-0.0469349157847464,0.0979249521791934,-0.0168715417385101,0.0022859699092805,-0.0876061469316482,0.1765961263703594,0.0700727611614181,2.222685855480812,-13.986796379089355,-22.5020751953125,-31.032989501953125,-0.02277378693238155,1014.5502834719975
0.91836669921875,0.2691854088779539,-0.0429179352283477,0.0123766664922237,-0.00601417850703,0.0015171058475971,-0.0749035775661468,0.1764232327233698,0.0702246807606318,2.221859010144761,-14.173762321472168,-22.407543182373047,-31.184539794921875,-0.022932272001592584,1014.5503017763366
0.928438720703125,0.2883436983343214,-0.0015595044016838,-0.0457715710937976,0.0164996515959501,-0.0104807019233703,-0.062192041426897,0.1764447693945987,0.070302147045573,2.221152721861596,-14.2993803024292,-22.43122291564941,-31.16366577148437,-0.0230907724386802,1014.5503200824506
0.9385107421875,0.2754562327757477,0.0424663920685648,-0.1040489880174398,0.0544295459985733,-0.024930790066719,-0.0555989257991313,0.1767736458958786,0.0702305283571661,2.2205361449216423,-14.233101844787598,-22.485185623168945,-31.07382202148437,-0.023249272875767814,1014.5503383885647
0.948581787109375,0.2796731198184192,0.0739136697337031,-0.1475777486205101,0.1002247259020805,-0.0376266129314899,-0.0492656640708446,0.1775356384423045,0.0700352903165722,2.219942589270305,-14.204424858093262,-22.363449096679688,-31.47509765625,-0.023407757944978846,1014.5503566929037
0.95865380859375,0.2846056808497756,0.0951779915586113,-0.1475496915698051,0.143692746758461,-0.0480025969445705,-0.0405332185328006,0.1787621043845565,0.0697249292328048,2.2193906991771533,-14.155436515808104,-22.4677848815918,-31.21893310546875,-0.02356625838206646,1014.5503749990178
0.9687255859375,0.3021202947523445,0.1088410445995628,-0.1106570079803466,0.1666260212659835,-0.0705150961875915,-0.031061952933669,0.1803486966837317,0.0692623318094851,2.218911568936305,-14.159024238586426,-22.41415786743164,-30.83966064453125,-0.023724754977184927,1014.550393304688
0.978796630859375,0.3143166362415999,0.1009529216982424,-0.0579822333693504,0.1577182412147522,-0.0910111740231514,-0.0325852930545806,0.1819819466386769,0.0685287360629184,2.2184552397167687,-14.029044151306152,-22.325550079345703,-31.05364990234375,-0.02388324004639596,1014.550411609027
0.98886865234375,0.3183824243757873,0.0721251788817346,0.0279781402498483,0.1324999630451202,-0.0849756523966789,-0.0218919031322002,0.1834149404310524,0.0677353852159554,2.21806092466861,-14.109374046325684,-22.48333740234375,-31.226959228515625,-0.024041740483483575,1014.5504299151411
0.99894091796875,0.2721506884243339,0.0625536329381167,0.1173164658695459,0.0987297892570495,-0.0606975890696048,-0.0053973346948623,0.184564016774633,0.0670958144519345,2.2178320655698416,-14.21654224395752,-22.579179763793945,-30.561279296875,-0.024200244762540332,1014.5504482216988
1.009011474609375,0.2172618179604411,0.0618267799682915,0.1539952144473791,0.0517074167728424,-0.0450805462896823,0.0043439758010208,0.1852958418586191,0.0666508663279521,2.2177586185429403,-14.175946235656738,-22.871835708618164,-30.995819091796875,-0.024358722147813077,1014.5504665251505
1.019083740234375,0.1989467743951827,0.0369753934368491,0.1497761354476213,0.0108802458271384,-0.0167350620031356,0.0083856545388698,0.1855740698268,0.0663804194590116,2.2177809711428607,-14.255269050598145,-22.78227424621582,-30.97982788085937,-0.024517226426869838,1014.5504848317082
1.029155517578125,0.1720573792301118,-0.0031385902866721,0.1355365976929664,-0.0193871110677719,0.0158369988203048,0.0095127038657665,0.1854953138779727,0.0664058572128309,2.2178504411545235,-14.313136100769045,-22.81090545654297,-31.17437744140625,-0.024675723021988304,1014.5505031373784
1.0392265625,0.1380968766350299,-0.0253619664020836,0.1225678105264902,-0.0199918020516634,0.0387371219694614,0.0125140212476253,0.185269958237583,0.0667290220007636,2.21797981917323,-14.269688606262209,-23.174510955810547,-30.955963134765625,-0.024834208091199336,1014.5505214417176
1.049298583984375,0.1074342465415596,-0.0251797417029738,0.0672626874119043,-0.0118113718926906,0.0365709066390991,0.0218744985759258,0.1850870624411822,0.0671454670543988,2.2181698302347805,-14.181117057800291,-22.76410484313965,-31.30389404296875,-0.02499270852828695,1014.5505397478315
1.05936962890625,0.0789336898528039,-0.0210986098691821,0.0093932667672634,0.0071854009293019,0.0158401262015104,0.0228588636964559,0.1850447271081031,0.0674322102077216,2.218382804324704,-14.195927619934082,-22.697513580322266,-30.908905029296875,-0.025151193597497984,1014.5505580521706
1.069441650390625,0.0483674328058958,-0.0435056719884276,-0.0193190329760313,0.0261447094380855,-0.0238564200699329,0.0156510174274444,0.1852039735002444,0.0674228406323093,2.218553734021152,-14.352322578430176,-22.861129760742188,-30.779937744140625,-0.0253096940345856,1014.5505763582846
1.079513427734375,0.0412479561895132,-0.0478738040700554,-0.0579348870962858,0.0403469391167163,-0.0697579011321067,0.0094208884984254,0.1855270076966787,0.0670002333968565,2.218648923434693,-14.248442649841309,-22.613752365112305,-30.90838623046875,-0.02546819062970407,1014.5505946639549
1.08958447265625,0.0355494522869586,-0.0171646314211189,-0.0900520268470048,0.0533351749181747,-0.1228895634412765,0.0039214608259499,0.185996265890988,0.0660582017680051,2.218668834953976,-14.044001579284668,-22.34774208068848,-30.65496826171875,-0.0256266756989151,1014.550612968294
1.099656494140625,0.0478715390477329,-0.0042377837002277,-0.124921680176258,0.0591310635209083,-0.1596976369619369,0.0005990145727992,0.186561291944499,0.0646748976810408,2.2186417155362497,-13.968646049499512,-22.846683502197266,-30.7384033203125,-0.025785176136002716,1014.550631274408
1.109728759765625,0.0470004187690094,0.0058542789861559,-0.1409498549133539,0.04847202450037,-0.1621783673763275,-0.0014529512263834,0.1871116866758816,0.0630760157347147,2.2185899906317736,-14.248774528503418,-22.79151153564453,-30.5748291015625,-0.02594368041505947,1014.5506495809657
1.119799560546875,0.0101503687448799,-0.0023898177459836,-0.1035883847683668,0.0325410664081573,-0.13014817237854,0.0072394297458231,0.1875295498599311,0.0616378870015627,2.2185887946824008,-14.284598350524902,-22.802324295043945,-31.19805908203125,-0.026102161642301357,1014.5506678848611
1.129871826171875,-0.0243419026393443,-0.0077855393096804,-0.094359953173995,0.0050231562927365,-0.0788551568984985,0.0165586285293102,0.1877305317178635,0.0605899807261018,2.218688123270317,-14.190808296203612,-22.67175674438477,-31.25189208984375,-0.026260665921358117,1014.5506861914188
1.139943603515625,-0.0230702022030949,-0.0083706457212567,-0.0659358227223157,-0.0217018965631723,-0.0229563042521476,0.0305079910904169,0.1876542863242477,0.0600678741403574,2.2189283791849883,-14.419209480285645,-22.74867820739746,-30.74520874023437,-0.026419162516476587,1014.5507044970891
1.1500146484375,-0.0085766531547531,-0.0158200849443674,-0.0286123465001583,-0.0347513854503631,0.0180795453488826,0.043425653129816,0.1873936061330871,0.0600048737229458,2.2193146018747782,-14.311535835266112,-22.74182891845703,-30.87826538085937,-0.02657764758568762,1014.5507228014282
1.160086669921875,-0.0011049655672162,-0.0372843132555484,-0.031675241202116,-0.0386334285140037,0.0327968634665012,0.0544234178960323,0.1870451021483514,0.0601886659117445,2.219823417291624,-14.45167064666748,-22.96352767944336,-30.53256225585937,-0.026736148022775234,1014.5507411075422
1.17015869140625,0.0193226131726056,-0.0637741146437823,-0.0492892238259315,-0.0323241353034973,0.0207194276154041,0.0604807808995246,0.1867185880563861,0.0603636339726401,2.220430575402309,-14.266303062438965,-22.739261627197266,-30.325225830078125,-0.02689464845986285,1014.5507594136562
1.180229736328125,0.0519445971729233,-0.0686192165873944,-0.0470399835944175,-0.0227914601564407,-0.0079983510076999,0.0551912635564804,0.1864797788401217,0.0603296933669877,2.22103401629613,-14.201811790466309,-22.814414978027344,-30.522186279296875,-0.02705313352907388,1014.5507777179953
1.190301513671875,0.0219721047680825,-0.0773946437172591,-0.0452162752985954,-0.0134528204798698,-0.0453340075910091,0.0482579879462718,0.1863300195771545,0.0599748842092659,2.2215841608444498,-14.314656257629396,-22.74775695800781,-30.46966552734375,-0.02721163012419235,1014.5507960236655
1.20037255859375,-0.003688223526068,-0.0908991451956331,-0.0491974538892507,-0.0175165925174951,-0.0850385427474975,0.0320855751633644,0.1862019475096602,0.059234316474202,2.221990481066653,-14.134598731994627,-22.776323318481445,-30.62518310546875,-0.02737011519340338,1014.5508143280047
1.210444580078125,-0.0034799145376309,-0.1026879287973046,-0.0609808306634426,-0.0212775114923715,-0.1024220660328865,0.0170331224799156,0.1860034815491412,0.0582150344800978,2.222251583479366,-14.155888557434082,-22.711994171142575,-30.604522705078125,-0.027528615630490996,1014.5508326341186
1.220516845703125,-0.0159936879456043,-0.1017082701101899,-0.0575683918714523,-0.0288018099963665,-0.0980987548828125,0.0068613453768193,0.1857635308067923,0.0571646298816838,2.2223833019361656,-14.307316780090332,-22.80911064147949,-30.959503173828125,-0.027687119909547753,1014.5508509406764
1.230587890625,-0.0168192520495504,-0.0550358046539127,-0.0675058485180139,-0.025223322212696,-0.0824636071920394,0.0031009619124233,0.1854981097348022,0.0562368209721184,2.2224339216765894,-14.634404182434082,-22.779638290405277,-30.96469116210937,-0.02784560497875879,1014.5508692450154
1.240659912109375,0.0116574123069643,-0.0157858904138207,-0.1063479126095771,-0.025008825585246,-0.0518568493425846,0.0035155620425939,0.1852543766076122,0.055545368467288,2.222474836282853,-14.606766700744627,-22.90641212463379,-30.89288330078125,-0.028004105415846404,1014.5508875511294
1.250731689453125,0.0473053565323352,-0.031267683314532,-0.096014150121808,-0.0238873679190874,-0.0217391587793827,0.0140361143276095,0.1850298565527436,0.055166332369519,2.2225747342775195,-14.431633949279783,-22.766441345214844,-30.818145751953125,-0.02816260201096487,1014.5509058567998
1.260802490234375,0.0678789561467245,-0.0402929935522377,-0.0736760615855455,-0.0277066677808761,-0.0014393362216651,0.0205025635659694,0.1847921337526856,0.0550474508830406,2.22274553138959,-14.54312801361084,-22.75428581237793,-30.69329833984375,-0.028321083238206757,1014.5509241606951
1.27087451171875,0.0729828186243772,-0.0197622466988861,-0.0690682755291461,-0.0237651877105236,0.0172970667481422,0.0280180051922798,0.1845469199029813,0.0550898823263415,2.2230178656958293,-14.391581535339355,-22.694467544555664,-30.51400756835937,-0.028479583675294372,1014.550942466809
1.280945556640625,0.072471909960173,-0.0129193950667977,-0.051015316966176,-0.0189635343849658,0.0154310734942555,0.0383943505585193,0.1843719813023598,0.0552188873025498,2.2233675591440307,-14.772906303405762,-22.91563034057617,-30.810211181640625,-0.028638068744505404,1014.5509607711482
1.291017578125,0.0474572956910356,-0.0064269643075764,-0.0251473007380962,-0.0078333849087357,0.0061912350356578,0.0455928742885589,0.1842848702225437,0.0552672367201672,2.2238211005817856,-14.787983894348145,-22.695905685424805,-30.514373779296875,-0.02879656918159302,1014.5509790772621
1.301089599609375,-0.0025270707922056,-0.0035819501399993,-0.0036357261538505,-0.0070177130401134,-0.0108155943453311,0.0505607724189758,0.184254026723468,0.0551586597777775,2.2243132404606176,-14.912285804748535,-22.88661003112793,-30.66583251953125,-0.02895506961868063,1014.5509973833762
1.31116064453125,-0.0392577687529847,-0.0039965222902595,-0.0077928458333015,-0.001849316060543,-0.0351137444376945,0.0393645763397216,0.1842420608692628,0.0548548535188861,2.2247704398254857,-14.840949058532717,-22.81114959716797,-30.5645751953125,-0.029113554687891667,1014.5510156877152
1.321232421875,-0.0430282637350261,0.0040286709941923,-0.0242529822468757,0.0013654036447405,-0.0681865140795707,0.0261406414210796,0.1842518536769448,0.0542517835545273,2.225105238354388,-14.759516716003418,-22.710006713867188,-31.033233642578125,-0.029272051283010133,1014.5510339933855
1.3313046875,-0.016402889801003,0.0060720133900642,-0.047024201503396,0.0100659504532814,-0.0785206407308578,0.0176997501403093,0.1843241178157124,0.0534763567807537,2.2253142954094005,-14.83655834197998,-22.783689498901367,-30.79559326171875,-0.029430555562066894,1014.5510522999433
1.341375732421875,0.004139803218469,-0.0116461602605879,-0.0468383235424757,0.0234215017408132,-0.0585210286080837,0.0164482463151216,0.1845040583851015,0.0527742638424318,2.2254707077175637,-14.906888008117676,-22.675819396972656,-30.813446044921875,-0.029589040631277923,1014.5510706042824
1.35144775390625,-0.0124220034712925,0.0145114865638315,-0.055966801893711,0.0328869074583053,-0.0336982384324073,0.0214691031724214,0.1848115020397355,0.0522748857383294,2.225656704769761,-15.08934497833252,-22.91471099853516,-30.781951904296875,-0.029747541068365538,1014.5510889103964
1.361518798828125,-0.0387621672557666,0.040998365342617,-0.0155611417472362,0.0384350158274173,0.0045248214155435,0.0269090868532657,0.1851841611585254,0.0521234898619774,2.225879319063964,-14.853190422058104,-22.97014808654785,-30.356719970703125,-0.02990602613757657,1014.5511072147355
1.371590576171875,-0.0679552727859467,0.0149773505099117,0.0465939933925867,0.0275741107761859,0.0327468737959861,0.0270001702010631,0.1855273853271576,0.0522681986665666,2.226132389241128,-14.814435005187988,-22.740970611572266,-30.484893798828125,-0.03006452273269504,1014.5511255204058
1.38166259765625,-0.0964035147655755,0.0001373626440763,0.0777829123824834,0.0102461446076631,0.0407327748835086,0.0235024243593215,0.1857265165154608,0.0526139669948925,2.2263907633572444,-14.912226676940918,-22.78652000427246,-29.9415283203125,-0.030223023169782655,1014.5511438265197
1.391733642578125,-0.1325816934101283,-0.0026467151165008,0.0854132611304521,-0.0141185829415917,0.042681410908699,0.0117805209010839,0.1857015823157866,0.0529988622863635,2.226579759187279,-14.985535621643066,-22.6718864440918,-30.472900390625,-0.030381508238993687,1014.5511621308588
1.4018056640625,-0.1626163643309846,-0.0086424483999609,0.0931914939165115,-0.0261069163680076,0.0464098043739795,0.0006702258251607,0.1854987071447854,0.0534277536454211,2.226656833431407,-14.632025718688965,-22.865026473999023,-30.675201416015625,-0.030540008676081302,1014.5511804369728
1.411877685546875,-0.132205224780552,-0.0184678229741752,0.0826829593837261,-0.0300217606127262,0.0389572158455848,-0.008838590234518,0.1852245021299034,0.0538722424248607,2.2266075480020766,-14.727093696594238,-22.683881759643555,-30.939178466796875,-0.030698509113168918,1014.5511987430868
1.42194873046875,-0.0656541927693411,-0.0176344408899545,0.0285018718630075,-0.0339794047176837,0.0250932294875383,0.0004760599695146,0.1848918400496149,0.0541837265249848,2.2265828263989613,-14.813708305358888,-22.575551986694336,-30.772216796875,-0.030856994182379947,1014.5512170474259
1.4320205078125,-0.0022413857186213,0.0217297473795711,0.0317915610581636,-0.0265190936625003,0.0314094498753547,0.0046090199612081,0.1845668426744166,0.0544481899109957,2.226621450518309,-14.77048397064209,-22.55681610107422,-30.73739624023437,-0.031015490777498413,1014.5512353530962
1.442091552734375,0.0062706412347033,-0.0329343013525009,0.0055377603828907,-0.016053806990385,0.0257060565054416,0.0167505275458097,0.1843602472917074,0.0547121520637928,2.226740779140909,-14.754220008850098,-22.813129425048828,-30.96957397460937,-0.03117397584670945,1014.5512536574353
1.452163818359375,0.0215237034134566,-0.0553153522476553,-0.0157119483947753,-0.0146244904026389,0.0188995525240898,0.0224246587604284,0.1842272607370212,0.0548828271368875,2.2269600621285126,-14.813624382019045,-22.795055389404297,-30.9300537109375,-0.03133248012576621,1014.551271963993
1.46223583984375,-0.0117778238162398,-0.0502551462486386,0.0030178865164518,-0.0177721958607435,0.0127045828849077,0.0281160660088062,0.1841002285292715,0.0549833067507182,2.227240714260136,-14.76756763458252,-22.850086212158203,-30.7777099609375,-0.03149098056285382,1014.551290270107
1.472306884765625,-0.0551418953768909,-0.0477108685933053,0.0208726921588182,-0.0239826869219541,0.0067462925799191,0.0241697952151298,0.1838985023000577,0.0550091299658218,2.2275238433107485,-14.907523155212402,-22.682315826416016,-30.81259155273437,-0.03164946563206486,1014.5513085744461
1.482378662109375,-0.0968516603918746,-0.0688908731356263,0.0248217220455408,-0.0314584337174892,0.0001346380449831,0.0158148184418678,0.1836262597228356,0.0549711871408942,2.2277532380046345,-14.698264122009276,-22.667390823364254,-30.7606201171875,-0.03184208684165713,1014.5513317904748
1.49244970703125,-0.0992307375481352,-0.0965067559443414,0.0151660049498081,-0.0397957265377044,-0.008050587028265,0.0078783314675092,0.1832762694645155,0.0548883345829379,2.2279054630075827,-14.942509651184082,-22.552181243896484,-30.837860107421875,-0.03205454715901459,1014.5513578615776
1.502521484375,-0.0833699552671983,-0.1139892211429774,-0.0209404966980218,-0.0450682416558265,-0.0172525625675916,-0.0019252083729952,0.1828443777454076,0.0547286209439448,2.227980328525734,-15.061123847961426,-22.50643539428711,-30.898956298828125,-0.03226702292765693,1014.5513839345763
1.512593505859375,-0.0860803102044388,-0.1219976094231009,-0.0501309353470802,-0.0425286516547203,-0.0212196074426174,-0.007094404194504,0.1824018528445536,0.0545394170088524,2.227949867336548,-15.11413860321045,-22.593603134155277,-30.906494140625,-0.03247950384672755,1014.5514100082071
1.52266455078125,-0.0516348005713894,-0.087142276880145,-0.0826841284275054,-0.0367973893880844,-0.0301146432757377,-0.0152340279892086,0.1820129084344263,0.0542994379851502,2.227858622872928,-14.983149528503418,-22.563875198364254,-30.91619873046875,-0.03269196416408501,1014.5514360793098
1.532736572265625,0.01643997040838,-0.0531679649554193,-0.0975672247827053,-0.0267926938831806,-0.0273886322975158,-0.015758404508233,0.1817032878746324,0.054048824154408,2.227703476711946,-15.159571647644045,-22.504610061645508,-30.47247314453125,-0.03290444508315563,1014.5514621529406
1.542808349609375,0.072137125047855,-0.0482081505909562,-0.1072030681341886,-0.0205115117132663,-0.024933760985732,-0.0045320340432226,0.1814728362311074,0.0537946375407699,2.2276105167153264,-14.948988914489746,-22.608867645263672,-30.46759033203125,-0.03311692085179797,1014.5514882259394
1.55287939453125,0.1039548799932003,-0.0324935718476772,-0.1021013610810041,-0.0196766108274459,-0.0228080265223979,0.0087004136294126,0.1812869486188167,0.0535344219920099,2.2276397329625226,-15.002799034118652,-22.528976440429688,-30.794677734375,-0.03332938116915543,1014.5515142970421
1.56295166015625,0.1215969196677208,-0.0173151458077132,-0.0792623372852802,-0.0195055082440376,-0.0111241284757852,0.0190880130976438,0.1811230523541851,0.0533324348946926,2.227803568567708,-14.979537010192873,-22.753921508789062,-30.40484619140625,-0.03354186723865435,1014.5515403713049
1.573022705078125,0.1251366381011903,-0.0140844933234155,-0.069874331215024,-0.0228496380150318,-0.0053434711880981,0.0244729239493608,0.1809305417366498,0.0531961020462573,2.228047801835664,-14.946663856506348,-22.539236068725582,-30.4600830078125,-0.03375432755601181,1014.5515664424076
1.5830947265625,0.116459447181411,-0.0215646199457347,-0.0646358460396528,-0.0299309529364109,0.001959616318345,0.0301576294004917,0.1806980524199514,0.0531159912968952,2.2283435563568688,-15.073920249938965,-22.50848197937012,-30.427947998046875,-0.03396680847508243,1014.5515925160385
1.593166748046875,0.0886022298974916,-0.010757248596847,-0.0830956318378448,-0.0333773493766784,7.11688771843e-05,0.0287288427352905,0.1804068182543642,0.0530535863231471,2.228675150918591,-14.9237699508667,-22.482994079589844,-30.77880859375,-0.03417928939415305,1014.5516185896691
1.60323779296875,0.0750001132635399,0.0183178931094706,-0.1095937626630067,-0.0340121053159236,-0.0067356843501329,0.0367482118308544,0.1801013269228523,0.0529559001016493,2.229019994125794,-14.988373756408691,-22.55322265625,-30.81573486328125,-0.034391749711510516,1014.5516446607719
1.6133095703125,0.082283329074271,0.0429367860592901,-0.1579915906071662,-0.0232313610613346,-0.0106886141002178,0.0422718748450279,0.1798457827087691,0.0527876874610429,2.229432096876231,-14.729155540466309,-22.675121307373047,-30.233154296875,-0.03460422548015285,1014.5516707337707
1.623380615234375,0.0790104814160615,0.0507405916780233,-0.2087625774234533,-0.0010840967297554,-0.0129569750279188,0.0539133623242378,0.1797550821580334,0.052598460592697,2.229932953882693,-14.87377643585205,-22.594945907592773,-30.147735595703125,-0.034816685797510315,1014.5516968048735
1.63345263671875,0.0609038929697126,0.0686168784998357,-0.2481348028689622,0.0264332816004753,-0.0174273569136858,0.0584125109016895,0.179917360159435,0.0523670988780396,2.2304932445508463,-14.922533988952637,-22.499656677246094,-30.550079345703125,-0.03502916671658094,1014.5517228785042
1.643524658203125,0.0272917654208838,0.0602675678275525,-0.2445475920319557,0.0467946082353591,-0.0071647106669843,0.0573792308568954,0.1803237612370015,0.0521476864419702,2.2310752557771143,-14.812329292297363,-22.81892204284668,-30.48431396484375,-0.03524164763565156,1014.551748952135
1.653595703125,-0.0046163712216541,0.0285432267867028,-0.2069406226933002,0.0509387552738189,0.0050229798071086,0.0597901865839958,0.1808355101429915,0.0520475049411114,2.2316410986404622,-15.040099143981934,-22.68791007995605,-30.212860107421875,-0.035454107953009024,1014.5517750232377
1.66366748046875,-0.0341755701178684,0.0202180276423692,-0.1225228023409843,0.0521524958312511,0.0241033844649791,0.0560948476195335,0.1813996110083428,0.0521078570583719,2.232199190937765,-15.212172508239746,-22.640766143798828,-30.0438232421875,-0.03566658372165136,1014.5518010962364
1.673738525390625,-0.0698953374704346,0.0246311679095029,-0.0282049347430467,0.0417666994035244,0.0335786491632461,0.0529493875801563,0.1819036962292592,0.0523256633276045,2.23272755723456,-15.112252235412598,-22.726486206054688,-30.3017578125,-0.03587904403900882,1014.5518271673392
1.683810791015625,-0.1194626475853845,0.0250885562881827,0.0369704250007867,0.0249663069844245,0.0410582609474659,0.0491112284362316,0.1822769287240626,0.0526283322732593,2.233219968586651,-15.042431831359863,-22.6580867767334,-30.13555908203125,-0.036091530108507734,1014.551853241602
1.6938828125,-0.1278666110543534,-0.0031358138076961,0.0831079067975282,0.0105418264865875,0.0509553663432598,0.0498782210052013,0.1824690522060641,0.0530367085915892,2.2337051358280973,-15.031512260437012,-22.6311092376709,-30.217010498046875,-0.03630401102757835,1014.5518793152328
1.70395361328125,-0.1391737851515412,-0.0278936768367886,0.1267278528153896,0.0041235527023673,0.0474799387156963,0.0483474060893058,0.1825551361745142,0.0534658597916427,2.2342087366779597,-14.886059761047363,-22.41864776611328,-30.38592529296875,-0.03651646619450753,1014.5519053857035
1.714025390625,-0.1964373123249038,-0.0260357740104198,0.1347445705324411,-7.91819766163e-05,0.0276505723595619,0.0347298644483089,0.1825771084491984,0.0538029818567618,2.234640759650708,-14.85044765472412,-22.394441604614254,-30.535308837890625,-0.036728941963149866,1014.5519314587023
1.724096435546875,-0.258898188945651,-0.0422184086568653,0.1477303088337183,-0.003729972988367,0.0195934474468231,0.0183187499642372,0.1825438213567629,0.0539800176941029,2.2349082974769843,-14.80758571624756,-22.51332664489746,-30.209381103515625,-0.03694140228050733,1014.551957529805
1.734168212890625,-0.2928079112015664,-0.0691879563860595,0.1579728859066963,-0.0095388609915971,0.0113642793148756,-0.0073983296751976,0.1824626132869971,0.0541285771300469,2.2349616322721078,-14.827033042907717,-22.52796173095703,-30.002960205078125,-0.037153878049149665,1014.5519836028038
1.744240234375,-0.3034818654291331,-0.0601470101878046,0.1561854179680347,-0.0106549458578228,0.0039565111510455,-0.0348665565252304,0.1823450041007921,0.0542257916945296,2.234760848301881,-14.693846702575684,-22.44962310791016,-30.56817626953125,-0.037366358968220284,1014.5520096764345
1.754311279296875,-0.2779532737558707,-0.0331166721820831,0.1487801101475954,-0.0147365061566233,0.006067865062505,-0.0517134442925453,0.1821842427931269,0.0543391280432649,2.2343208010856737,-14.72853183746338,-22.53088760375977,-30.29693603515625,-0.03757881928557775,1014.5520357475373
1.76438330078125,-0.2434488370098173,-0.0250077461369335,0.1548760889351368,-0.0198262277990579,0.0075008836574852,-0.0606349483132362,0.18198549724779,0.0545144779365534,2.233763803817979,-14.708483695983888,-22.46398162841797,-30.13851928710937,-0.03779130020464837,1014.5520618211681
1.774455322265625,-0.1960832016576081,-0.0211420106194913,0.1484247208386659,-0.0312037859112024,0.0034390310756862,-0.0560875982046127,0.1817036398086257,0.0546431606736277,2.23317522154906,-15.112116813659668,-22.451400756835938,-30.281280517578125,-0.038003781123718994,1014.5520878947989
1.7845263671875,-0.1299479473730549,-0.0296785144269466,0.1309410865962505,-0.0444797687232494,0.0071796271950006,-0.0450391508638858,0.1813150724101522,0.0547640231205249,2.2326710994390786,-14.808518409729004,-22.453758239746094,-30.540069580078125,-0.03821624144107646,1014.5521139659016
1.794598388671875,-0.0665973553709685,-0.0692082685217261,0.090047935193777,-0.0533757954835891,0.0049945032224059,-0.0261674579232931,0.1808005222246475,0.0548620154442162,2.232360079327829,-14.843289375305176,-22.32192039489746,-30.613983154296875,-0.03842872236014708,1014.5521400395323
1.8046689453125,-0.063423255379498,-0.0788902891024947,0.0513911645412445,-0.0588914975523948,0.001525230705738,-0.0147585086524486,0.1802312292073838,0.0548685524881969,2.23219271494575,-14.783204078674316,-22.42560768127441,-30.368682861328125,-0.038641172376647964,1014.5521661093711
1.8147412109375,-0.0751199767835438,-0.0626370734378695,0.0244622410833835,-0.0638058260083198,0.0035249991342425,-0.0125526115298271,0.1796359457858553,0.0548496633859413,2.23210361492908,-14.902628898620604,-22.384796142578125,-30.260040283203125,-0.03885365844614688,1014.5521921836339
1.824812255859375,-0.0688426866123452,-0.0568973607420921,0.0390250194430351,-0.0623382292687892,0.0082616666331887,-0.0118776261806488,0.1790056832208333,0.0548597023079271,2.2320221356389083,-15.06187915802002,-22.53141975402832,-30.268585205078125,-0.03906611876350434,1014.5522182547367
1.83488427734375,-0.0598471504583954,-0.071063102608174,0.0654074149340391,-0.0630903095006942,-0.0046927481889724,-0.0225872620940208,0.1783751214686248,0.0548671799337067,2.2318850511233195,-15.075711250305176,-22.41865539550781,-30.35995483398437,-0.039278599682574966,1014.5522443283674
1.844956298828125,-0.0566687761506065,-0.0955338192589581,0.036253801164031,-0.0688171535730362,-0.0236660670489072,-0.0359138697385787,0.1777156840638462,0.0547171902661533,2.2316342113925773,-15.002863883972168,-22.29551124572754,-30.53155517578125,-0.039491080601645585,1014.5522704019982
1.85502734375,-0.0198391843926161,-0.1108249118931591,0.0181301154524087,-0.0665992796421051,-0.0270765107125043,-0.0490589663386344,0.1770151921047166,0.0544910349029037,2.2312410466915127,-15.077515602111816,-22.27426147460937,-30.68341064453125,-0.03970354091900305,1014.5522964731009
1.86509912109375,-0.0073349459979683,-0.1053486724391579,0.0187953013628721,-0.0669980496168136,-0.0276473276317119,-0.0594875365495681,0.1763424375848734,0.0542894732481494,2.23072878087126,-15.06013011932373,-22.240476608276367,-30.356903076171875,-0.039916016687645384,1014.5523225460997
1.875170166015625,0.0214936005361378,-0.0374834890894591,-0.001518003347516,-0.0635039880871772,-0.029980257153511,-0.0681827589869499,0.1756842262819315,0.0540866898091835,2.230118345594078,-14.95346736907959,-22.20135498046875,-30.881805419921875,-0.04012847700500285,1014.5523486172024
1.8852421875,0.1031385221090167,0.0039218496188521,-0.0107937812149524,-0.061034508049488,-0.0277466922998428,-0.0652603283524513,0.1750442825018163,0.0538847508773444,2.2294614942709754,-14.683297157287598,-22.10552406311035,-30.561065673828125,-0.040340957924073474,1014.5523746908332
1.895314208984375,0.1744160346528515,-0.0066015902221202,-0.0278752643972635,-0.059775099158287,-0.03212146833539,-0.0532225780189037,0.1744194324187477,0.0536719001850386,2.2288856558336656,-14.97485065460205,-22.09126091003418,-30.681396484375,-0.04055343884314409,1014.552400764464
1.90538525390625,0.1991978630794212,0.0118847913220524,-0.0344751010537147,-0.0625200718641281,-0.0395682491362094,-0.0411020815372467,0.1738080825806622,0.0533928786221673,2.2284218703278165,-14.77346897125244,-22.147119522094727,-30.615875244140625,-0.04076589916050156,1014.5524268355667
1.91545703125,0.2039659542640671,0.037437019599229,-0.07221300329566,-0.0704206079244613,-0.0401179268956184,-0.0316425338387489,0.1731382754932064,0.053031929639916,2.2280928569207834,-14.851740837097168,-22.163923263549805,-30.6812744140625,-0.04097837492914389,1014.5524529085654
1.925528076171875,0.1852745516670867,0.0452563150480389,-0.0983832173407077,-0.070537656545639,-0.0322195850312709,-0.0191011615097522,0.1724297110229488,0.0526982722656534,2.227884208561836,-14.891745567321776,-22.1365909576416,-30.9693603515625,-0.041190835246501356,1014.5524789796682
1.935600341796875,0.1316578565634787,0.054100861891359,-0.1424187584221363,-0.0538865141570568,-0.0208292435854673,-0.016244389116764,0.1718118452780121,0.0524647943408873,2.227742788083559,-15.06753635406494,-22.17898178100586,-30.54205322265625,-0.04140332131600027,1014.552505053931
1.94567236328125,0.104341577755846,0.0735138567611575,-0.1703799475371837,-0.0324269607663154,-0.0012054149992763,-0.0166029222309589,0.1713740975030697,0.0523917997359839,2.227589831164956,-14.895821571350098,-21.982255935668945,-30.581207275390625,-0.04161580223507089,1014.5525311275618
1.955743408203125,0.1225524302942678,0.0811303231142461,-0.1709182921975851,-0.0153608918190002,0.0112986601889133,-0.0171912126243114,0.1711247831718424,0.0525027421991939,2.227418150630732,-14.736729621887209,-22.017457962036133,-30.627593994140625,-0.04182826255242836,1014.5525571986645
1.9658154296875,0.1568021250942722,0.0516533226087689,-0.1383592538982629,0.0107230711728334,0.00914575625211,-0.0100043006241321,0.171109463739468,0.0526749643227406,2.227272460380638,-14.483349800109863,-21.853662490844727,-30.80697631835937,-0.04204074347149897,1014.5525832722954
1.975886474609375,0.1667476554494351,0.0502792577765882,-0.0787906281203031,0.022581061348319,-0.0231269635260105,0.0034478590823709,0.1712924486497511,0.0526384185606941,2.2272227282641333,-14.556395530700684,-22.16328811645508,-30.83026123046875,-0.04225320378885644,1014.552609343398
1.985958251953125,0.1529945495048537,0.0261136615522205,-0.0306342077165842,0.0185331273823976,-0.0465628951787948,0.0118764247745275,0.1715015929960453,0.0522977601064675,2.227276951253188,-14.905352592468262,-22.275753021240234,-30.904571533203125,-0.042465679557498776,1014.5526354163968
1.996029052734375,0.1260352309087291,0.0048145606748759,0.0322340441286563,0.0087963445112109,-0.0620233453810215,0.023671830072999,0.1716512195516364,0.0517589072216406,2.2274647619416643,-15.16323947906494,-22.13349723815918,-31.34042358398437,-0.04267813472442795,1014.5526614868676
2.00610107421875,0.0586485152583569,-0.0137558458909392,0.0317465528726577,-0.0030552158132195,-0.0673798173666,0.0261631812900304,0.1716961031904344,0.0510821659175382,2.2277123297811494,-15.00798511505127,-21.9506778717041,-30.910308837890625,-0.04289061564349857,1014.5526875604983
2.016173095703125,-0.0261808815695345,-0.0123385264389216,-0.0126245037734508,-0.0037718722596764,-0.04970308765769,0.021019285544753,0.1716569467062674,0.0504599990394389,2.2279414164115883,-15.071593284606934,-22.116321563720703,-30.865264892578125,-0.04310309656256919,1014.5527136341291
2.026244140625,-0.083744816461578,-0.0194978966742753,-0.0255950445055961,0.0047921771183609,-0.0201333947479724,0.0104880249127745,0.1716438735860084,0.0500984239174515,2.2280951981819586,-14.835223197937012,-22.104267120361328,-30.88861083984375,-0.04331555687992665,1014.5527397052318
2.03631640625,-0.1048332702629268,-0.0397433968454599,-0.0361649538367986,0.0162040889263153,-0.0070594050921499,0.0011496501974761,0.171732186063396,0.0499895680852657,2.2281363299745567,-14.83521556854248,-21.81790542602539,-30.63641357421875,-0.04352804294942557,1014.5527657794946
2.04638720703125,-0.0870293545575812,-0.0547258619219064,-0.0393722254455089,0.0322259813547134,-0.0121509060263633,-0.0063804211094975,0.1719625404412763,0.0499453445807201,2.2280812550658737,-14.9130220413208,-21.700239181518555,-30.656890869140625,-0.04374049811635475,1014.5527918499654
2.056459228515625,-0.0652082756327465,-0.0662722150698304,-0.0127197808414697,0.0486227981746196,-0.0254358202219009,-0.0078499540686607,0.1723472516297842,0.0498118228988102,2.227978463019738,-15.106776237487791,-22.124839782714844,-31.0322265625,-0.04395297903542536,1014.5528179235961
2.06653125,-0.0683568758567795,-0.0728657681159675,0.0721948831170797,0.0510427393019199,-0.0479789711534976,-0.0096714822575449,0.1728419041950067,0.049491083898847,2.2278503107247016,-15.24373722076416,-22.21266365051269,-30.7957763671875,-0.04416545995449599,1014.5528439972269
2.076602294921875,-0.0844005769565701,-0.0975176865525543,0.1267331135123968,0.0439001396298408,-0.0715932250022888,-0.015738695859909,0.1733105682156543,0.04894016297045,2.2276846594889173,-15.375994682312012,-22.299509048461918,-30.81097412109375,-0.04437792027185346,1014.5528700683296
2.08667431640625,-0.1271809303451329,-0.1320205523960292,0.1816770020991563,0.0298735443502664,-0.0851814746856689,-0.0308291707187891,0.1736734321416559,0.0482126389400719,2.2274234699648274,-15.281256675720217,-22.11719512939453,-30.576568603515625,-0.04459040119092408,1014.5528961419604
2.096745361328125,-0.1751538839407265,-0.1530373292006552,0.2204185284256935,0.0190057158470153,-0.0879996344447135,-0.0612698979675769,0.1738988242159507,0.0474172301111595,2.226943476689295,-15.0673246383667,-22.08041381835937,-30.785430908203125,-0.04480286150828154,1014.5529222130632
