Timestamp,Acc x (m/s^2),Acc y (m/s^2),Acc z (m/s^2),Gyro x (rad/s),Gyro y (rad/s),Gyro z (rad/s),Beccheggio/Pitch (rad/s),Rollio/Roll (rad/s),Imbardata/Yaw (rad/s),Mag x (microTesla),Mag y (microTesla),Mag z (microTesla),Altitudine (m),Pressione (milliBar)
0.032539306640625,-0.4398191119804978,-0.018182868552953,0.1422948397815227,-0.1150211244821548,0.0815199092030525,-0.0997192710638046,0.1319204890976883,0.1475213003085404,2.0427233370713087,-5.862493515014648,-22.81671905517578,-38.10919189453125,0.0,1011.9933426972577
0.04260693359375,-0.3290368701852857,0.0918754428818821,0.0192313546925783,-0.0607112683355808,0.0525308661162853,-0.1258134543895721,0.1308969504031517,0.1483673425602048,2.041696431011912,-5.891157150268555,-22.94519805908203,-38.26031494140625,0.0,1011.9933442282576
0.0526748046875,-0.172346133043617,0.1384578919671475,-0.0107253921538591,-0.0185075905174016,0.0204744804650545,-0.1271615177392959,0.1303783379449026,0.1489463856525732,2.040454784875788,-5.822561264038086,-23.26915740966797,-38.6356201171875,0.0,1011.9933457592945
0.062742919921875,-0.0124589379481971,0.1208735738292336,0.0480547135949134,0.0038073025643825,-0.0278222113847732,-0.1054168120026588,0.1302165633078436,0.1491066532629353,2.0392887456813766,-5.821939468383789,-24.11564826965332,-38.91571044921875,0.0,1011.9933472903685
0.07281201171875,0.0763553637973964,0.09936272989735,0.1610854649692773,-0.0018141437321901,-0.0843145996332168,-0.0802803039550781,0.1301895626717591,0.148677733965804,2.0383572011705997,-5.945582389831543,-24.3630313873291,-38.9237060546875,0.0,1011.9933488215911
0.082880126953125,0.1471504631191492,0.0659055737145245,0.2579460027873516,-0.0314167775213718,-0.1365407854318618,-0.0592096410691738,0.130057416323772,0.1476154009797952,2.0377085877795027,-6.0881853103637695,-24.210128784179688,-39.2142333984375,0.0,1011.9933503526652
0.092947998046875,0.207466984654963,0.0332132644243538,0.2690367211222648,-0.0714655965566635,-0.1725268959999084,-0.0436779297888278,0.1295884321801828,0.1460183675145355,2.037291499733065,-6.063908576965332,-24.076250076293945,-38.89007568359375,0.0,1011.9933518837021
0.10301708984375,0.2146514893315732,0.0269525965943932,0.2603331901848316,-0.1085666269063949,-0.1841265559196472,-0.0316090174019336,0.1286984718573942,0.1441663496342868,2.037050915473072,-5.98277473449707,-24.37257194519043,-38.862396240234375,0.0,1011.9933534149247
0.1130849609375,0.1781970510289073,0.0707623660959303,0.1827653818577528,-0.1387145519256591,-0.1863365173339843,-0.0185636393725872,0.1274334215455262,0.1422094887349851,2.036989891031586,-6.051668167114258,-24.30304336547852,-38.84735107421875,0.0,1011.9933549459616
0.123153076171875,0.1340532272674143,0.1263508361965417,0.0327723887890577,-0.1503720134496688,-0.1747288703918457,-0.0017987752798944,0.1259488454471369,0.1403027061696992,2.0370949243028957,-6.260286331176758,-24.12796401977539,-38.558197021484375,0.0,1011.9933564770357
0.133221923828125,0.0620706717267632,0.1693846528895199,-0.0735083038032054,-0.1362958401441574,-0.1456704884767532,0.0263721905648708,0.1245122331019922,0.1386318611854528,2.037421752330845,-6.138182640075684,-23.969074249267575,-38.70864868164063,0.0,1011.9933580082211
0.1432900390625,0.0434501424089074,0.2064358149763196,-0.1379337219625711,-0.10701385140419,-0.1380498558282852,0.0502908378839492,0.1233375409964002,0.1371745837577824,2.037970463531303,-6.29386043548584,-23.846391677856445,-38.87423706054688,0.0,1011.9933595392952
0.15335791015625,0.0188115218453109,0.2266393026366829,-0.2532482003599405,-0.0584919154644012,-0.1401804983615875,0.0515876188874244,0.1225844231805474,0.1357752718947961,2.038595478881811,-6.010022163391113,-23.93336296081543,-39.14743041992188,0.0,1011.9933610703322
0.163426025390625,-0.0462993943601846,0.2380233048297464,-0.3135872259885072,-0.0108383735641837,-0.1302168220281601,0.0347638987004756,0.1223088822347273,0.1344537743641908,2.0390645431892627,-6.0448503494262695,-23.808862686157227,-39.568939208984375,0.0,1011.9933626014063
0.1734951171875,-0.0697366763100028,0.2025743903078138,-0.3576099075883627,0.0252280533313751,-0.0917998403310775,0.0085701439529657,0.1224334310068612,0.1334417286986722,2.039247380301674,-6.355542182922363,-23.785425186157227,-39.521575927734375,0.0,1011.9933641326288
0.18356298828125,-0.0510826831139624,0.1609891649879515,-0.3357487889140844,0.0344689562916755,-0.0238245241343975,-0.0035437776241451,0.122773111223217,0.1330027655243358,2.0392011447389278,-6.215463638305664,-23.961410522460938,-38.94189453125,0.0,1011.9933656636657
0.193630859375,-0.001102116023004,0.1426579009402543,-0.2829518492281436,0.0259860977530479,0.0399205684661865,0.0018277200870215,0.1230728506399638,0.1332092084091687,2.0391242156009035,-6.264636993408203,-23.96167755126953,-38.91079711914063,0.0,1011.9933671947026
0.203699951171875,0.0263965701468288,0.1183886982109397,-0.2347662027299404,0.0056989360600709,0.1030729040503501,0.0226467158645391,0.1232083496559972,0.1340062242567918,2.039226337035357,-6.408816337585449,-23.964624404907227,-38.79266357421875,0.0,1011.9933687259253
0.21376806640625,0.0045110476836562,0.1118176492575555,-0.1112093811661004,-0.0270898304879665,0.1535527557134628,0.0432745553553104,0.1230866945454676,0.1352959910475994,2.039579880709718,-6.533478736877441,-23.859479904174805,-38.80230712890625,0.0,1011.9933702569994
0.2238359375,-0.0339069457769393,0.1223720687586814,-0.0149953245580196,-0.0445380620658397,0.1670568585395813,0.0491233877837657,0.122710521925204,0.1368839680943891,2.040081813301982,-6.48546314239502,-23.712949752807617,-38.61148071289063,0.0,1011.9933717880363
0.233905029296875,-0.0713613549023866,0.1012226785503327,0.0016015899777412,-0.056549958884716,0.1434171199798584,0.0493380911648273,0.1221672494101804,0.138384887907507,2.040671354185518,-6.319311141967773,-23.88197898864746,-38.85052490234375,0.0,1011.9933733192588
0.243972900390625,-0.0807194042257964,0.0439454516451805,-0.0306675254642963,-0.0500949919223785,0.0873554572463035,0.0477985180914402,0.1215711989879551,0.1394230157376778,2.041251075586376,-6.419857978820801,-23.619997024536133,-38.9937744140625,0.0,1011.9933748502957
0.254041015625,-0.0852826204881072,-0.0394581501632928,-0.078906363454461,-0.023310050368309,0.0283084791153669,0.044187743216753,0.1211350905315975,0.139842353976704,2.041781869226171,-6.329031944274902,-23.629945755004883,-38.94586181640625,0.0,1011.9933763813698
0.264110107421875,-0.0716658908069133,-0.0864611627481877,-0.1344979022949934,0.0142391892150044,-0.0260777976363897,0.0378323756158351,0.1210718832936023,0.1397326441309439,2.042209549928784,-6.427711486816406,-23.662851333618164,-39.345489501953125,0.0,1011.9933779125925
0.274177734375,-0.0884871156178414,-0.0868316034957766,-0.0968529390335082,0.0431000776588916,-0.0642807036638259,0.0215799901634454,0.121356631352915,0.1392006477575584,2.042482665585697,-6.448079109191895,-23.818294525146484,-39.305908203125,0.0,1011.9933794435922
0.284245849609375,-0.1428051273912191,-0.0612501491241157,-0.0321218159258365,0.0528107620775699,-0.0873114541172981,0.00135488063097,0.1218324919110396,0.138386076661183,2.0425313771318545,-6.3087263107299805,-23.75139808654785,-39.2952880859375,0.0,1011.9933809746663
0.29431396484375,-0.1448445242643356,-0.0726537328004837,0.0013578443497419,0.0538363717496395,-0.0776500031352043,-0.0184818133711814,0.1223058599659629,0.1375502551941512,2.042359968970944,-6.210598945617676,-23.549537658691406,-38.853271484375,0.0,1011.9933825057403
0.304383056640625,-0.1317120709687471,-0.0990631624288856,0.0374719447821378,0.0442782863974571,-0.0502295643091201,-0.0342306792736053,0.1227288130572104,0.1369093141415408,2.042017989568632,-6.238528251647949,-23.780651092529297,-38.627044677734375,0.0,1011.9933840369629
0.314450927734375,-0.1271818801932036,-0.0909929609589278,0.0495469979792833,0.030849240720272,-0.0193681269884109,-0.0425514504313468,0.1230045077689283,0.1365838160648591,2.0415829845415328,-6.162380218505859,-23.863882064819336,-38.85943603515625,0.0,1011.9933855679999
0.324519287109375,-0.1039490347743034,-0.0365326181054115,0.0513297897428274,0.0164069198071956,0.0109247975051403,-0.0439605303108692,0.123142093282425,0.1365821356481815,2.0411144538684787,-6.14461612701416,-24.097322463989254,-38.93902587890625,0.0,1011.993387099111
0.334587890625,-0.0744828479237854,0.0408055461842566,0.063917468637228,-0.0059654703363776,0.0518198013305664,-0.0350555926561355,0.1231395712885683,0.1369093044859834,2.040704946677789,-6.603358268737793,-23.98805809020996,-38.772796630859375,0.0,1011.9933886302593
0.344656005859375,-0.0876100405223667,0.0675813249070197,0.1055868651092052,-0.0284987390041351,0.081714317202568,-0.0221168901771307,0.122954112336939,0.1375848073516703,2.040442634206836,-6.324254989624023,-23.86022186279297,-38.9166259765625,0.0,1011.9933901613334
0.354723876953125,-0.0765589235454797,0.0362021440420299,0.1185907235890626,-0.0392720252275466,0.0927097126841545,-0.0153780272230505,0.1226204674687015,0.1384506166403089,2.040319249546916,-6.316755294799805,-23.844087600708008,-39.26995849609375,0.0,1011.9933916923703
0.36479296875,-0.0267773861579596,-0.0233885474372655,0.0782353323251009,-0.0301253981888294,0.081512451171875,-0.0189218949526548,0.122278655407448,0.1392724288586108,2.040202548649535,-6.219717979431152,-23.913036346435547,-39.26031494140625,0.0,1011.993393223593
0.37486083984375,-0.001605681630969,-0.0539087003201246,0.0178103819787502,-0.0067108049988746,0.067264437675476,-0.0287816766649484,0.122094778718013,0.139964457304811,2.039997756475296,-6.163172721862793,-23.817344665527344,-39.285064697265625,0.0,1011.9933947546299
0.3849287109375,-0.0128401923507452,-0.0170155783392488,0.0425701447039842,0.0149468192830681,0.0503102205693721,-0.0312437694519758,0.1221493531137031,0.140525558543133,2.039677567731486,-6.139230728149414,-23.801942825317383,-39.25485229492188,0.0,1011.9933962856668
0.394998046875,0.0010297814391553,0.0483578612599521,0.0882078602850437,0.030145650729537,0.0035065482370555,-0.0245586428791284,0.1223780797024562,0.1407672289600995,2.0393771866978008,-6.020319938659668,-23.588594436645508,-39.43145751953125,0.0,1011.9933978169265
0.40506640625,0.0564683216750621,0.0607745675016194,0.0871983909815549,0.0262265428900718,-0.0515854656696319,-0.011838587000966,0.1226698649679214,0.1404853041138667,2.0391524714262923,-6.237260818481445,-23.592374801635746,-39.330810546875,0.0,1011.9933993480378
0.415134033203125,0.097145346108824,0.0282183056812733,0.0869657512694597,0.0095631647855043,-0.0841849073767662,-0.007727051153779,0.1228302597256714,0.1397453505076719,2.0390411839230813,-6.2354841232299805,-23.88027000427246,-39.43084716796875,0.0,1011.9934008790375
0.425203369140625,0.0814911192506551,0.0370333341691642,0.0770306327104568,-0.0082374028861522,-0.0897905975580215,-0.0094647631049156,0.1228134807181499,0.1388075678839782,2.038969041677811,-6.015993118286133,-23.70965385437012,-39.104766845703125,0.0,1011.9934024102972
0.435271240234375,0.0453964541710913,0.0863896318819373,0.03149988463521,-0.0214506387710571,-0.0638185665011406,-0.0146059673279523,0.1226265226471583,0.1380004984977036,2.038865533598297,-6.003355026245117,-23.73745346069336,-39.25323486328125,0.0,1011.9934039413341
0.445339111328125,0.0529093140192329,0.1376591428048908,-0.0047112464308738,-0.0388512015342712,-0.0402839481830596,-0.0142144821584224,0.1223286418819444,0.1374800073234967,2.038755207883576,-6.1038970947265625,-23.86827850341797,-39.17926025390625,0.0,1011.9934054723711
0.4554072265625,0.0593183042787015,0.1462022955488413,-0.0177887546688318,-0.0610389560461044,-0.0046426090411841,-0.0076571572571992,0.1218534877436474,0.1372728320255226,2.0387133440070797,-6.191501617431641,-23.832658767700195,-39.305419921875,0.0,1011.9934070034452
0.46547607421875,0.069982467764616,0.1288438951212912,0.0132370827138423,-0.0817426368594169,0.0259896013885736,0.0140521330758929,0.121161696854144,0.1373966916510653,2.0388377184532707,-6.360668182373047,-23.90846443176269,-39.5172119140625,-5.736326284780065e-06,1011.9934083687352
0.475544189453125,0.0969926397651433,0.1007846524592488,0.0221574712723493,-0.0795370191335678,0.031576070934534,0.0350491441786289,0.1203698808668383,0.1376859073632981,2.0391857086533505,-6.301936149597168,-23.8984375,-39.399993896484375,-3.222981487902903e-05,1011.993409133614
0.485612060546875,0.1242456806108355,0.0912154446031898,-0.0365583370685577,-0.0593718327581882,0.0247788876295089,0.0494877398014068,0.1197097709433694,0.137967691534237,2.039706943257072,-6.330761909484863,-23.78323554992676,-39.44683837890625,-5.872266103557113e-05,1011.9934098984743
0.495681396484375,0.1413036367870867,0.0788880971454083,-0.0929261209785938,-0.0271578766405582,0.011745267547667,0.0589004345238208,0.1193504416608347,0.1381324617706779,2.0403089365543576,-6.459478378295898,-23.825910568237305,-39.410247802734375,-8.521936181835445e-05,1011.9934106634458
0.5057490234375,0.1063726086594164,0.0754961896847933,-0.1073503676503896,0.0111074857413768,0.003032736480236,0.0644318163394928,0.1193401746692117,0.1381856223252389,2.040941368608424,-6.193084716796875,-23.64001846313477,-39.37472534179688,-0.00011171156553718952,1011.9934114282875
0.515817138671875,0.0642760728165507,0.076876465062052,-0.0490133294939994,0.0294025857001543,-0.0202835481613874,0.0621453486382961,0.1196202604265296,0.1380711957971618,2.0415525033605544,-6.353543281555176,-23.624902725219727,-39.54425048828125,-0.0001382050541314385,1011.9934121931663
0.52588623046875,0.0515106992676854,0.0649429392274469,-0.0187631526589393,0.035706553608179,-0.0587891265749931,0.0552304536104202,0.119977583748207,0.1376319699764223,2.042094297951288,-6.329807281494141,-23.606103897094727,-39.338226318359375,-0.00016470111247651522,1011.9934129581193
0.535954345703125,0.0820104669496417,0.0128809627525508,-0.0312041165590286,0.0376489534974098,-0.0644930154085159,0.0457552894949913,0.120363059247759,0.1369739632496846,2.042534616988944,-6.36632251739502,-23.760225296020508,-38.949493408203125,-0.0001911946010707639,1011.993413722998
0.546022216796875,0.0842306272171437,-0.0081334759645164,0.0044739305436611,0.0272509083151817,-0.0454266518354415,0.041294228285551,0.1206945078787302,0.1364079609997928,2.0429191684200125,-6.416012763977051,-23.880512237548828,-39.65240478515625,-0.00021768744722730615,1011.9934144878582
0.55609130859375,0.0249180220268666,0.030250834422186,0.0419452908039092,0.0105026643723249,-0.017443286255002,0.0400919802486896,0.1208715074432037,0.1360909239341047,2.043295622557082,-6.371994972229004,-23.74489402770996,-39.75094604492188,-0.0002441835055723826,1011.9934152528112
0.5661591796875,0.0405073669552803,0.0620862346220761,0.0059901803255081,0.0019294153898954,0.007566459942609,0.0475142076611518,0.1209445199495626,0.1360583068095715,2.0437097270452944,-6.172268867492676,-23.82059860229492,-39.4063720703125,-0.00027067635172892455,1011.9934160176714
0.57622705078125,0.0723005354486405,0.0489639373943209,-0.0271042800247669,0.0027151592075824,0.0089321173727512,0.0605123862624168,0.1209953414795351,0.136144985116506,2.044238420201144,-6.328548431396484,-23.73994827270508,-39.36676025390625,-0.00029716919788546676,1011.9934167825317
0.58629541015625,0.0653472091794014,0.0339254312817007,-0.0400859266728162,0.0014632064849138,0.0056266016326844,0.077848769724369,0.1210645206451005,0.1361689027052134,2.0449387983773177,-6.30794620513916,-23.791584014892575,-39.21270751953125,-0.00032366332891742245,1011.993417547429
0.596364013671875,0.0405424382686614,0.027903175317496,-0.0122352121949195,-0.0007220357656478,-0.0048750233836472,0.0863865315914154,0.1211222277529251,0.1361041668886657,2.0457503491305564,-6.190695762634277,-23.895233154296875,-38.96014404296875,-0.0003501581023870852,1011.9934183123448
0.60643212890625,-0.0036526772886514,-0.0141330817054957,-0.0115080669641494,0.0055289352312684,-0.0213972739875316,0.075041726231575,0.121231055073355,0.1359096914642436,2.0465520389230267,-6.528413772583008,-23.96949958801269,-39.003173828125,-0.00037665159098133416,1011.9934190772236
0.6165,-0.0746650726228952,-0.0511387972153723,-0.0089057755112648,-0.0001802295446395,-0.043103389441967,0.0573347024619579,0.1213493808633209,0.1355325250484366,2.0472153838545672,-6.665073394775391,-23.918132781982425,-38.972442626953125,-0.0004031444371378764,1011.9934198420839
0.6265693359375,-0.1237109892122447,-0.0732264181219041,0.0107294838070869,-0.0069297458976507,-0.0485942922532558,0.0371215753257274,0.1213707781353556,0.1350327734295151,2.047691770700535,-6.417510986328125,-23.792409896850582,-39.04244995117188,-0.00042964113792065957,1011.9934206070553
0.63663720703125,-0.1484654912404716,-0.074374930569902,0.0198842656433582,-0.0114815030246973,-0.0284592173993587,0.0197860673069953,0.1212989106737661,0.1346194215961259,2.04797192430913,-6.691353797912598,-24.00493431091309,-39.330963134765625,-0.0004561339840772018,1011.9934213719156
0.646705322265625,-0.1571880191393196,-0.0948937677897512,0.0299783741563558,-0.0077887643128633,-0.0111553277820348,0.0081379329785704,0.1211894166007863,0.1344359998842642,2.0481207654796525,-6.860879898071289,-23.79746437072754,-39.2313232421875,-0.00048262747267145077,1011.9934221367944
0.656774169921875,-0.1316844523094594,-0.0829457019731402,0.017141104415059,-0.0095148654654622,-0.0061230049468576,0.0027292291633784,0.1210794581190764,0.1343963884699114,2.0481845817900486,-6.460162162780762,-23.71385765075684,-38.986419677734375,-0.0005091228885788202,1011.9934229017288
0.66684228515625,-0.1118916643418371,-0.044642567063868,0.032635610666871,-0.0151610327884554,-0.0092173321172595,0.0044693388044834,0.120940697496222,0.1343433803373835,2.048227230069947,-6.541138648986816,-23.8760929107666,-38.56411743164063,-0.0005356163771730692,1011.9934236666076
0.67691015625,-0.08609320621863,-0.0119512806870043,0.0438601845145225,-0.0195788145065307,-0.0095573933795094,0.0070658712647855,0.1207634592414038,0.1342721120069626,2.0483142183504737,-6.542561531066895,-23.90582656860352,-38.83197021484375,-0.0005621092233296111,1011.9934244314678
0.686979248046875,-0.0605063450194895,-0.0187254509970545,0.0329138430863618,-0.0222214683890342,-0.0218034051358699,0.0076522999443113,0.1205748635319881,0.1341140594242174,2.048424153942217,-6.799491882324219,-23.869991302490234,-38.95037841796875,-0.0005886052816746879,1011.9934251964207
0.697047119140625,-0.0346847982816398,-0.0122618810061365,-0.0301829568177461,-0.023188728839159,-0.0292924828827381,0.0136097911745309,0.1203780492248944,0.1337919727411657,2.048552848848009,-6.765606880187988,-23.734542846679688,-39.00579833984375,-0.0006150981278312298,1011.993425961281
0.707114990234375,-0.0559179943159222,0.0128673726186156,-0.0392827935963869,-0.0216883048415184,-0.0194038972258567,0.0140875615179538,0.1202079663563552,0.1334619553005555,2.048730324028573,-6.594614028930664,-23.821407318115234,-38.81536865234375,-0.0006415909739877718,1011.9934267261413
0.717183349609375,-0.0815342277400195,0.0374229910738766,0.0047626843571662,-0.0164448171854019,-0.0207573119550943,0.0159731023013591,0.1200865545706715,0.1331837821527018,2.048914364535687,-6.462887763977051,-23.640832901000977,-38.902862548828125,-0.0006680851050197277,1011.9934274910386
0.727252197265625,-0.0806692814737558,0.0348205534905195,-0.0246083715558052,-0.0109909316524863,-0.0342574082314968,0.0107234790921211,0.1200190569314524,0.1328139402595079,2.049070662370099,-6.434577941894531,-23.554431915283203,-39.027923583984375,-0.0006945805209270971,1011.993428255973
0.7373203125,-0.0551676143400371,0.0203838857285678,-0.0407920291155576,-0.0038601942360401,-0.0386064238846302,0.0053983675315976,0.120011720225173,0.1323731159591513,2.0491563376269823,-6.373064994812012,-23.419906616210938,-39.54608154296875,-0.0007210740095213461,1011.9934290208517
0.74738818359375,-0.0502922633886337,0.0134206225872039,-0.0011585223853588,-0.0044175945222377,-0.0410778373479843,-4.14056703448e-05,0.120003506874129,0.1319298405046389,2.0491782239036573,-6.572273254394531,-23.4029598236084,-39.518096923828125,-0.0007475668556778884,1011.993429785712
0.757457275390625,-0.085479750495404,-0.0020207652378827,0.0488502478867769,-0.0127099240198731,-0.0397716350853443,-0.0091877747327089,0.1199390827865917,0.1314970716381593,2.0491641344359914,-6.391022682189941,-23.71038818359375,-39.399993896484375,-0.0007740629140229648,1011.9934305506649
0.767525146484375,-0.1398662974603474,-0.0242665723808109,0.09155307905972,-0.0295083448290824,-0.0258467644453048,-0.0258690174669027,0.1197290668953094,0.1311752373442889,2.0490145653761624,-6.450343132019043,-23.435518264770508,-39.042877197265625,-0.0008005557601795068,1011.9934313155252
0.77759326171875,-0.1729167725384235,-0.0255477712977677,0.1092944874554872,-0.0387705191969871,-0.0177685115486383,-0.0384540222585201,0.1193362260194427,0.1309964763266345,2.048733841775966,-6.670296669006348,-23.57878303527832,-38.9560546875,-0.0008270492487737558,1011.993432080404
0.787662109375,-0.153119746787101,-0.0126790104396641,0.0918377412199974,-0.0485637560486793,-0.0214471369981765,-0.052815917879343,0.1188290805561021,0.1308288496271024,2.04833629400669,-6.364177703857422,-23.713436126708984,-38.820098876953125,-0.0008535446646811255,1011.9934328453384
0.797730224609375,-0.0944188437543809,-0.0046929801218211,0.0649970805674791,-0.0568633377552032,-0.0257627293467521,-0.0603051781654357,0.1182047221533075,0.130613114981144,2.047828779962887,-6.454219818115234,-23.867982864379883,-38.89010620117188,-0.0008800381532753745,1011.9934336102172
0.807798095703125,-0.0262808348126709,-0.0079780662070959,0.0174497319728136,-0.0631119087338447,-0.0290986038744449,-0.0632325261831283,0.1175139926211093,0.1303799596097967,2.0472884650881733,-6.697948455810547,-23.70812225341797,-39.111602783203125,-0.0009065309994319164,1011.9934343750774
0.817867431640625,-0.0096510409206151,0.0122652420070022,-0.0124164139807224,-0.0631286278367042,-0.0292580053210258,-0.0623854845762252,0.11681158058039,0.13013462889995,2.046732132935687,-6.70998477935791,-23.58243560791016,-39.38351440429688,-0.0009330277002146998,1011.9934351400489
0.827935302734375,0.0307407368309795,0.0593417582195252,-0.0238923322409391,-0.0659172236919403,-0.0257769897580146,-0.0510851591825485,0.116114167102193,0.1298926202377277,2.046248337808591,-6.569733619689941,-23.648401260375977,-39.45037841796875,-0.0009595205463712418,1011.9934359049091
0.8380029296875,0.0610151713244616,0.0681935385212302,-0.0171247378021478,-0.0612132214009761,-0.0066708112135529,-0.0310084726661443,0.1154406309892086,0.1297535407731026,2.0459170648088563,-6.784137725830078,-23.364999771118164,-39.587738037109375,-0.000986012750090077,1011.9934366697508
0.8480712890625,0.0542037377439439,0.0720734486944973,-0.0003027823388576,-0.0483466945588588,-0.0006525996141135,-0.0125138852745294,0.1149019153767635,0.1297069830541204,2.045777070690308,-6.267692565917969,-23.55984878540039,-39.33126831054688,-0.0010125068811220328,1011.9934374346482
0.85814013671875,0.0729201286517083,0.0955843073371797,0.012687632137537,-0.0356785506010055,-0.0124229304492473,-0.0023622997105121,0.1145197440470763,0.1295916010306421,2.0457692182115266,-6.337433815002441,-23.500141143798828,-39.5682373046875,-0.0010390022970294024,1011.9934381995826
0.868208251953125,0.1065583404898643,0.0975241162933409,-0.008315992924571,-0.0315884687006473,-0.0286277346312999,-0.0021809383761137,0.1142119962435243,0.1293113242943979,2.045797947747935,-6.471977233886719,-23.425281524658203,-39.502838134765625,-0.0010654957856236515,1011.9934389644613
0.8782763671875,0.1114373447030782,0.0646618572637438,-0.0065285249859094,-0.0347695238888263,-0.0300800632685422,0.0045446273870766,0.1139107762913881,0.1289877110161862,2.045849479485033,-6.360905647277832,-23.47058486938477,-39.432861328125,-0.0010919892742179004,1011.9934397293401
0.88834521484375,0.0745642425969243,0.067200216634944,-0.0060837038278579,-0.0355863124132156,-0.0306675564497709,0.0070629124529659,0.1136030633694537,0.1286643957475115,2.04595307011227,-6.530879020690918,-23.41196823120117,-39.466217041015625,-0.0011184846901252697,1011.9934404942745
0.8984130859375,-0.0227994224376976,0.0908073021937161,-0.0479611900925636,-0.0429464466869831,-0.0232122242450714,-0.0055540692992508,0.1132154579940461,0.1283902046632439,2.046032344400571,-6.35421085357666,-23.765043258666992,-39.4296875,-0.001144977536281812,1011.9934412591348
0.9084814453125,-0.0731798025012016,0.0818962659854441,-0.0838256996780633,-0.0382459685206413,-0.0044752894900739,-0.0197945237159729,0.1127616592008514,0.1282702778405865,2.045961133380671,-6.355420112609863,-23.66540908813477,-39.57736206054688,-0.0011714716673137677,1011.9934420240321
0.918550048828125,-0.0538768438771367,0.0629461393870413,-0.1252554421752691,-0.0304974280297756,0.0152903292328119,-0.025170587003231,0.1123525780505474,0.1283727225889484,2.045761503045566,-6.371800422668457,-23.247657775878903,-39.518096923828125,-0.0011979664407834306,1011.993442788948
0.9286181640625,-0.0069061261266469,0.0782773448359221,-0.1144774430513382,-0.01673474162817,0.0201210360974073,-0.0147070288658142,0.1120678144824719,0.1286178902874705,2.045575315872472,-6.5348968505859375,-23.55820655822754,-39.0657958984375,-0.0012244599293776794,1011.9934435538268
0.938686279296875,0.0722629799172282,0.1078915618550032,-0.1039642323434352,0.0021631019189953,0.0063214055262506,0.0032655703835189,0.1119588906358875,0.1288010057629603,2.045520863331699,-6.570967674255371,-23.1729793548584,-39.275787353515625,-0.0012509534179719283,1011.9934443187055
0.94875537109375,0.1227133564770221,0.1097245494358241,-0.1148217264443635,0.0184715017676353,-0.0191120486706495,0.0221361964941024,0.1120548542937985,0.1287845895325215,2.045640127947728,-6.470829010009766,-23.28139877319336,-39.23748779296875,-0.0012774494763170049,1011.9934450836585
0.9588232421875,0.1377919754043221,0.0781198892518878,-0.0786298846006393,0.0177058428525924,-0.0438865795731544,0.0326934233307838,0.11226662940073,0.1284970713425425,2.045882972694682,-6.528783798217773,-23.53856658935547,-39.38739013671875,-0.001303942322473547,1011.9934458485187
0.96889111328125,0.1050837378926575,0.057292424474284,-0.0234258837729692,0.005588193424046,-0.046393945813179,0.0370045490562915,0.1124019817127858,0.1280281156108403,2.0462078537204245,-6.815110206604004,-23.62938690185547,-39.223663330078125,-0.001330435168630089,1011.993446613379
0.978960205078125,0.0459160941310226,0.0343958983376622,-0.0139507839411497,-0.0006627207621932,-0.0231956113129854,0.0357627049088478,0.1124324912850437,0.1276013544195938,2.046580737668251,-6.58640193939209,-23.59237098693848,-39.564300537109375,-0.0013569312269751655,1011.9934473783319
0.989028076171875,0.0079093118198215,0.0341088980898261,-0.0480249029785394,0.0043714521452784,0.0064134141430258,0.0310835279524326,0.1124490985430889,0.1274311856118832,2.046920893703526,-6.732861518859863,-23.67929458618164,-39.604827880859375,-0.0013834240731317078,1011.9934481431922
0.99909619140625,-0.0278944074891507,0.0423840475473552,-0.0753285049676895,0.0001202728599309,0.0356962345540523,0.0229482352733612,0.1124690848356294,0.1275904584431157,2.04718986096184,-6.939409255981445,-23.35714530944824,-39.758056640625,-0.0014099175617259564,1011.993448908071
1.009164306640625,-0.0562104013912379,0.0572406212218105,-0.0213566762834787,-0.0076010292395949,0.0538928173482418,0.0199668258428573,0.1124273675703412,0.1280268975182611,2.0474115653063376,-6.604247093200684,-23.534984588623047,-39.577392578125,-0.0014364110503202055,1011.9934496729497
1.019233154296875,-0.0538154690787196,0.0677614307142794,0.0253624047935009,-0.0123964985832571,0.0561279579997062,0.0200341660529375,0.1122939021873614,0.128597750138773,2.047622056161518,-6.519270896911621,-23.70542335510254,-39.02749633789063,-0.0014629064662275754,1011.9934504378841
1.029301025390625,-0.0306765855535864,0.0307139949545264,0.0563940873950719,-0.0162540860474109,0.0286662448197603,0.0154932104051113,0.1121160824937648,0.1290653735659112,2.047804329207884,-6.65233039855957,-23.632667541503903,-39.09356689453125,-0.001489399312384117,1011.9934512027444
1.039369384765625,-0.0141658879965543,-0.0060940790913999,0.067293082550168,-0.0244477167725563,-0.011115332134068,-0.0030158793088048,0.111886040766983,0.1291651683131881,2.047881398443691,-6.705341339111328,-23.568384170532227,-39.02310180664063,-0.0015158934434160727,1011.9934519676417
1.049438232421875,-0.0310113704659044,-0.0111988548845052,0.0424748676359653,-0.0222167856991291,-0.0193032212555408,-0.0101105403155088,0.1116079001877596,0.1290306501735567,2.047840421828516,-6.643831253051758,-23.563644409179688,-39.25924682617188,-0.0015423888593234425,1011.9934527325761
1.05950634765625,-0.0366067062549293,0.0094061993140727,0.0296837751239538,-0.0061765760183334,-0.0147372232750058,-0.005950663704425,0.1114344028885435,0.1288793961119411,2.047780771936832,-6.834176063537598,-23.40749740600586,-39.345977783203125,-0.0015688823479176918,1011.9934534974549
1.06957421875,-0.032680326591432,0.0316533216312527,-0.002064531314373,0.0073376353830099,-0.0016504502855241,-0.0071706576272845,0.1114140217630008,0.1287979808764802,2.047721167790462,-6.892061233520508,-23.48750877380371,-39.349456787109375,-0.0015953751940742333,1011.993454262315
1.079643310546875,-0.0150645904019474,0.0600917728692293,-0.017189619731903,0.0234165415167808,0.0115331653505563,-0.0042280708439648,0.1115376139531814,0.1288195560029978,2.0476573942665053,-6.734240531921387,-23.55180549621582,-39.58981323242188,-0.00162187125241931,1011.993455027268
1.089711181640625,0.0043185938514769,0.0868554958280175,0.0062239890813827,0.0243547745048999,0.0196954868733882,0.0053204270079731,0.1117503665954494,0.1289382199488314,2.047633381203834,-6.573406219482422,-23.77577209472656,-39.708526611328125,-0.0016483640985758524,1011.9934557921283
1.099779296875,-0.0149139298848807,0.0868919553808867,0.0563894112199544,0.0164494756609201,0.0181602127850055,0.0116743240505456,0.111938370232056,0.1291039845393563,2.047702073443124,-6.735177040100098,-23.510202407836918,-39.18450927734375,-0.001674857587170101,1011.9934565570071
1.10984814453125,-0.0105187636658549,0.0906450973693281,0.0804354727178811,-0.0021425830200314,0.0027743317186832,0.0095837414264678,0.1120163942077357,0.1291922373078431,2.047814644622892,-6.8085527420043945,-23.469091415405277,-39.872406005859375,-0.0017013530030774706,1011.9934573219415
1.119916015625,-0.0123930331051349,0.0702056089960038,0.0515314497947692,-0.0169357098639011,-0.007646472658962,0.0067244148813188,0.1119458726306971,0.1291529036942054,2.047918263230113,-6.758252143859863,-23.50718879699707,-39.606353759765625,-0.001727845849234013,1011.9934580868018
1.129984130859375,-0.0119308224208652,0.065139850039035,0.0496013585150241,-0.0272269621491432,-0.0005384958349168,0.0019363178871572,0.1117331464687153,0.1290864762176183,2.047980963713406,-6.606274604797363,-23.355863571166992,-39.201751708984375,-0.0017543393378282616,1011.9934588516804
1.14005224609375,-0.0109789285235106,0.0616875176280736,0.0441886858165264,-0.0271942801773548,0.0088945180177688,0.0033226991072297,0.111455683440848,0.1291078327101737,2.048028176436026,-6.804438591003418,-23.33080673217773,-39.377197265625,-0.001780832826422511,1011.9934596165592
1.150121337890625,-0.0024282500602304,0.0754290427327156,-0.0077630352169275,-0.0155520047992467,0.0157841145992279,0.0069451313465833,0.1112227973759301,0.1292106239956412,2.048121526169975,-6.837292671203613,-23.26027488708496,-39.4490966796875,-0.001807328884767587,1011.9934603815123
1.16018896484375,-0.0104513975180685,0.1098942069143056,-0.0256388836473226,0.0032589025795459,0.0085809426382184,0.0095828352496027,0.1111510039553277,0.1293275179679094,2.048217019276682,-6.618978500366211,-23.24020195007324,-39.34030151367188,-0.0018338210884864222,1011.9934611463539
1.17025732421875,-0.0192234636470675,0.1303711777538061,0.0057850131422281,0.0185861941426992,-0.0019912743009626,0.0127876820042729,0.1112407272513525,0.1293694111511426,2.048318200582273,-6.666059494018555,-23.38705062866211,-39.388580322265625,-0.001860315219518378,1011.9934619112512
1.180326171875,-0.0108078097403049,0.0984479531399905,0.0294318461894989,0.0267031528055667,-0.010887942276895,0.0182403903454542,0.1114658660379311,0.1292915520177225,2.048445584871825,-6.849267959594727,-23.67545890808105,-39.021484375,-0.0018868106354257477,1011.9934626761857
1.190394287109375,-0.0192446525655686,0.0314982772000134,0.0568523525565862,0.0244961902499198,-0.0100983157753944,0.0129492226988077,0.1117205605046106,0.1291618285799807,2.048586852674315,-6.785151481628418,-23.15089607238769,-39.37335205078125,-0.0019133041240199963,1011.9934634410645
1.20046240234375,-0.0622637100808322,-0.0328820597086101,0.0711830757260322,0.0192537475377321,0.005963915027678,0.0020363139919936,0.1119318142698421,0.1291260239278058,2.048637880028311,-6.761384010314941,-23.36174201965332,-39.06512451171875,-0.0019397976126142456,1011.9934642059432
1.21053125,-0.1305325057953596,-0.0413631070017814,0.1442699392467737,-0.0021101301535964,0.0180341601371765,-0.0178921204060316,0.1119828265931543,0.1292696295574236,2.048549870783724,-6.827287673950195,-23.383708953857425,-38.920654296875,-0.0019662930285216152,1011.9934649708777
1.22059912109375,-0.1492535728782415,-0.0393689375098794,0.1869867989450693,-0.0262313894927501,0.0200361870229244,-0.0353377759456634,0.1117882399679739,0.1295007610610646,2.0483120324996857,-6.705959320068359,-23.473926544189453,-38.814544677734375,-0.001992785874678157,1011.9934657357378
1.230667236328125,-0.0965804057024419,-0.0299292743176221,0.1418985339403152,-0.0467523783445358,0.009812575764954,-0.0420950166881084,0.11132889043514,0.1296952724569445,2.0479683622954195,-6.609807014465332,-23.39084815979004,-38.88653564453125,-0.002019279363272406,1011.9934665006166
1.240736328125,-0.0036148294962942,-0.0328569983325898,0.0303624050378799,-0.0408877432346344,-0.0025350141804665,-0.0326524898409843,0.1107674875711541,0.1297448296214634,2.047642402773911,-6.590224266052246,-23.429597854614254,-39.2261962890625,-0.0020457754216174824,1011.9934672655696
1.250803955078125,0.0640736821122467,-0.0007842822454869,-0.0628922172427177,-0.0252166353166103,-0.0197382345795631,-0.0203249864280223,0.1103427758771344,0.1296558496252421,2.047417243068257,-6.435319900512695,-23.411602020263672,-39.30889892578125,-0.0020722676253363175,1011.9934680304112
1.260872314453125,0.0821472450718283,0.0519751019090414,-0.1070522614866495,0.0039924625307321,-0.0516413561999797,-0.0073567610234022,0.110198180032747,0.129316548018805,2.047290537591088,-6.787374496459961,-23.270553588867188,-39.1708984375,-0.0020987617563682738,1011.9934687953086
1.270941162109375,0.071422145178914,0.0976577526103705,-0.1691612193971872,0.0264106877148151,-0.0647153481841087,-0.0088782254606485,0.1103407784952709,0.1287252716842619,2.047187006171466,-6.877333641052246,-23.425729751586918,-39.333099365234375,-0.002125257172275643,1011.993469560243
1.28100927734375,0.0641267274737358,0.0590050736110657,-0.1932850223064422,0.0422643013298511,-0.0564716346561908,-0.0102025754749774,0.1106891496554836,0.1280917815272857,2.047045684860253,-6.7856550216674805,-23.46759033203125,-39.40573120117188,-0.0021517506608698922,1011.9934703251218
1.2910771484375,0.0507708406858146,0.0308401786174625,-0.1521715061515569,0.0450241342186927,-0.0380255170166492,-0.0076733720488846,0.1111617037817905,0.1275916701619552,2.046909921447416,-6.752008438110352,-23.466012954711918,-39.132720947265625,-0.0021782435070264346,1011.993471089982
1.301145263671875,0.0274884570367634,0.0375006594199687,-0.0973521207273006,0.0264544934034347,-0.0258076507598161,-0.0180141516029834,0.1115226826341705,0.1272344940033696,2.046743855870781,-6.810122489929199,-23.39138984680176,-39.0802001953125,-0.0022047369956206832,1011.9934718548608
1.311214111328125,0.0261424492552876,0.0282755888264626,-0.0675239686965942,0.0006215646862983,-0.0040490925312042,-0.0211952961981296,0.1116509027976712,0.1270814631837121,2.046533809616279,-6.725503921508789,-23.365413665771484,-39.516143798828125,-0.002231232411528053,1011.9934726197952
1.3212822265625,0.0268101193837821,0.0292511558603495,-0.0477893406569957,-0.0217475742101669,0.0203112717717885,-0.0200469028204679,0.1115360426672075,0.1271965059429127,2.046334636791609,-6.788923263549805,-23.42709732055664,-39.3524169921875,-0.0022577259001223017,1011.993473384674
1.331350341796875,0.0303996683083474,0.0412387499697506,-0.0366337403923273,-0.0345637686550617,0.0306214336305856,-0.0157301854342222,0.1112306685432918,0.1275173728463352,2.0462002429963184,-6.7643022537231445,-23.361068725585938,-39.29513549804688,-0.002284219388716551,1011.9934741495528
1.341419189453125,0.0646060354232788,0.0516681548517197,-0.0942465559273958,-0.0281241349875926,0.0216262750327587,-0.0057636704295873,0.1108575463019658,0.1278433801598694,2.046119889241154,-6.76479434967041,-23.22739601135254,-39.022552490234375,-0.0023107148046239206,1011.9934749144873
1.351487060546875,0.1171354102142155,0.0556355971779674,-0.1552688876450061,-0.0073938239365816,0.0093807931989431,0.0063174939714372,0.1106197887771843,0.1280250524044633,2.046136166989202,-6.691109657287598,-23.32675170898437,-39.526885986328125,-0.002337207650780462,1011.9934756793474
1.36155517578125,0.1275898764722049,0.0535625902961939,-0.1643412518948316,0.0204001571983099,-0.0048279101029038,0.0183430761098861,0.1106680962735531,0.1280587881806103,2.0462448831226085,-6.677680969238281,-23.20293617248535,-39.184661865234375,-0.0023637011393747116,1011.9934764442262
1.371624267578125,0.1249041445195674,0.0773138335660099,-0.1679202794253826,0.0391874276101589,-0.023669509217143,0.0297539234161376,0.1109709360202999,0.1279075158620576,2.046438109046297,-6.697765350341797,-23.13397789001465,-39.116973876953125,-0.0023901971977197877,1011.9934772091792
1.381692138671875,0.1090158166445791,0.0791398068841546,-0.1701408780843019,0.0513936281204223,-0.036721371114254,0.0330596528947353,0.1114500102058328,0.1275920831872948,2.0466934164731807,-6.771815299987793,-23.46142578125,-39.17669677734375,-0.00241669004387633,1011.9934779740394
1.39176025390625,0.0819344791039824,0.044323710373044,-0.1665671112507581,0.0608326718211174,-0.034707486629486,0.0328439399600029,0.1120539087887549,0.127197962225064,2.0469509469271387,-6.473172187805176,-23.458221435546875,-39.611236572265625,-0.0024431835324705787,1011.9934787389182
1.401829345703125,-0.004625029452145,0.0396038422442972,-0.138976509013772,0.058935634791851,-0.0064298985525965,0.0272617973387241,0.112675168712066,0.1269663822815179,2.04717511843361,-6.825557708740234,-23.513702392578125,-39.29071044921875,-0.0024696795908156553,1011.9934795038712
1.4118974609375,-0.0758121968314051,0.0697680943615734,-0.0674023881435394,0.0467274412512779,0.027595181018114,0.0182797536253929,0.1132062321456522,0.1270627725775379,2.0473105826013147,-6.748967170715332,-23.440711975097656,-39.488372802734375,-0.002496173079409904,1011.9934802687499
1.42196533203125,-0.0694832860708236,0.050495823136717,0.0012017770051956,0.0428094342350959,0.0498638190329074,0.014003811404109,0.1136394224318169,0.1274670829830197,2.0474031573367006,-6.852811813354492,-23.37845802307129,-39.13278198242188,-0.0025226659255664463,1011.9934810336101
1.432034423828125,-0.0331190102696418,-0.0023786387648433,0.0505856933772563,0.0393273495137691,0.0685384348034858,0.0140325743705034,0.1140179975040732,0.128091774219277,2.047480004489553,-6.713277816772461,-23.557435989379883,-39.34146118164063,-0.002549161983911523,1011.9934817985632
1.442102294921875,0.0037831718005239,-0.0314150558959692,0.1365875680506229,0.0421657301485538,0.0773467943072319,0.019314806908369,0.1144012752926484,0.128862308734427,2.0475864077406047,-6.654582977294922,-23.46035385131836,-39.16107177734375,-0.0025756548300680648,1011.9934825634233
1.45217041015625,0.0477079459838569,-0.0592746843326836,0.2298217320650815,0.0373651161789894,0.0633739903569221,0.0210626386106014,0.1147671316267182,0.1296028790207203,2.047734017492613,-6.807392120361328,-23.501930236816406,-39.34259033203125,-0.002602148318662314,1011.9934833283021
1.4622392578125,0.0696180183663964,-0.0827883194543421,0.3071954791247844,0.0259232409298419,0.0205458104610443,0.0163387730717659,0.115056868266438,0.1300499397045486,2.047879473944818,-6.755913734436035,-23.394670486450195,-39.115966796875,-0.0026286437345696837,1011.9934840932366
1.4723076171875,0.0696837770789861,-0.0851037567898631,0.3560995030254125,0.0092742219567298,-0.022444799542427,0.0048847822472453,0.1152031886314368,0.1300608257482258,2.0479778847922456,-6.721013069152832,-23.50439071655273,-39.2939453125,-0.0028304833366321626,1011.9935072779439
1.482375244140625,0.0057918812744319,-0.0689332509726285,0.3499251983046531,-0.008089018985629,-0.0511016584932804,-0.0131682232022285,0.1151581026633937,0.1296570431854708,2.047949677236123,-6.561160087585449,-23.39748764038086,-39.5926513671875,-0.0032284103371294174,1011.9935555347313
1.492443115234375,-0.0745537212029099,-0.0396719390444457,0.3044587476372719,-0.0116062555462121,-0.0551038570702075,-0.0291567780077457,0.114982196847377,0.1290802682533977,2.0477453577391773,-6.782560348510742,-23.69100570678711,-38.89132690429688,-0.003626346987382964,1011.9936037926889
1.502512451171875,-0.106598087978363,-0.0131819915257394,0.2198223160982131,-0.0099935941398143,-0.0414919257164001,-0.0395568832755088,0.1147982913617334,0.1285996381995481,2.0474046607802734,-6.88348388671875,-23.43149757385254,-39.054962158203125,-0.004024341536174316,1011.9936520576678
1.512580322265625,-0.0935557971842586,0.0183182584356516,0.1558639309287071,-0.007982375100255,-0.0255478471517562,-0.0443769395351409,0.1146525337860259,0.1283007470979999,2.0469936797832857,-6.908758163452148,-23.399009704589844,-39.20574951171875,-0.004422278186427871,1011.9937003156253
1.5226484375,-0.0672765698067843,0.0538287669517099,0.1286111823439598,-0.0124363359063863,-0.0093573722988367,-0.040073212236166,0.1145344219760286,0.1281810012196133,2.046556302159538,-6.894577980041504,-23.447433471679688,-39.20770263671875,-0.004820224486437719,1011.9937485747532
1.53271728515625,-0.0337120077267289,0.0741421447273343,0.1336924311310053,-0.0206332802772521,0.0006872727535665,-0.0342057384550571,0.1143616369903273,0.1282201635857341,2.046185117744916,-7.075241088867188,-23.68967628479004,-39.1868896484375,-0.005218199735716468,1011.9937968373918
1.542785400390625,-0.0148757898315787,0.089009239795804,0.1232201369553804,-0.0231766626238822,0.0160623788833618,-0.0255253203213214,0.1141520470674901,0.1284047740930358,2.045908704499544,-6.864315032958984,-23.532791137695312,-39.30029296875,-0.005616146035726317,1011.9938450965195
1.552853271484375,0.0285056712552905,0.0616556611850857,0.0775444274514913,-0.0266606099903583,0.0140522252768278,-0.015250046737492,0.1139247596766291,0.1286350970004512,2.045726756515243,-6.886787414550781,-23.396358489990234,-39.21994018554688,-0.006014082685979872,1011.9938933544771
1.56292236328125,0.025940204681456,0.0475351467002183,0.0509375755548477,-0.0341778770089149,0.0026188273914158,-0.0183427464216947,0.1136427128412457,0.1287415641699238,2.0455970005722754,-6.826889991760254,-23.593923568725582,-39.22186279296875,-0.006412067585014914,1011.9939416182858
1.572990234375,0.0055117491587996,0.0368489905782043,0.0468032522290945,-0.0442864373326301,-0.0131121985614299,-0.0244009047746658,0.1132524251079702,0.1286819025594006,2.0454442238437243,-7.072274208068848,-23.58010482788086,-39.601409912109375,-0.006810004235268469,1011.9939898762434
1.583058349609375,0.0158738609582185,0.0099224052079021,0.0312765972733497,-0.0507607646286487,-0.0298910159617662,-0.034541118890047,0.1127618479576868,0.1284850641698901,2.04522256680431,-6.785519599914551,-23.60123634338379,-39.630950927734375,-0.007207950535278326,1011.9940381353713
1.59312744140625,0.0376909943602979,-0.0236633457906544,0.0017757775008678,-0.0478651113808155,-0.0433101505041122,-0.0425324663519859,0.1122175272077875,0.1281395984445955,2.044910174960492,-6.757329940795898,-23.578737258911133,-39.70501708984375,-0.007605935434313368,1011.99408639918
1.603195556640625,0.0478854945078492,-0.0127897773377597,-0.0500555320233106,-0.0462358370423316,-0.0537610091269016,-0.0514386184513568,0.1116749797817926,0.1276962802019006,2.0445030792121925,-6.599145889282227,-23.461612701416016,-39.28802490234375,-0.008003881734323225,1011.9941346583078
1.613263427734375,0.0901382438257336,0.0352441126648336,-0.1212450374901294,-0.0394833907485008,-0.0681063905358314,-0.0454686097800731,0.1111683136281962,0.1271415644686212,2.04406944039804,-6.683065414428711,-23.432567596435547,-39.22955322265625,-0.008401818384576772,1011.9941829162653
1.623332275390625,0.1338183955982327,0.083669632333517,-0.1736310582876205,-0.0325706079602241,-0.0743682384490966,-0.0339308492839336,0.1107325605808737,0.1264403209588366,2.0437016795583087,-6.55545711517334,-23.33545684814453,-39.528594970703125,-0.008799793633855522,1011.9942311789039
1.633400390625,0.1890320410370826,0.096143767850846,-0.2111930194407701,-0.0273039396852254,-0.0650168135762214,-0.018986253067851,0.1103850283484197,0.1257702769957252,2.0434665898650684,-6.908468246459961,-23.680587768554688,-39.46652221679688,-0.009197739933865377,1011.9942794380318
1.64346826171875,0.2076655029017478,0.0951010538648814,-0.2446931379824876,-0.0196151807904243,-0.0439473427832126,8.414499461650848e-07,0.1101245177787508,0.1252478852480964,2.0434019779168437,-6.750470161437988,-23.340669631958008,-39.312103271484375,-0.009595676584118924,1011.9943276959893
1.653537353515625,0.2092242766510695,0.0853325971096754,-0.2658896552681922,-0.0054194666445255,-0.0109742134809494,0.0123014505952596,0.1099820555048203,0.1249609607925832,2.0434906172638847,-6.764798164367676,-23.26141357421875,-39.5123291015625,-0.009993661483153976,1011.994375959798
1.663605224609375,0.1921765496078878,0.0638801323015242,-0.2426847207695245,0.0049565210938453,0.0284901838749647,0.02114874497056,0.1100071850546663,0.1250530108723751,2.04366829187688,-6.467114448547363,-23.39480209350586,-39.509063720703125,-0.010391598133407532,1011.9944242177556
1.67367333984375,0.169875797407329,0.0035727439202368,-0.1553425374031067,0.006026579067111,0.0532160364091396,0.0215098708868026,0.1101142967324992,0.1254882301428765,2.043880608621649,-6.565146446228027,-23.183422088623047,-39.22628784179688,-0.010789544433417378,1011.9944724768834
1.6837412109375,0.1311776718311011,-0.065099298832938,-0.0814151314049959,-0.0024224109947681,0.0537231713533401,0.0140424668788909,0.1101768963322842,0.1260401701041531,2.044043307122192,-6.404866218566895,-23.283660888671875,-39.06509399414063,-0.011187481083670934,1011.994520734841
1.693810546875,0.1137920911356806,-0.1141675733845681,-0.0059621232748031,-0.0071154329925775,0.0398917756974697,0.003734434954822,0.1101321594034415,0.1265376057622807,2.044136946644474,-6.65667724609375,-23.50539207458496,-39.287353515625,-0.011585475632462277,1011.99456899982
1.70387841796875,0.1141556637510657,-0.129004638640955,0.0600303980708122,-0.0147301750257611,0.02001428976655,-0.006436145864427,0.1099916428936873,0.1269003859914413,2.0441316074741964,-6.712407112121582,-23.45809364318848,-39.2421875,-0.011983412282715832,1011.9946172577776
1.7139462890625,0.1048809087969362,-0.1343294869255274,0.0495890835553407,-0.0183403566479682,-0.0009730160236358,-0.0127915134653449,0.1097677463679743,0.1270671929439733,2.0440513962152145,-6.847078323364258,-23.310585021972656,-38.993743896484375,-0.01238134893296938,1011.9946655157352
1.724015380859375,0.1054912957802414,-0.1100287200141698,0.0053361003309488,-0.0078542474657297,-0.0074401800520718,-0.0150223858654499,0.1095589231265184,0.1270939690244523,2.043921368069153,-6.662175178527832,-23.286962509155277,-39.20965576171875,-0.012779333832004431,1011.9947137795439
1.73408349609375,0.1214883447267115,-0.0981424673873931,-0.0265016379565,0.0109082553535699,-0.0011961325071752,-0.0154831130057573,0.1094888291607106,0.1271254155147571,2.0437642731842227,-6.693952560424805,-23.25232696533203,-39.29095458984375,-0.013177280132014278,1011.9947620386718
1.7441513671875,0.1367258074775338,-0.0819460234113037,-0.0206225167900323,0.0177570115774869,-0.0131855765357613,-0.0112297963351011,0.1095845872881077,0.1271293971272792,2.043613225134738,-6.628984451293945,-23.14491081237793,-39.51632690429688,-0.013575216782267833,1011.9948102966293
1.754220458984375,0.1380320677705109,-0.0542379322744905,-0.0024567455023527,0.0254697911441326,-0.017879132181406,-0.004875760525465,0.1097867292649881,0.1270281016882839,2.043504872080564,-6.447432518005371,-23.099353790283203,-39.220245361328125,-0.013973201681302885,1011.994858560438
1.764288330078125,0.0966094856664538,-0.0706605862218886,0.0312327581316232,0.0280717834830284,-0.0183876305818557,-0.0079354271292686,0.1100669011226952,0.1268899687280283,2.0434038576426063,-6.505215644836426,-23.284088134765625,-38.91769409179688,-0.01437113833155643,1011.9949068183956
1.774356201171875,0.0571593726791441,-0.0850450123399496,0.0715910720050335,0.0187270175665617,-0.0134208360686898,-0.0084715215489268,0.1103566143349344,0.1267955964689129,2.043287939847644,-6.721467971801758,-23.33059501647949,-39.2408447265625,-0.014769074981809986,1011.9949550763532
1.784425537109375,0.0088749419815838,-0.1188836421210318,0.0765460640639066,0.0102293193340301,-0.0097005637362599,-0.0138799082487821,0.1105540802571462,0.1267314366077628,2.0431552929555035,-6.891421318054199,-23.30661964416504,-38.811065673828125,-0.01516706953060133,1011.9950033413321
1.794493408203125,-0.0480579284653067,-0.1219064240083098,0.100044428551197,0.0033594295382499,0.002820820081979,-0.0179273802787065,0.1106431221582844,0.1267709650193944,2.04297953650272,-6.699389457702637,-23.278705596923828,-39.114654541015625,-0.015565006180854884,1011.9950515992897
1.804561279296875,-0.0749418437376618,-0.1091534715496003,0.1061649572581052,0.0016068201512098,0.0045460578985512,-0.0218809619545936,0.1106772884930017,0.1268745172527726,2.042784240817607,-6.9124603271484375,-23.30880355834961,-38.890625,-0.01596294283110844,1011.9950998572473
1.814630126953125,-0.0555514990910887,-0.1078288718823343,0.0867629221737384,0.0023085633292794,-0.0088999755680561,-0.0315639488399028,0.110690369980668,0.1269430994982038,2.0425075032097157,-6.563490867614746,-23.394514083862305,-38.909576416015625,-0.016360918080387192,1011.9951481198858
1.824698486328125,-0.0352145212441682,-0.1381901809416711,0.0977232921272516,0.0022747404873371,-0.0227175205945968,-0.0421201847493648,0.110707274782804,0.1268983306573349,2.0421349648907023,-6.8289289474487305,-23.213031768798828,-38.94692993164063,-0.01675887403015334,1011.9951963801839
1.834766357421875,-0.0359856517471373,-0.1420235485594719,0.1314928752601146,-0.0047530755400657,-0.0343435518443584,-0.046800423413515,0.1106670943413383,0.1267298874067748,2.041686349012595,-6.780905723571777,-23.426868438720703,-39.1422119140625,-0.017156810680406896,1011.9952446381415
1.844835205078125,-0.0322742300085723,-0.1332143652904778,0.1508820508629083,-0.0128496345132589,-0.0541196949779987,-0.0512517839670181,0.1105576276609244,0.1263909079704496,2.0412035938577104,-6.499829292297363,-23.542570114135746,-38.973419189453125,-0.017554785929685637,1011.99529290078
1.8549033203125,-0.0022036475241184,-0.1458048206638544,0.1235451311260461,-0.0136427227407693,-0.0615784078836441,-0.0580481700599193,0.1104019577909855,0.1258787199890612,2.040669172067569,-6.44032096862793,-23.27696990966797,-38.678985595703125,-0.017952732229695494,1011.9953411599078
1.864971435546875,0.0197561092190444,-0.1502739289019256,0.0800946964561939,-0.0100002232939004,-0.0672089755535125,-0.0643582418560981,0.1102658455373246,0.1253081004973163,2.040083885180079,-6.419389724731445,-23.288028717041016,-39.04254150390625,-0.01835067852970534,1011.9953894190356
1.875040283203125,0.0406944870252162,-0.1412794521939009,0.0362912105649709,-0.0096055418252944,-0.0524108484387397,-0.0718180239200592,0.1101446968850734,0.1247659941572625,2.03941780963504,-6.57707405090332,-23.542200088500977,-38.990753173828125,-0.018748653778984093,1011.9954376816742
1.885108642578125,0.0737087948113679,-0.1428879103038459,-0.0099357030808925,-0.0054833311587572,-0.0391247645020484,-0.0754138380289077,0.1100257300962111,0.1243678366736869,2.038685180397549,-6.631590843200684,-23.57870101928711,-38.94476318359375,-0.01914660972875024,1011.9954859419721
1.89517626953125,0.0997572821728885,-0.1369710144102573,-0.0393967753648757,-0.0034060645848512,-0.0161438155919313,-0.0740455090999603,0.1099419380959464,0.1241798370468785,2.03793947112825,-6.324342727661133,-23.137266159057617,-39.05874633789063,-0.019544536729247493,1011.9955341987595
1.905244140625,0.1078982107914984,-0.1219829233106225,-0.0328349326312541,-0.0061334427446126,-0.0095198191702365,-0.0769912675023078,0.1098830265820235,0.1241263588585039,2.037193805282038,-6.467333793640137,-23.33870506286621,-39.0301513671875,-0.01994247337950105,1011.9955824567171
1.9153134765625,0.1196983195047825,-0.0986794968735426,-0.0212719206094741,-0.015952518209815,-0.0163910407572984,-0.0764304026961326,0.1097561073672836,0.1240803981102315,2.03643843498605,-6.568930625915527,-23.468584060668945,-39.3714599609375,-0.020340467928292392,1011.9956307216961
1.92538134765625,0.116768914989382,-0.1034988798540085,-0.0383697704046964,-0.0254314560443162,-0.0261063929647207,-0.0759593769907951,0.1095226683547753,0.1239468855711347,2.0357090663358526,-6.502047538757324,-23.29357147216797,-39.68603515625,-0.02073840457854595,1011.9956789796537
1.935449462890625,0.1185264992464333,-0.1096890397310256,-0.0674567486792802,-0.0259387884289026,-0.034172311425209,-0.0826681405305862,0.1092407156927702,0.1237458753544214,2.034944990014385,-6.766314506530762,-23.486610412597656,-39.1866455078125,-0.021136350878555796,1011.9957272387815
1.945518310546875,0.1257592269789427,-0.0917013284239918,-0.1480143864721059,-0.0156577862799167,-0.0337967835366725,-0.0855705067515373,0.1089983093777452,0.1235053684337746,2.0341214073203404,-6.548880577087402,-23.507089614868164,-39.095001220703125,-0.021534326127834548,1011.99577550142
1.95558642578125,0.1344747406151145,-0.0666955550484359,-0.2147849064528942,0.003400326706469,-0.0093566859140992,-0.0774244293570518,0.1088925338821612,0.1233764154623563,2.033311589875471,-6.370687484741211,-23.37241744995117,-39.3065185546875,-0.0219322724278444,1011.9958237605478
1.965654296875,0.1562947235614061,-0.045119098534435,-0.2078174055278301,0.0215438604354858,0.0019525690004229,-0.0626491233706474,0.1090029212167663,0.1234580482032181,2.03259482489452,-6.419907569885254,-23.40767288208008,-39.3739013671875,-0.02233020907809795,1011.9958720185053
1.975723388671875,0.1532234994225204,-0.0238848795868456,-0.1840653585404157,0.0349052064120769,0.0060474453493952,-0.0509455986320972,0.1092931069094193,0.1236093226623909,2.03197865312543,-6.484905242919922,-23.669124603271484,-39.03268432617188,-0.022728193977133,1011.9959202823142
1.985791259765625,0.1460321996789425,-0.0076713383454829,-0.1363414843350648,0.0408109501004219,0.006994301918894,-0.0463759154081344,0.1096669294832684,0.1237854937776596,2.0314467175669964,-6.286360740661621,-23.527912139892575,-39.40130615234375,-0.023126130627386558,1011.9959685402717
1.995859375,0.1195589110340923,-0.0284540871985256,-0.047512861803174,0.0449324548244476,0.0064677954651415,-0.0479277409613132,0.1100831435767816,0.1239600785709275,2.0309254131222776,-6.328173637390137,-23.50941276550293,-39.167572021484375,-0.023524076927396404,1011.9960167993995
2.00592822265625,0.1119911061283201,-0.0351123760439455,0.0103244101375341,0.0503138601779937,0.0021880152635276,-0.0520425997674465,0.1105360863360817,0.1241144407892575,2.03036580031641,-6.241338729858398,-23.639068603515625,-39.342559814453125,-0.023922052176675146,1011.996065062038
2.01599658203125,0.1022661962538957,-0.0463686602041125,0.0641290655612945,0.0512704625725746,7.418449968e-06,-0.0597010515630245,0.1110239388425729,0.1242293646817601,2.0297367426872936,-6.415328979492188,-23.541889190673828,-39.1678466796875,-0.02432000812644131,1011.9961133223361
2.026064453125,0.109508933923766,-0.0504098984189331,0.138538117596507,0.0395668856799602,-0.0032050113659352,-0.0582226440310478,0.111438390034897,0.1243217701863524,2.0290610680696157,-6.433475494384766,-23.36285781860352,-39.09100341796875,-0.024717944776694856,1011.9961615802937
2.03613330078125,0.1247645168531686,-0.0746217449378222,0.2066460236608982,0.0203521773219108,-0.0121380519121885,-0.0558734685182571,0.1116717267747856,0.1243412907587493,2.0284351942657786,-6.456313133239746,-23.448017120361328,-38.97628784179688,-0.02511592002597361,1011.9962098429321
2.046201416015625,0.1508076704524457,-0.1023158806145191,0.2682628141403198,-0.0007747616618871,-0.0319585278630256,-0.0463231466710567,0.1116859375135128,0.1242325275804431,2.02791036535445,-6.629958152770996,-23.501300811767575,-39.1251220703125,-0.025513866325983455,1011.99625810206
2.056269287109375,0.1657002652883529,-0.1551963338654488,0.2646335177272558,-0.0132948141545057,-0.0518850982189178,-0.044669859111309,0.1115417547431561,0.1238974550629683,2.027460060044481,-6.503959655761719,-23.383848190307617,-38.9326171875,-0.025911802976237002,1011.9963063600176
2.06633837890625,0.1715414655972272,-0.1502558087233454,0.2217722811222076,-0.0111865419894456,-0.0685421675443649,-0.048381607979536,0.1113424134838688,0.123383554036935,2.0270077035420515,-6.474223136901856,-23.26491355895996,-38.791290283203125,-0.026309787875272054,1011.9963546238263
2.07640625,0.1406575939685106,-0.1350415807176381,0.1759942802876234,-0.0041083917021751,-0.0789721757173538,-0.0543779805302619,0.1111992157134082,0.1227533317735398,2.0264853896528248,-6.253313064575195,-23.26754570007324,-38.87579345703125,-0.0267077245255256,1011.9964028817839
2.086474365234375,0.1363182495899498,-0.1353760733690112,0.1323205582559108,0.0051368232816457,-0.0862230286002159,-0.0581594891846179,0.1111341881444713,0.1220408288248168,2.025906063756322,-6.334498405456543,-23.46129035949707,-38.59735107421875,-0.027105670825535465,1011.9964511409116
2.096543212890625,0.1219676526762545,-0.1427433872666209,0.1059381627649068,0.0119467927142977,-0.0908425524830818,-0.0670320764183998,0.1111766478313651,0.1212819763573908,2.025254352782612,-6.612929344177246,-23.36990547180176,-39.31362915039063,-0.027503646074814217,1011.9964994035502
2.106611572265625,0.0926139132242649,-0.1384736009929329,0.1285579908519983,0.0069374535232782,-0.0802302211523056,-0.080407477915287,0.111215560129206,0.1205890676339513,2.024486653557433,-6.180136680603027,-23.375925064086918,-38.75946044921875,-0.027901602024580363,1011.9965476638482
2.116679443359375,0.0720282213132828,-0.1313004214279353,0.1183463934391736,-0.0017223469913005,-0.0721224993467331,-0.0838581323623657,0.1111838781673144,0.1200097668759417,2.023651000758272,-6.267834663391113,-23.55039405822754,-38.892669677734375,-0.02829953867483391,1011.9965959218058
2.126747314453125,0.0823632989753037,-0.1250600657336413,0.0841617997646331,-0.0127902626991271,-0.0597406029701232,-0.0914440900087356,0.1110564918833662,0.1195430914011416,2.022771155834089,-6.290251731872559,-23.353816986083984,-39.048828125,-0.028697475325087457,1011.9966441797634
2.136816162109375,0.0886240398705005,-0.1589097283653915,0.064866732186079,-0.0121614895761013,-0.0360917337238788,-0.0975019782781601,0.1109150737869801,0.1192808058221246,2.021817225371432,-6.359114646911621,-23.446752548217773,-39.00445556640625,-0.029095450574366206,1011.9966924424019
