Timestamp,Acc x (m/s^2),Acc y (m/s^2),Acc z (m/s^2),Gyro x (rad/s),Gyro y (rad/s),Gyro z (rad/s),Beccheggio/Pitch (rad/s),Rollio/Roll (rad/s),Imbardata/Yaw (rad/s),Mag x (microTesla),Mag y (microTesla),Mag z (microTesla),Altitudine (m),Pressione (milliBar)
0.0783876953125,0.0137068921826779,-0.1538270182736218,0.1390238552868366,-0.1925484389066696,0.0093590896576642,0.0431192219257354,0.2037849036657796,0.0837283267306171,2.050445623397485,-7.876546859741211,-26.22644805908203,-36.42547607421875,-0.004639948461374265,1011.9428903722285
0.08845556640625,0.1004749289229512,-0.1254592941842973,0.1044417867273092,-0.1877825409173965,-0.0320914462208747,0.0542656742036342,0.201924494423111,0.0834640419468869,2.0511001862578504,-8.015935897827148,-25.73980712890625,-36.222900390625,-0.004719588431011261,1011.942898036366
0.098524169921875,0.1263321314960718,-0.0992743209615349,0.0450754055231809,-0.171402245759964,-0.0595233365893363,0.0667633563280105,0.2001646313528852,0.0828434769997431,2.0518611832009284,-8.001832008361816,-25.921297073364254,-36.4337158203125,-0.004799234194331484,1011.9429057010612
0.108592529296875,0.1261426002733409,-0.1072195808775722,-0.0535001195192337,-0.1512270122766494,-0.0547197610139846,0.087054967880249,0.198606427486959,0.082071856106366,2.0527841229770694,-7.89875602722168,-25.961231231689453,-36.53021240234375,-0.004878878026423966,1011.9429133655705
0.11866162109375,0.1195999736968427,-0.1320278589196503,-0.1055856960654258,-0.1202936023473739,-0.0400910191237926,0.1076292172074318,0.1973335608080614,0.0813907935844321,2.0538986736529794,-7.996208190917969,-26.141719818115234,-36.263031005859375,-0.004958527652199674,1011.9429210306373
0.1287294921875,0.0593457768075168,-0.1318590782240033,-0.1220481705665588,-0.0976519584655761,-0.035338144749403,0.1134488880634307,0.1964486584474916,0.0806844030130485,2.055156982520861,-8.163494110107422,-25.887210845947266,-36.12847900390625,-0.00503816762183667,1011.9429286947749
0.13879736328125,-0.0314754077810794,-0.1472397488377988,-0.0961982745170593,-0.0854219198226928,-0.0199647806584835,0.1000143066048622,0.1957519280736894,0.0801260656749285,2.05634677841539,-8.06006145477295,-26.04833221435547,-36.694183349609375,-0.005117807591473668,1011.9429363589124
0.148866455078125,-0.0619300211470574,-0.1968016521252691,0.0052408232629299,-0.0971445143222808,-0.0236342810094356,0.0863415598869323,0.1950642002876376,0.079701991289669,2.057382929014786,-8.129718780517578,-25.872846603393555,-36.564971923828125,-0.0051974572172493756,1011.9429440239793
0.158934326171875,-0.0663921881876885,-0.2513920510992408,0.0802612851947545,-0.1377659738063812,-0.028801079839468,0.0588097982108593,0.1940872449661982,0.0793094025607494,2.0582367153146524,-8.166877746582031,-25.752166748046875,-36.6014404296875,-0.005277097186886372,1011.9429516881169
0.16900341796875,-0.1015618473768234,-0.3192185098737478,0.1583522406131029,-0.1772729009389877,-0.0327528119087219,0.0424293167889118,0.192652557390402,0.0789444939248386,2.058876338162558,-8.133605003356934,-25.56515121459961,-36.93853759765625,-0.005356746812662082,1011.9429593531837
0.1790712890625,-0.1268549132611602,-0.3222207604296505,0.1172059912323951,-0.1947885155677795,-0.040753211826086,0.0255675129592418,0.1908795950487015,0.0785591598317051,2.0593555276582003,-8.364352226257324,-25.497556686401367,-37.126708984375,-0.005436386782299078,1011.9429670173213
0.189140380859375,-0.1149516364343464,-0.2810619438283145,-0.040882630008459,-0.1816311776638031,-0.0481882281601429,0.0097296144813299,0.189078024441269,0.078102610688865,2.0596750028591666,-8.25545597076416,-25.54364013671875,-37.01898193359375,-0.005516036408074786,1011.9429746823881
0.19920849609375,-0.0642700814671814,-0.2301398581035435,-0.1780003594130277,-0.155411034822464,-0.0377984382212162,-0.00607171934098,0.1874672691134452,0.0777094660331969,2.05981253945082,-8.212532043457031,-25.574352264404297,-36.926361083984375,-0.005595678308939525,1011.9429823467116
0.20927734375,-0.0097184801336377,-0.1911208300098776,-0.2511690559983253,-0.12207942456007,-0.0141105502843856,-0.0059284521266818,0.1861590471470007,0.0774790613125375,2.059842451926877,-8.261761665344238,-25.097484588623047,-36.78704833984375,-0.00567532600348749,1011.9429900115925
0.21934521484375,0.0225435479804873,-0.1599744349874556,-0.2705687529951334,-0.0889504998922348,-0.0115062445402145,0.0021092342212796,0.1851831800540861,0.0773620401851559,2.0599011606139728,-8.323301315307617,-25.529930114746094,-37.17523193359375,-0.005754965973124487,1011.9429976757302
0.22941455078125,0.0567546643357723,-0.1301160339489579,-0.2854991956233978,-0.0600280351936817,-0.0182243026793003,0.0049690920859575,0.1845706233874687,0.0771877240932668,2.060000896237037,-8.249089241027832,-25.16985511779785,-37.191680908203125,-0.0058346175301279375,1011.9430053409828
0.239482421875,0.0643193274363875,-0.1350542210035026,-0.2324947506666183,-0.0525623969733715,-0.0342072620987892,-0.0009362013079226,0.1841670369022058,0.0769086491669985,2.060068631638494,-8.214202880859375,-25.25871086120605,-36.80636596679688,-0.005914257499764934,1011.9430130051204
0.249550537109375,0.0764656192388385,-0.1806668021433055,-0.1855225716114044,-0.0590306930243968,-0.0414561554789543,-0.0091091487556695,0.1837662873686233,0.076479955524423,2.0600596905628183,-8.285543441772461,-25.38394546508789,-37.32135009765625,-0.005993899400629674,1011.9430206694439
0.259619384765625,0.0908170929353684,-0.1965815796338021,-0.1379091720432043,-0.066847339272499,-0.034614760428667,-0.0117813646793365,0.1832486163669641,0.0760693533732342,2.060004984805525,-8.245427131652832,-25.1392879486084,-37.326446533203125,-0.006073547095177639,1011.9430283343248
0.2696875,0.086725001316145,-0.158891900447756,-0.1110392852962017,-0.0703588873147964,-0.0273223258554935,-0.0183821562677621,0.1826569875946659,0.0757551839974114,2.059916084354711,-8.324612617492676,-25.187658309936523,-37.10073852539063,-0.006153188996042379,1011.9430359986483
0.279756591796875,0.0861118378538638,-0.1155740061163902,-0.1127747307866811,-0.0765211731195449,-0.0301367547363042,-0.0207049660384655,0.1819818124135809,0.0754671777684563,2.0597788615689145,-8.510932922363281,-25.020721435546875,-37.3199462890625,-0.006232838621818086,1011.9430436637151
0.289824462890625,0.0856520383223891,-0.1417128021098673,-0.1270318041980266,-0.076298713684082,-0.0209085009992122,-0.0162515640258789,0.1812576095485503,0.0752248982173536,2.059637874617539,-8.358369827270508,-25.059370040893555,-37.354583740234375,-0.0063124785914550835,1011.9430513278527
0.299893310546875,0.070489175177738,-0.1468254689484834,-0.1376782858967781,-0.0768073797225952,0.00331028457731,-0.0226143859326839,0.1805259682521797,0.0751732919595865,2.0595046690726657,-8.425146102905273,-25.12112808227539,-37.15771484375,-0.00639212628600305,1011.9430589927337
0.30996142578125,0.0518975796934217,-0.1150951365582644,-0.1814513766497373,-0.0688850060105323,0.0210996344685554,-0.0391567684710025,0.1798132493974821,0.0753539451534551,2.059247659636962,-8.271820068359375,-24.90146827697754,-37.0615234375,-0.006471768186867788,1011.9430666570571
0.320030517578125,0.0597191401645541,-0.0743533763252198,-0.241740133395791,-0.0485062338411808,0.0378921963274478,-0.0501265972852706,0.1792125991507386,0.0757458482979662,2.0588348535424745,-8.363049507141113,-25.036836624145508,-37.08197021484375,-0.006551417812643497,1011.943074322124
0.330098388671875,0.1016330129168927,-0.019772621962428,-0.2730231604099273,-0.0226316656917333,0.0298024117946624,-0.0510155707597732,0.1788521281607346,0.0762058430160469,2.0583458645624564,-8.229116439819336,-24.877063751220703,-36.946136474609375,-0.006631057782280493,1011.9430819862615
0.34016748046875,0.1192874736815691,0.0464649601854383,-0.274150118613243,-0.0065285954624414,0.0024168617092072,-0.0431139692664146,0.1787072085786045,0.0764529514987358,2.0578898459809785,-8.350359916687012,-24.97915267944336,-36.93817138671875,-0.0067107074080562015,1011.9430896513284
0.350235595703125,0.1715824551947414,0.074641107225418,-0.2339958028793334,0.0011064214631915,-0.021047718822956,-0.0311041790992021,0.1786807783674741,0.0764451558800372,2.0575064640999408,-8.05866527557373,-25.01105690002441,-36.8470458984375,-0.00679034930892094,1011.9430973156518
0.36030419921875,0.2038490133535117,0.0896222571276128,-0.2063946792483329,0.0111859533935785,-0.0362780690193176,-0.0179534889757633,0.1787445931559843,0.076202947347021,2.0572470855436307,-8.319684982299805,-25.038837432861328,-37.105316162109375,-0.006869995072241164,1011.9431049803469
0.37037255859375,0.1774349075499922,0.0836813227713108,-0.2055313404172658,0.0175292510539293,-0.0346807055175304,-0.0135027859359979,0.1789042645467036,0.0758711180203899,2.0570758516490883,-8.183906555175781,-25.0351505279541,-37.1414794921875,-0.0069496389043336455,1011.9431126448562
0.38044140625,0.1341224931113422,0.0994090532571077,-0.1740735413581133,0.0325350984930992,-0.0220272280275821,-0.0088611617684364,0.1791695335507337,0.0756018314124981,2.0569378476559312,-8.279397964477539,-25.04145812988281,-37.36712646484375,-0.007029286598881611,1011.9431203097372
0.390509521484375,0.1284991002716124,0.1203540799997746,-0.1259305649578571,0.0491671524941921,-0.0101247299462556,-0.0021693096496164,0.1795878015968404,0.0754766240472915,2.0568419409032828,-8.16234302520752,-25.0175895690918,-36.78204345703125,-0.00710892849974635,1011.9431279740606
0.40057763671875,0.1724718052498996,0.1203789221800863,-0.069943304798007,0.0623023957014083,-0.0220423750579357,0.0117148142307996,0.1801487057323086,0.0753309490472176,2.0568415588656,-8.269647598266602,-25.006540298461918,-36.53955078125,-0.0071885704006110895,1011.9431356383841
0.410646484375,0.1832081571891903,0.1109992455467581,-0.0271516262978315,0.065785989165306,-0.0456985384225845,0.0227509625256061,0.1808050730492111,0.074986115778287,2.056961768629173,-8.339037895202637,-24.87564468383789,-37.362579345703125,-0.007268218095159055,1011.9431433032651
0.42071435546875,0.144844305068627,0.1162846386037766,0.0620662878125906,0.0706803426146507,-0.0476594232022762,0.0284522585570812,0.1814926133131794,0.0745036423303933,2.057176252168397,-8.210919380187988,-25.033842086791992,-37.08770751953125,-0.007347858064796052,1011.9431509674026
0.43078369140625,0.0986431834511458,0.0980854034379124,0.1684299825131893,0.0563132986426353,-0.0493608489632606,0.0227188132703304,0.1821190497948111,0.0740416442747788,2.057390971976352,-8.526932716369629,-25.16922950744629,-37.28924560546875,-0.007427509621799502,1011.9431586326554
0.4408515625,0.046600350068137,0.0612910656563937,0.2258463986933231,0.0250989235937595,-0.0512956380844116,0.0120318140834569,0.1824931461899973,0.0735923329635041,2.0575375281410047,-8.403192520141602,-25.049392700195312,-37.50048828125,-0.007507149591436499,1011.9431662967929
0.45092041015625,-0.0043088031098246,0.0076107672646641,0.2222989353448152,-0.0069521237164735,-0.027601059526205,-0.0020585844758898,0.1825127672133847,0.073269233907542,2.0575645557232094,-8.226962089538574,-25.05745506286621,-37.11935424804688,-0.0075867972859844654,1011.9431739616739
0.460988525390625,-0.0212400641664862,0.0158083945065736,0.1960825440704822,-0.0325653403997421,-0.0033023785799741,-0.0124803325161337,0.1822301081023956,0.0731743657297998,2.0574872952174843,-8.570457458496094,-25.23137092590332,-36.902679443359375,-0.007666439186849203,1011.9431816259973
0.4710576171875,0.0066506169956177,0.0764841047435998,0.1355570559591054,-0.0430347621440887,0.0215789712965488,-0.0087340380996465,0.1817721785497265,0.0733643872803168,2.057385086927224,-8.510417938232422,-25.354835510253903,-37.0115966796875,-0.007746088812624913,1011.9431892910642
0.481125244140625,0.0642090719949454,0.120891401746869,0.1045025770038366,-0.044824942946434,0.0268024951219558,0.0024914517998695,0.1812566005273819,0.073705051887957,2.0573679533533595,-8.286909103393555,-25.363361358642575,-37.351470947265625,-0.007825726851034167,1011.9431969550159
0.491194580078125,0.1134942041676491,0.1322907476395368,0.0581786327242851,-0.0425628647208213,0.0080627622082829,0.0130280749872326,0.1807784980789242,0.0739573518834475,2.057464298415508,-8.281609535217285,-25.229337692260746,-37.13311767578125,-0.007905378408037617,1011.9432046202686
0.501262451171875,0.1438747293841093,0.1292706691659987,0.0256441443443298,-0.023518331348896,-0.0198176056146621,0.0237006917595863,0.1804034017529821,0.0739207470297473,2.05766393680848,-8.334527969360352,-25.227140426635746,-37.281524658203125,-0.007870896809702078,1011.9432013019384
0.51133154296875,0.1074667605716735,0.0820437846973538,-0.0317576587885618,-0.0088346265256404,-0.0364666208624839,0.0269157141447067,0.1802388645927159,0.0736122628121235,2.0579374995726294,-8.437911033630371,-25.05304718017578,-36.97265625,-0.007791422873900612,1011.9431936537791
0.5213994140625,0.0389806688446551,0.0356162339128553,-0.0412204836606979,-0.0015482176095247,-0.0158987622708082,0.0189331546425819,0.1802037095387783,0.073326873081352,2.05817400160302,-8.56693172454834,-25.16347312927246,-36.99630737304688,-0.007711958572938488,1011.943186006547
0.53146728515625,-0.0027370968136936,0.0151717040382325,0.0308078107178211,-0.0108647588640451,0.0028129732236266,0.0037733139470219,0.1801939888195325,0.0732768572375452,2.058290109301058,-8.433952331542969,-25.20836067199707,-37.055419921875,-0.007632494271976364,1011.9431783593149
0.541536376953125,-0.0108699151910841,-0.0066295011423528,0.0308405439436435,-0.0275502633303403,0.0023120325058698,-0.0176022816449403,0.1799971137370283,0.0732952234359926,2.0582333739121954,-8.212006568908691,-25.347925186157227,-37.19677734375,-0.0075530203361748975,1011.9431707111555
0.5516044921875,0.0127449152827262,-0.0446000430963933,-0.0060007017195224,-0.0452640056610107,0.028123490512371,-0.0310994293540716,0.1795977682894626,0.0734793892891921,2.058006543822211,-8.485280990600586,-25.118087768554688,-36.412353515625,-0.007473554108244905,1011.9431630637379
0.56167333984375,0.0029439444974064,-0.0305023980304598,0.0421013581484556,-0.0663336068391799,0.0289088562130928,-0.0317918509244918,0.1789652378714009,0.0738829609669701,2.0577097782074167,-8.228438377380371,-25.207550048828125,-36.6693115234375,-0.007394082099411306,1011.943155415764
0.5717412109375,-0.0417568555597215,0.0101798871003091,-0.0261854116141796,-0.0662140250205993,-0.0016723237931728,-0.03164504468441,0.1782034840657667,0.0741328345679805,2.0574193198651454,-8.509868621826172,-25.279077529907227,-36.71627807617188,-0.0073146177984491825,1011.9431477685318
0.581810546875,-0.0131108990509063,-0.0001978606596589,-0.1260883858680725,-0.049759954214096,-0.046572420746088,-0.0358637571334838,0.1775313755227793,0.0740082771107437,2.057116485091377,-8.391229629516602,-25.357091903686523,-37.158477783203125,-0.007235141935679847,1011.9431401201871
0.59187841796875,0.0260496564052999,0.0033329438149929,-0.1867833853274583,-0.0142158940434455,-0.1002441048622131,-0.0387585423886776,0.177153073808828,0.0733705895746673,2.056748408261784,-8.279949188232422,-25.28993797302246,-36.7315673828125,-0.007155677634717723,1011.9431324729549
0.601947509765625,0.0174872144389897,0.0402444782353937,-0.2492985859513282,0.019699728116393,-0.1367360651493072,-0.0426419638097286,0.177148002350073,0.0722704435863335,2.056325364913347,-8.340289115905762,-25.061817169189453,-37.21017456054688,-0.007076203698916255,1011.9431248247955
0.612015380859375,0.0130427291855216,0.087294398701936,-0.2537801152795553,0.055623635649681,-0.1495752334594726,-0.0416857525706291,0.1775111580741475,0.0709183438646409,2.055868822330083,-8.204692840576172,-25.16479110717773,-37.13519287109375,-0.0069967393979541315,1011.9431171775634
0.62208447265625,0.0034844811148941,0.1273272800132632,-0.2166349182337522,0.0900026485323906,-0.1575420796871185,-0.0436532981693744,0.1782325437430076,0.0694646122331497,2.05538894170831,-8.265654563903809,-25.16744041442871,-36.96823120117188,-0.006917265462152665,1011.9431095294041
0.63215234375,0.0217876150466501,0.1959416742950677,-0.206094234997034,0.1053946614265441,-0.1255144029855728,-0.0544555000960826,0.179217759338547,0.0681353058521022,2.0548089790392083,-8.453621864318848,-25.327547073364254,-36.978363037109375,-0.006837801161190541,1011.943101882172
0.642221435546875,0.0269329420458525,0.2166454396277665,-0.0742810417413711,0.0904034525156021,-0.0534229017794132,-0.0596119128167629,0.1802003711244113,0.0673642115748895,2.0541512235817594,-8.546547889709473,-25.166091918945312,-37.008392333984375,-0.0067583272253890735,1011.9430942340126
0.652289306640625,0.0022909604813903,0.1657492189966142,0.0684925214678049,0.0505604371428489,0.0224100723862648,-0.0535699091851711,0.1808808354904424,0.0673364937044301,2.0535279905853314,-8.462721824645996,-25.189512252807617,-36.6697998046875,-0.00667886292442695,1011.9430865867805
0.662357421875,-0.0199997817818075,0.1113885371252894,0.162846629422903,0.0003662426024675,0.0929452255368232,-0.0504500195384025,0.1810781152058387,0.068053594910361,2.052975066036826,-8.52284049987793,-25.39658546447754,-36.75973510742188,-0.006599396696496957,1011.9430789393629
0.67242626953125,-0.0438497361857444,0.0929940716482698,0.2816828522056341,-0.0564324147999286,0.1021350026130676,-0.0472028851509094,0.1807224710341051,0.0691901430435514,2.0525029987615677,-8.526546478271484,-25.35629272460937,-36.8687744140625,-0.006519924687663359,1011.943071291389
0.682494384765625,-0.0288709974363446,0.0840115776389837,0.3054664633750915,-0.0987700149416923,0.0246532559394836,-0.0437618158757686,0.1798379589833992,0.0699547440566037,2.052088906985992,-8.33563232421875,-25.255653381347656,-36.937591552734375,-0.006440458459733366,1011.9430636439714
0.6925634765625,0.0318063933011144,0.054334086125344,0.1847919192492961,-0.0972695052623748,-0.0684553161263465,-0.0373329259455204,0.1787318272450963,0.0698086363083409,2.0517529929763407,-8.247478485107422,-25.200517654418945,-36.67291259765625,-0.0063609845239319,1011.9430559958121
0.702631591796875,0.0851096750739961,0.0287068929158151,0.0268196178644895,-0.0653256848454475,-0.1443705707788467,-0.0418320707976818,0.1778129839111119,0.0687680311303498,2.0514126551179857,-8.215537071228027,-25.37186813354492,-36.72039794921875,-0.006281518296001907,1011.9430483483944
0.7127001953125,0.0953711760431528,0.0996466614052653,-0.1013940895944833,-0.0227053575217723,-0.17145337164402,-0.0451577678322792,0.1772561150981086,0.067229533879184,2.0509886434111064,-8.438680648803711,-25.329315185546875,-37.000885009765625,-0.0062020482141361775,1011.943040700606
0.7227685546875,0.067818129337579,0.1717002363555133,-0.1049731171250343,0.0035733822733163,-0.162659078836441,-0.0518582835793495,0.1770626654884528,0.0656291029048873,2.0504969456360254,-8.452718734741211,-25.21453857421875,-36.96234130859375,-0.0061225800592383155,1011.943033053003
0.73283740234375,-0.01823730215393,0.2078584681905806,-0.0691173753678798,0.0127941407263278,-0.1334390342235565,-0.0532042533159256,0.1770880580234357,0.0642172447817121,2.049960273639876,-8.66528606414795,-24.982372283935547,-37.03683471679688,-0.006043108050404717,1011.9430254050291
0.742905517578125,-0.0628998525599017,0.1979500915080309,0.0390466467529535,-0.0049166800454258,-0.0700345039367675,-0.0432040840387344,0.1770847134941195,0.0632925614102885,2.0494395500396725,-8.563408851623535,-25.00545692443848,-37.03424072265625,-0.005963641822474725,1011.9430177576115
0.752974365234375,0.0013839651716873,0.2084028042003512,0.1688227812230587,-0.0386922955513,-0.0240090880542993,-0.0294846091419458,0.1768499131987595,0.0629078749734913,2.0490715685067347,-8.565339088439941,-25.149547576904297,-36.95285034179688,-0.0058841698136411266,1011.9430101096376
0.76304248046875,0.0153566686837002,0.1774744358427822,0.1639876161515712,-0.0572582595050334,0.0124434623867273,-0.0077098039910197,0.1763587587776331,0.062896500065234,2.0489014958438587,-8.761197090148926,-25.365419387817383,-36.621856689453125,-0.005804703585711134,1011.94300246222
0.773111328125,0.0088824677009135,0.1264559040062129,0.1449012228876352,-0.0686161071062088,0.025628138333559,-0.0019937951583415,0.1757086502422425,0.0631417963427381,2.0488936737817687,-8.57779312133789,-25.27377319335937,-36.883636474609375,-0.005725231576877535,1011.9429948142462
0.7831796875,-0.0072368559183552,0.1011972518481314,0.1361608670711517,-0.0820427015423774,0.0194493383169174,-0.0036137960851192,0.1749369560638302,0.0634393726760594,2.048899422963936,-8.829113006591797,-25.28673553466797,-36.86962890625,-0.005645763421979674,1011.9429871666431
0.793247314453125,-0.0473400625195354,0.0751947955854237,0.0877823283493518,-0.0885673612356185,-0.0092228837311267,-0.0059491712599992,0.1740418674819808,0.0635535782841113,2.0488896958810496,-8.783403396606445,-25.19457244873047,-36.911376953125,-0.005566301047985419,1011.9429795195964
0.80331640625,-0.0534408270800486,0.0540796729728579,0.0079477441340684,-0.0804021060466766,-0.0530135072767734,-0.0072932681068778,0.173126184713925,0.0632759287145049,2.0488731156585502,-8.890055656433105,-25.18394088745117,-37.189971923828125,-0.005486827112183952,1011.9429718714371
0.813384521484375,-0.0377631097484379,0.0457052278593182,-0.085713705381751,-0.0662873536348342,-0.0867639482021331,-0.0165422968566417,0.1723058038860301,0.0625720714135938,2.0488071831357177,-8.648765563964844,-25.139270782470703,-37.3892822265625,-0.005407360884253959,1011.9429642240194
0.82345361328125,-0.0151242481673136,0.0811281311571598,-0.1401636729717254,-0.0464728996157646,-0.1107499748468399,-0.0267930701375007,0.1716665397591927,0.061583053468434,2.04862059996972,-8.702340126037598,-25.07732582092285,-37.42840576171875,-0.005327886948452492,1011.9429565758601
0.833521240234375,0.0196973282365128,0.1363502521634101,-0.1940156746685505,-0.0242400541901588,-0.1233218237757682,-0.0311334803700447,0.1712490477440761,0.0604506316876441,2.048353880516962,-8.572066307067871,-24.979625701904297,-37.299713134765625,-0.005248424574458237,1011.9429489288134
0.843590576171875,0.0197884771186858,0.1451278712503612,-0.2280693354398012,-0.0071175256744027,-0.0966007336974144,-0.0235479995608329,0.171042458769902,0.0593841703285863,2.048081029197357,-8.673611640930176,-25.073740005493164,-37.138214111328125,-0.005168948711688901,1011.9429412804686
0.853658447265625,0.0266584359534084,0.1321951783105731,-0.1837865415990352,-0.0128220850601792,-0.0427532121539115,-0.0156992878764867,0.1709119793116849,0.0587327289817274,2.047886820574906,-8.774558067321777,-24.89839553833008,-37.207061767578125,-0.005089484410726777,1011.9429336332365
0.863727294921875,-0.0073886124139651,0.1450464765772223,-0.1444581552952528,-0.0223870947957038,0.0090055875480175,-0.0045086843892931,0.1707088691192496,0.0585837860765009,2.0477830654666818,-8.754810333251953,-24.635093688964844,-37.160003662109375,-0.005010012401893179,1011.9429259852626
0.87379541015625,-0.0538213873628526,0.1487039761714637,-0.095719551089406,-0.0290283169597387,0.0640914738178253,-0.0020282724872231,0.1704215266200725,0.0589733080857688,2.0477702960483097,-8.455320358276367,-24.790363311767575,-37.172393798828125,-0.004930546173963187,1011.942918337845
0.883864501953125,-0.0387936218399554,0.1440850841991603,-0.0455628967791795,-0.0254508908838033,0.0890695303678512,0.0012724492698907,0.1701294019782818,0.0597702050073822,2.047787458443016,-8.459299087524414,-24.835742950439453,-37.30645751953125,-0.004851072238161719,1011.9429106896856
0.893932373046875,0.0160603965062648,0.1182541851110756,-0.0224310275167226,-0.0205099284648895,0.0678646042943,-0.0031735878437757,0.1698875392433108,0.0605652454509248,2.047795347677824,-8.403646469116211,-25.020814895629883,-37.33087158203125,-0.0047716079371995955,1011.9429030424535
0.90400146484375,0.062712111435458,0.0696574735939502,0.0051969841212034,-0.016929842531681,0.0268450081348419,-0.0063850935548543,0.1696589903279359,0.0610473283889334,2.047761865621611,-8.543087005615234,-24.74467658996582,-37.522216796875,-0.004692134001398129,1011.9428953942942
0.9140693359375,0.0856255156416446,0.0354335708223283,0.0598123714059591,-0.0172968190163373,-0.0028894871938973,-0.0049295662902295,0.1694312360139136,0.0611825637707009,2.047714519095139,-8.709409713745117,-24.80254554748535,-37.6966552734375,-0.004612669700436005,1011.9428877470621
0.924137451171875,0.079094177644141,0.0367130892388522,0.1384954474985599,-0.0172390285879373,-0.0623432248830795,-0.0025479013565927,0.1691920846983706,0.0608799400556658,2.0476963686216614,-8.742949485778809,-24.88942527770996,-37.51934814453125,-0.004533203472506012,1011.9428800996444
0.93420654296875,0.0712013420350849,0.07032002915591,0.0984095208257436,-0.0140013396739959,-0.1209205538034439,-0.0070006237365305,0.1689689958556615,0.0599432286487384,2.047659800031872,-8.79979419708252,-25.08545684814453,-37.289093017578125,-0.004453729536704545,1011.9428724514851
0.944274658203125,0.0966420362291857,0.0735764006033539,-0.0168342304229736,-0.0046166256070137,-0.1267201155424118,-0.0231481678783893,0.1687950494786775,0.0586542128228037,2.04750648765537,-8.463658332824707,-24.91054916381836,-37.06646728515625,-0.0043742633087745526,1011.9428648040675
0.95434326171875,0.069930481849052,0.0517293104544281,-0.01495733063519,-0.0046215029433369,-0.0496619530022144,-0.0324072428047657,0.168686701048297,0.0577617377285488,2.047213745204044,-8.467053413391113,-24.896312713623047,-37.04879760742188,-0.004294793226908823,1011.942857156279
0.96441162109375,-0.0221623666431754,0.0762684161663055,0.0612538023859262,-0.026733461767435,0.0366052910685539,-0.034492764621973,0.1684698519355358,0.0577819173181449,2.0468829973036824,-8.754685401916504,-25.032432556152344,-37.21548461914063,-0.004215325072010962,1011.9428495086761
0.974484619140625,-0.0467920367153361,0.107400052011013,0.1068278050810098,-0.0513138212263584,0.0765051692724227,-0.0200502928346395,0.1680062494371426,0.0584532090240567,2.046613917888465,-8.597607612609863,-24.94419860839844,-37.192901611328125,-0.004135820304723599,1011.9428418575496
0.984552490234375,0.017825908341445,0.0826300601527094,0.0799082339733839,-0.059274535626173,0.0855873525142669,0.0059016779996454,0.1674099264936115,0.0593490658805543,2.0465678541227805,-8.620624542236328,-24.974409103393555,-37.22015380859375,-0.004056356003761474,1011.9428342103175
0.994621826171875,0.1049000518888235,0.042394349745661,0.0957172130018472,-0.0579103827476501,0.0446074232459068,0.0216696932911872,0.1668236430231209,0.0600577946191064,2.046731233847824,-8.491937637329102,-24.926210403442383,-37.216888427734375,-0.003976880140992139,1011.9428265619728
1.004689697265625,0.1425824976164847,0.0298478796444833,0.0761526808321475,-0.0520021542906761,-0.0111676910892128,0.0308362953364849,0.1662844779090996,0.0602100615740725,2.047025904500086,-8.669755935668945,-24.91129302978516,-37.054290771484375,-0.0038974158400300156,1011.9428189147405
1.014758544921875,0.1318286100205034,0.0163360716424882,0.0841729056805372,-0.043487686663866,-0.0575968064367771,0.0340442918241024,0.1658157249968816,0.0598157770302437,2.0473753932170378,-8.33972454071045,-24.93058204650879,-37.20651245117188,-0.0038179438311964162,1011.9428112667666
1.02482666015625,0.0864204654116183,-0.0005029810860753,0.112379593989253,-0.0402287766337394,-0.0895491540431976,0.0313270688056945,0.1653897929115204,0.0590591918832052,2.0477287210720547,-8.592464447021484,-24.625391006469727,-37.31195068359375,-0.003738477603266425,1011.9428036193491
1.034895751953125,0.0651753597438335,0.0055639177374541,0.0623895284175872,-0.0424454025924205,-0.1441310197114944,0.0161909274756908,0.16498053237851,0.0578616641664219,2.047997947100611,-8.496028900146484,-24.76790809631348,-37.1318359375,-0.0036590036674649575,1011.9427959711898
1.044963623046875,0.0688506507230922,0.0284819981187582,-0.1192629237622022,-0.0346567220985889,-0.1486690491437912,-0.0027793012559413,0.1645807882306224,0.0562998114322809,2.0481020446411984,-8.526545524597168,-24.79361343383789,-37.321868896484375,-0.003579539366502833,1011.9427883239576
1.05503173828125,0.045675015384145,0.0006206161163747,-0.2035182470291852,-0.0147010395303368,-0.0664958581328392,-0.0165517106652259,0.16431486962798,0.0551645867215078,2.0480201582818545,-8.517830848693848,-24.75371742248535,-37.093536376953125,-0.003500073138572841,1011.94278067654
1.0651005859375,0.0064332113852724,0.0255145266152918,-0.1918839233368635,-0.0034715561196208,0.0137654226273298,-0.02772100828588,0.1642121859554322,0.0549815672561493,2.0477949734958143,-8.382710456848145,-24.769227981567383,-37.034423828125,-0.0034206011297392416,1011.9427730285661
1.075168701171875,-0.006051153265126,0.0703285047233104,-0.2243196275174617,0.0082577131688594,0.0555934309959411,-0.0216334350407123,0.1642196492837083,0.0554530203412163,2.047525185357139,-8.527216911315918,-24.784852981567383,-36.80126953125,-0.0033411349018092505,1011.9427653811485
1.08523779296875,0.0503050498049706,0.0553622601293027,-0.2253881335318088,0.0218148007988929,0.0640724003314971,-0.0098558720201253,0.1643586059286449,0.056188312148983,2.0473348986232045,-8.631821632385254,-24.944110870361328,-36.78097534179688,-0.003261660966007783,1011.9427577329892
1.0953056640625,0.1143158227488398,0.0324191914372146,-0.1535527313768863,0.0261303558945655,0.0442323498427867,-0.0033332016319036,0.1646010764628664,0.0568293060955169,2.0472438572543554,-8.820257186889648,-24.81329727172852,-37.01193237304688,-0.0031821966650456583,1011.9427500857571
1.10537451171875,0.1391284481724724,0.0258772224478423,-0.0719879623681306,0.0211622286587953,0.0084538469091057,-0.0080533884465694,0.1648529043707152,0.0571598708436377,2.047176239048981,-8.602472305297852,-25.01767921447754,-36.916778564453125,-0.0031027246562120607,1011.9427424377832
1.11544287109375,0.116945331002213,0.0017202479213476,-0.012855389919877,0.0134147442877292,-0.0227267071604728,-0.0164242088794708,0.1650317844869798,0.0571343862392251,2.047050395671637,-8.68425178527832,-24.868358612060547,-36.957305908203125,-0.0030232565013141987,1011.9427347901801
1.125511474609375,0.0930570904145017,-0.0187128837764263,-0.0041565351575613,0.0099827293306589,-0.0332584455609321,-0.0270891040563583,0.1651006226726598,0.0568970673423893,2.0468230571007084,-8.495593070983887,-24.80628776550293,-36.90863037109375,-0.0029437864194484685,1011.9427271423916
1.13557958984375,0.0822810275193303,0.0020212766945362,-0.0115489834964275,0.0074430592358112,-0.0392301529645919,-0.0333096235990524,0.1651557209572235,0.0565724324350555,2.0465073041388377,-8.64880084991455,-24.78169059753418,-36.71807861328125,-0.0028643201915184774,1011.9427194949741
1.145648681640625,0.1242138241678476,0.0132598790675401,-0.0259872586935758,0.0131302401423454,-0.0236661061644554,-0.0317077338695526,0.1652037626158734,0.0562904425564537,2.0461594427453456,-8.453072547912598,-24.828298568725582,-36.94573974609375,-0.0027848462557170097,1011.9427118468147
1.155716796875,0.1539088148055598,0.0085889646470546,-0.0384317297250032,0.0219178702682256,0.0103012500330805,-0.026345144957304,0.1653241947332849,0.0562536783927222,2.0458633585908634,-8.567972183227539,-24.776721954345703,-37.02777099609375,-0.0027053800277870178,1011.9427041993972
1.16578564453125,0.1870998673981055,0.00207943662256,-0.0221890354543924,0.0281017310917377,0.0389523357152938,-0.019623328000307,0.1655330166093796,0.0565839857239634,2.04561090913272,-8.37569522857666,-24.82096672058105,-36.90667724609375,-0.0026259080189534193,1011.9426965514233
1.175853759765625,0.2252170147486031,0.0010784428864717,0.0088508304536342,0.0267194546759128,0.0424268618226051,-0.0099845398217439,0.1657853271358683,0.0570864267467169,2.0454315288346376,-8.429399490356445,-24.72537040710449,-36.64813232421875,-0.0025464417910234273,1011.9426889040056
1.185922607421875,0.2361044290637597,0.0038699733011424,0.0168435827732086,0.0299967415630817,0.0437291450798511,-0.0034677842631936,0.1660430100032011,0.05757304400433,2.0453403915216994,-8.755081176757812,-25.04494285583496,-37.098480224609375,-0.002466969782189829,1011.9426812560317
1.195990966796875,0.2363306025024503,0.0351797421917319,0.0762830292135477,0.0239712577313184,0.0474231503903865,0.0036518927663564,0.1663097069421386,0.0580791325774467,2.0453284151677846,-8.790332794189453,-25.046953201293945,-37.287994384765625,-0.002387501627291966,1011.9426736084288
1.206058837890625,0.1989511583093553,0.0606128741338849,0.1277186174184084,0.0170212071388959,0.05326958745718,-0.0004030363634228,0.1665257889331862,0.0585896205843199,2.045328824712366,-8.70125961303711,-24.77861976623535,-37.2515869140625,-0.002308037326329843,1011.9426659611967
1.216127685546875,0.1523580782322213,0.0221960497170686,0.124285720360279,0.013271901756525,0.0716242268681526,-0.0029990479815751,0.1666691745961321,0.0592168129793517,2.0453056510232206,-8.648945808410645,-24.787023544311523,-37.153350830078125,-0.0022285653174962446,1011.9426583132228
1.226195556640625,0.1589366894375532,-0.0469368154808878,0.1698895336717367,0.0108902370557188,0.0848492234945297,-0.0064339931122958,0.1667619992282605,0.0600553572978071,2.045248149368647,-8.516295433044434,-24.84366798400879,-37.399505615234375,-0.00214910101653412,1011.9426506659905
1.236264892578125,0.1663860190628096,-0.0745335551977157,0.1794365296959877,-0.0070652300491929,0.0567710511386394,-0.005648260936141,0.1667709216460103,0.0608494114033176,2.0451809406227603,-8.453991889953613,-24.788257598876957,-37.0877685546875,-0.002069625153764785,1011.9426430176458
1.24633251953125,0.2114483093760907,-0.0811198017202317,0.1299228494644164,-0.0180779360234737,0.005095069296658,-0.0117466337978839,0.1666159567570666,0.0612486581561524,2.0451061576344114,-8.390130996704102,-24.83102798461914,-37.12664794921875,-0.0019901627797705296,1011.9426353705991
1.25640185546875,0.2616516158396378,-0.0943861105285584,0.0549830515533685,-0.0114023573696613,-0.0443291701376438,-0.0188591927289962,0.1664510757189548,0.0611462150265735,2.044923375275827,-8.365545272827148,-24.76586151123047,-36.94259643554688,-0.0019106869170011946,1011.9426277222543
1.2664697265625,0.2558818733317777,-0.065979223472625,-0.0152057524383068,-0.0070526152849197,-0.0618836618959903,-0.0197438951581716,0.1663402614386771,0.060704193011533,2.0447119918249284,-8.272879600524902,-24.88481330871582,-36.99188232421875,-0.00183122261603907,1011.9426200750222
1.276538818359375,0.1754332854039967,0.0278036604657769,-0.0231996738016605,-0.0182054936885833,-0.0648550912737846,-0.0273793246597051,0.1661968789066936,0.0601853763582066,2.0444794296522746,-8.357576370239258,-24.95381736755371,-36.88848876953125,-0.0017517486802376024,1011.9426124268629
1.286606689453125,0.0808116490865126,0.1080206681273877,-0.0669072981029748,-0.0262695476412773,-0.0558040663599967,-0.0285319425165653,0.1659195436835584,0.0596918499040771,2.044190811923171,-8.52961540222168,-24.81736946105957,-36.431884765625,-0.0016722843792754795,1011.9426047796306
1.29667578125,0.0756998955633491,0.1121991228558123,-0.1346720898181199,-0.0273241717368364,-0.015192792750895,-0.0288777463138103,0.1656244305292282,0.0594434284033479,2.0439109687511903,-8.323603630065918,-24.727075576782227,-36.93780517578125,-0.001592810443474012,1011.9425971314713
1.30674365234375,0.1023688163781538,0.0923579657018184,-0.1686538543969392,-0.0236596632748842,0.0309816263616085,-0.0274774562567472,0.165383181455605,0.0596235339700188,2.043634309245109,-8.315762519836426,-24.592960357666016,-36.85202026367188,-0.001513346142511889,1011.9425894842392
1.316812744140625,0.0926556700067594,0.0903111161746084,-0.202944246533513,-0.023109171539545,0.0622043274343013,-0.022816265001893,0.1651870522017988,0.0602090957758888,2.0433650559026906,-8.358155250549316,-24.70725440979004,-37.339630126953125,-0.0014338722067104214,1011.9425818360799
1.326880615234375,0.085876933119446,0.0950412134364247,-0.2100041019171476,-0.0222385860979557,0.0879999697208404,-0.0116927735507488,0.1649799057582839,0.0610795282383891,2.043186820863998,-8.558052062988281,-24.707788467407227,-36.64517211914063,-0.0013544079057482969,1011.9425741888477
1.33694970703125,0.0773169388385489,0.1097813941895961,-0.1714542987704277,-0.0158348362892866,0.086731344461441,0.0043386202305555,0.1648330571703281,0.0620730746506886,2.043153772349968,-8.400434494018555,-24.760883331298828,-36.765411376953125,-0.001274933969946831,1011.9425665406884
1.347017822265625,0.0954149786522611,0.1214184943608939,-0.1623147145032882,0.0058179944753646,0.0528985448181629,0.0146791422739624,0.1648139897002686,0.0628486382225032,2.043255019664396,-8.536922454833984,-24.727537155151367,-36.94357299804688,-0.0011954677420168373,1011.9425588932708
1.357086669921875,0.0877419963389635,0.1185148818738758,-0.1312508831977844,0.0274571515619754,0.0111120827496051,0.0177011508494615,0.1649933822061289,0.0632113096938464,2.043409202305164,-8.364892959594727,-24.776599884033203,-36.87277221679688,-0.0011159957331832388,1011.9425512452968
1.367154541015625,0.0630177433185279,0.0964323755338788,-0.0448538717269897,0.0369803495705127,-0.0392275229096412,0.0142097473144531,0.1652938886254024,0.0630630006618419,2.0435599529233355,-8.169450759887695,-24.70736312866211,-37.00421142578125,-0.001036531432221116,1011.9425435980647
1.377222900390625,0.0155761566532775,0.0541965773507952,0.0490811340332031,0.0259701311588287,-0.1003932431340217,0.002875902224332,0.1655838937923964,0.0623536861046715,2.04362690142446,-8.26788330078125,-24.663074493408203,-37.08056640625,-0.0009570632773232548,1011.9425359504618
1.387291748046875,-0.0573205180576071,0.0079882222749292,0.1052794065952301,0.0080822110176086,-0.1490055173635482,-0.0110079552978277,0.1657107285225939,0.0611173934854231,2.0435707413485944,-8.339813232421875,-24.624195098876957,-36.80181884765625,-0.0008775912684896563,1011.9425283024879
1.39735986328125,-0.0997416096797212,-0.0227003459773957,0.0921679960876703,-0.0158526115119457,-0.1756899952888488,-0.0336436927318573,0.1656010842425774,0.0595275354530171,2.04335528872229,-8.48957347869873,-24.766357421875,-37.24737548828125,-0.0007981250405596626,1011.9425206550702
1.4074287109375,-0.1455600155899301,-0.0212118609853088,0.0412865346342325,-0.0318504869937896,-0.1816967576742172,-0.0573697946965694,0.1652754193583422,0.0578227463538802,2.0429073906134585,-8.452553749084473,-24.64639663696289,-37.4515380859375,-0.0007186530317260641,1011.9425130070963
1.41749658203125,-0.1783110693300142,0.0529924622580409,-0.0867675983488559,-0.0368943214416503,-0.1447803676128387,-0.0769505947828292,0.1648406369416983,0.0563136373010112,2.042233721337257,-8.308165550231934,-24.831207275390625,-37.01217651367188,-0.0006391887307639413,1011.9425053598642
1.427565673828125,-0.2227670277805998,0.1370652685649692,-0.1278963120728731,-0.0461719743907451,-0.0856459513306617,-0.0886538550257682,0.1643122870985676,0.0553496389267519,2.0413886333758224,-8.469268798828125,-24.86250877380371,-36.86639404296875,-0.0005597147949624737,1011.9424977117048
1.437633544921875,-0.1947310929289087,0.1814643822617828,-0.1384995391517877,-0.0426168292760849,-0.0295610111206769,-0.0812292397022247,0.163766499422934,0.0549828258457106,2.0405322674843367,-8.47772216796875,-24.819141387939453,-36.98089599609375,-0.0004802504940003508,1011.9424900644727
1.44770263671875,-0.1441427326705306,0.2000011788189411,-0.174838680511713,-0.0224953144788742,-0.0001075156033039,-0.061451006680727,0.1633625299128649,0.0550244931295128,2.039822062075932,-8.355063438415527,-24.82958030700684,-37.00582885742188,-0.0004007765581988832,1011.9424824163134
1.4577705078125,-0.0780026926130056,0.2207619350358843,-0.1883832217395305,0.0056499540805816,0.0101999500766396,-0.051567081362009,0.1632502431548738,0.0552247904774628,2.039245336232957,-8.628595352172852,-24.91907119750977,-37.02374267578125,-0.0003213122572367586,1011.9424747690812
1.467839599609375,-0.0049222223004326,0.2160473276041448,-0.1258499009370803,0.025059338659048,-0.0016263499855995,-0.0585669353604316,0.1633970614070883,0.0553750884511303,2.0386823135864134,-8.535468101501465,-24.84619903564453,-37.05084228515625,-0.00024183832143529274,1011.9424671209218
1.477907470703125,-0.011093750542216,0.1746492954194545,-0.0278197348177433,0.0210755933076143,-0.0403765402734279,-0.0674676895141601,0.1636188834066458,0.055241479154953,2.038034979855514,-8.316034317016602,-24.80666160583496,-36.65301513671875,-0.00016237402047316815,1011.9424594736897
1.487976806640625,-0.0416610670350491,0.1402579271264374,0.0432744935810565,-0.005474523641169,-0.0709741339087486,-0.0835553109645843,0.1636833816856569,0.0547352050602082,2.037275296243812,-8.306490898132324,-24.781982421875,-36.8311767578125,-8.289815770383402e-05,1011.942451825345
1.498044921875,-0.093093586499989,0.1182457095436751,0.1091343284577131,-0.0320988446474075,-0.0736312344670295,-0.1005542501807212,0.1634188755860402,0.0540778946127088,2.036359175854603,-8.415696144104004,-24.52085494995117,-36.99581909179688,-3.431929773841172e-06,1011.9424441779273
1.508113525390625,-0.1383338637286797,0.139165747975558,0.1062000285714864,-0.045644212514162,-0.0617151856422424,-0.112300656735897,0.1629210028328037,0.0534746537341264,2.035307404797693,-8.1622953414917,-24.4958553314209,-37.00045776367188,0.0001264076912696816,1011.9424270577803
1.518181640625,-0.1082624775266274,0.1724170063227415,0.0404319636315107,-0.0405704528093338,-0.0407546088099479,-0.1090944707393646,0.1623521374910953,0.0530521781278614,2.0342143516093487,-8.3060941696167,-24.714231491088867,-37.22525024414063,0.0002585142999942214,1011.9424095109557
1.528249755859375,-0.0197293308099731,0.2055392314627766,0.0067255088627338,-0.0282946117222309,-0.0158338155597448,-0.1038834676146507,0.1618627797264375,0.0528830422234216,2.0331512369161646,-8.36073112487793,-24.737085342407227,-36.995849609375,0.0003906209087187642,1011.9423919641313
1.538318603515625,0.0609971972763538,0.2311488890156149,0.0255681564986705,-0.0161236450076103,-0.0156561210751533,-0.0797185376286506,0.1614939680548796,0.0528724172415698,2.0322074367630187,-8.478618621826172,-24.63186454772949,-36.948333740234375,0.0005227371277594187,1011.9423744160302
1.54838671875,0.1373907376596704,0.2234137647189199,0.0210398654192686,-0.0027708197012543,-0.0365118682384491,-0.0495177544653415,0.1612822762206903,0.0527231555912124,2.0315584085783263,-8.223213195800781,-24.770984649658203,-36.735137939453125,0.0006548437364839586,1011.9423568692057
1.55845556640625,0.1639307348651811,0.2180591058179736,0.0422714540183544,0.0094010941684246,-0.0572141110897064,-0.0268185269087553,0.1612392520168244,0.0522992131467457,2.0311693480015216,-8.195943832397461,-24.82390785217285,-37.0013427734375,0.000786959955524613,1011.9423393211048
1.568523681640625,0.1489211625861004,0.2248775536611676,0.0876443811833858,0.0170488934963941,-0.0650613829493522,-0.0152913006022572,0.1613098480827736,0.0517163010643013,2.0309551825674554,-8.258055686950684,-24.72407913208008,-37.20770263671875,0.0009190665642491529,1011.9423217742802
1.578593017578125,0.0943347456675022,0.1796148088723421,0.149073540136218,0.0211369376629591,-0.0617599971592426,-0.0226984694600105,0.1614569827105476,0.0510950862829682,2.0307631859789312,-8.328217506408691,-24.569271087646484,-37.391204833984375,0.0010511891901672172,1011.9423042253283
1.588660888671875,0.0237107285963371,0.1199734101191163,0.1771528026729822,0.0204967129975557,-0.069649338722229,-0.0351599343121051,0.1616027408943756,0.0504301433183624,2.0304781455334058,-8.098122596740723,-24.65909576416016,-36.790924072265625,0.0011832925954530522,1011.9422866789292
1.5987294921875,0.0042083018774166,0.0773300540484488,0.1645131013303995,0.0097369980067014,-0.07288758456707,-0.0586375780403614,0.1616649260552053,0.0497546668003541,2.029994520686699,-8.467550277709961,-24.769336700439453,-36.88693237304688,0.0013154056110550017,1011.9422691312537
1.6087978515625,0.0202319100372493,0.029767361754179,0.1647007328569888,0.0088312570005655,-0.0907973423600196,-0.0724905431270599,0.1616672057119288,0.0490413583337864,2.029316340172852,-8.072303771972656,-24.8470401763916,-36.824798583984375,0.0014475154232182494,1011.9422515840037
1.61886669921875,0.0425241136051714,0.0214411396965384,0.1193377425640821,0.0097011318430304,-0.1051507741212844,-0.0806841030716896,0.1616418045952678,0.0482211793988085,2.0285113009636406,-8.281278610229492,-24.590709686279297,-37.039642333984375,0.001579631642258901,1011.9422340359027
1.6289345703125,0.0769455482428893,0.0321285379275679,0.0929360578507185,0.0156532973051071,-0.1029246374964714,-0.0860847234725952,0.161648332742726,0.047369449178474,2.027628181948677,-8.176294326782227,-24.76559257507324,-37.083892822265625,0.0017117350475447388,1011.9422164895037
1.639003662109375,0.1252352761700749,0.0138907243169844,0.0861976895064115,0.0151195228099823,-0.0992623269557952,-0.082860454916954,0.1616965644516066,0.0465539804937335,2.0267494766603025,-8.24532413482666,-24.637500762939453,-37.099517822265625,0.0018438544700240982,1011.9421989409772
1.64907177734375,0.1498066767163574,-0.0148887954436242,0.089402623027563,0.0033161267638206,-0.098881758749485,-0.082545667886734,0.1616914966472366,0.0457614327725389,2.0258825252415407,-8.504053115844727,-24.748443603515625,-36.759124755859375,0.0019759610787486383,1011.9421813941526
1.659140380859375,0.1321326344683766,-0.0213550688482821,0.089001641011238,-0.0210305768996477,-0.1072608008980751,-0.0825509205460548,0.1615181424440439,0.0449107004809105,2.025038068784631,-8.607512474060059,-24.776262283325195,-36.55291748046875,0.002108074094350588,1011.9421638464771
1.669208740234375,0.1128470288379117,-0.0009713292501866,0.0419166492313146,-0.0351234972476959,-0.1078339144587516,-0.0933939814567565,0.1611659823929858,0.0439933139046989,2.024153778854541,-8.37658977508545,-24.88500022888184,-36.88864135742188,0.0022401839065138325,1011.9421462992271
1.679276611328125,0.105211455925554,0.0367886386930942,-0.0187976394504308,-0.0458248145878315,-0.1018125787377357,-0.1062327027320861,0.1607075185016903,0.0431239819340061,2.023149077867612,-8.28371810913086,-24.562652587890625,-36.64178466796875,0.00237228731179967,1011.9421287528281
1.689345703125,0.1169020763823762,0.0797774472005665,-0.0959311480134725,-0.0454032346606254,-0.1008612960577011,-0.111736387014389,0.1602018383455493,0.0423140141493958,2.022036962341233,-8.24509334564209,-24.835678100585938,-36.57931518554688,0.0025044067342790298,1011.9421112043017
1.699413818359375,0.1446952519867569,0.1103333289839327,-0.2155558908253908,-0.0295415297150611,-0.0803802162408828,-0.1059409007430076,0.1597567029526088,0.041603461843707,2.0209347394713286,-8.433513641357422,-24.713424682617188,-36.637969970703125,0.0026365133430035696,1011.9420936574771
1.709482666015625,0.1916171986920758,0.1441064192481339,-0.2637672562867403,-0.007648748345673,-0.060544729232788,-0.0887605845928192,0.1595202279672314,0.0410980770932142,2.019943815682733,-8.619965553283691,-24.649581909179688,-36.86260986328125,0.002768629562044224,1011.9420761093761
1.719550537109375,0.2216775885760784,0.1955205262735486,-0.2642939105093479,0.0225445050746202,-0.0435879491269588,-0.0680355057120323,0.1595602696417048,0.0407597713282725,2.019130550914391,-8.468301773071289,-24.78038215637207,-36.62628173828125,0.002900732967330062,1011.9420585629771
1.729619873046875,0.2322099423758685,0.2045985896117985,-0.2099029796302318,0.054843857884407,-0.024732768535614,-0.0461022481322288,0.1599415111987638,0.0405861533050293,2.0185275331598493,-8.407682418823242,-24.96937561035156,-36.740234375,0.0030328555932481235,1011.9420410140251
1.739687744140625,0.2135375002076849,0.1707838521629572,-0.1129062482118606,0.0736398100852966,-0.0157195683568716,-0.0276082418859004,0.1606065076245131,0.0405253017705993,2.018112409580679,-8.44521713256836,-24.914047241210938,-37.03314208984375,0.003164958998533961,1011.9420234676261
1.749756591796875,0.1730811693198979,0.1230450726494193,0.0078793550729751,0.0749916285276413,-0.0187004450708627,-0.0189460441470146,0.161363522766449,0.040474003181886,2.0178401157172976,-8.650455474853516,-24.71335220336914,-36.78173828125,0.003297075217574613,1011.9420059195251
1.75982470703125,0.1121613481286913,0.0752418495975434,0.1234247196167707,0.0653770938515663,-0.0288823060691356,-0.0205889977514743,0.1620521383091488,0.0403101315355889,2.0176009364519327,-8.737479209899902,-24.726093292236328,-36.50225830078125,0.0034291818262991557,1011.9419883727006
1.769893798828125,0.0509422517299652,0.0352539764717221,0.2264028635323047,0.0481685400009155,-0.0490450970828533,-0.0328296832740306,0.1625742776069621,0.0400368117578545,2.017286995997466,-8.58133602142334,-24.69301986694336,-36.32855224609375,0.003561301248778512,1011.9419708241741
1.779961669921875,0.0187823322834447,0.0041015900999307,0.2901274399459362,0.0323731675744056,-0.0775235742330551,-0.047180451452732,0.1628961286612429,0.0395424522874576,2.016859501127853,-8.383548736572266,-24.834793090820312,-36.82290649414063,0.00369340465406435,1011.941953277775
1.79003076171875,0.0047470483966171,-0.0299992708139121,0.2620218739241362,0.0262593477964401,-0.1130392253398895,-0.0637349262833595,0.1630679384811293,0.0387511297998013,2.016273830552831,-8.401192665100098,-24.83172035217285,-36.6070556640625,0.003825524076543709,1011.9419357292486
1.8000986328125,-0.0002346124734729,-0.0186772279411554,0.2281295411944389,0.0363112576305866,-0.1340077966451645,-0.0810253247618675,0.1632637654312523,0.0377045381935672,2.015520728897261,-8.605854988098145,-24.7874755859375,-36.79977416992188,0.003957627481829544,1011.9419181828496
1.81016796875,-0.0114051911115646,0.0271242998994886,0.2162970645815134,0.0449028834700584,-0.1510296612977981,-0.0889959037303924,0.1635434063378492,0.0364937693588703,2.014626264217568,-8.456470489501953,-24.68300437927246,-36.43060302734375,0.004089750107747608,1011.9419006338976
1.820235595703125,-0.0181321612790226,0.0759856537021696,0.1970119338750839,0.0500169619917869,-0.1588991582393646,-0.0960802659392356,0.1639073403595357,0.0351952812601459,2.0136608187064464,-8.678743362426758,-24.523414611816406,-36.433868408203125,0.004221850309594741,1011.941883087924
1.8303046875,0.0155256685750558,0.1155855504237115,0.174331315511465,0.0542756207287311,-0.1769242286682129,-0.0996606200933456,0.1643502629843153,0.0337751328373318,2.012631934531469,-8.721787452697754,-25.029468536376957,-36.34423828125,0.004353969732074098,1011.9418655393976
1.840372802734375,0.046072855595313,0.1359042619615793,0.1397135911166667,0.0611059889197349,-0.1723419725894928,-0.08826644718647,0.1648728807576864,0.0322436635319,2.011640120010184,-8.367119789123535,-24.94701194763184,-36.2989501953125,0.0044860763407986405,1011.941847992573
1.850441650390625,0.0791180699763819,0.1596975177422165,0.1589829397320747,0.0610218346118927,-0.168290764093399,-0.0729458108544349,0.1654608032046889,0.0307170770835175,2.0107799817758507,-8.496003150939941,-25.09220695495605,-36.34210205078125,0.004618192559839292,1011.9418304444721
1.860509521484375,0.0897286766441538,0.1594599095940589,0.1377449213922023,0.0504607297480106,-0.165031686425209,-0.0569792762398719,0.1660086363820014,0.0291734648547127,2.0100909512435003,-8.486531257629395,-25.20588111877441,-36.249053955078125,0.00475029596512513,1011.9418128980731
1.87057763671875,0.0805321745580062,0.1362422617442905,0.1443266378700733,0.038336157798767,-0.1668703407049179,-0.0466587282717227,0.1664548788444022,0.0276348571556187,2.009542941852863,-8.683783531188965,-25.103214263916016,-36.390899658203125,0.004882402573849673,1011.9417953512485
1.880646728515625,0.0337385669400915,0.1073892383560538,0.1206330430716276,0.0193377882242202,-0.1615387946367263,-0.049623854458332,0.1667361953997284,0.0260683434362413,2.0090553777525035,-8.906698226928711,-25.137460708618164,-36.4014892578125,0.00501452199632903,1011.9417778027221
1.89071484375,-0.0334881175766699,0.0644859161749482,0.0869300954341888,-0.0049228090792894,-0.121388167142868,-0.0548071637749671,0.1667715498459367,0.0247569098515241,2.0085091645450053,-8.772114753723145,-24.95332908630371,-36.51812744140625,0.005146628605053572,1011.9417602558975
1.90078369140625,-0.0334503063169308,0.0330386385098099,0.0698696550399065,-0.0294724516570568,-0.1057438626885414,-0.0473769828677177,0.1665525007870643,0.0237305696468881,2.00798400296638,-8.85734748840332,-25.188526153564453,-36.420745849609375,0.0052787448240942236,1011.9417427077965
1.910851806640625,-0.0109413912584073,0.0365654974617064,-0.0277753111541271,-0.0324602499604225,-0.1140457317233085,-0.0337956584990024,0.1661899817953574,0.0227166340196687,2.00757280403143,-8.730364799499512,-25.00784683227539,-36.315765380859375,0.0054108514328187664,1011.9417251609719
1.920920654296875,-0.0091469821223057,0.048956338609755,-0.0978022025823593,-0.0187002308666706,-0.1342396885156631,-0.0265478659421205,0.1658775423961593,0.0215704303896278,2.0072774975621344,-8.744426727294922,-24.999237060546875,-36.23687744140625,0.005542967651859421,1011.941707612871
1.930989013671875,0.0001094334575347,0.0630175971880555,-0.1274193422108888,0.0036175912246108,-0.172425165772438,-0.0314041413366794,0.1657687588461008,0.0201640632000613,2.0069669037599147,-8.668371200561523,-25.095258712768555,-36.267913818359375,0.0056750774640226655,1011.941690065621
1.9410576171875,-0.01166077330783,0.0594205956093966,-0.1480243233442306,0.0074208513833582,-0.2204773724079132,-0.043266125023365,0.1657681662912875,0.0183173947934828,2.006572615520068,-8.633461952209473,-24.954917907714844,-35.954345703125,0.0058071904796246155,1011.9416725179454
1.951125732421875,-0.0474382439306937,0.0462142002947628,-0.1506149243593215,-0.0037559019401669,-0.2466839402914047,-0.0560945719480514,0.1657487445752605,0.0160906668950261,2.006055790983236,-8.658413887023926,-25.082035064697266,-35.97186279296875,0.005939297088349155,1011.941654971121
1.96119482421875,-0.1167272312721237,0.0208842364661395,-0.1060749408870935,-0.0328724235296249,-0.2481220811605453,-0.0655654892325401,0.1655278880404628,0.013739030964245,2.0054245732608558,-8.690524101257324,-25.285926818847656,-36.11740112304688,0.0060714165108285145,1011.9416374225945
1.9712626953125,-0.147504783848999,0.0175115451626479,-0.0794020380169153,-0.0628665462136268,-0.2186763137578964,-0.0678592696785926,0.1650245246745459,0.0115052278869774,2.004720362642678,-8.883487701416016,-25.276878356933597,-36.44219970703125,0.006203519916114352,1011.9416198761954
1.981327880859375,-0.1336338510778732,0.0443010601498186,-0.089098671644926,-0.0789443179965019,-0.1588222682476043,-0.0495163276791572,0.1642825201393229,0.0097142257383046,2.0041082045277268,-9.161213874816896,-25.119829177856445,-36.34567260742188,0.006335588083574442,1011.9416023344768
1.99139599609375,-0.0924114129221066,0.0676826663896441,-0.0916144538581371,-0.0775469541549682,-0.0730639472603797,-0.0179240442812442,0.1634822125642989,0.008653821651274,2.0037531904221426,-9.099626541137695,-24.89419937133789,-36.33856201171875,0.006467694692298982,1011.9415847876523
2.00146533203125,-0.0418661154873203,0.044901802521944,-0.0808750331789255,-0.0588359646499156,0.0080175828188657,0.0296119973063468,0.1627671678112488,0.0083623253639529,2.003818310332961,-9.12545680999756,-25.00431251525879,-35.807769775390625,0.0065998173182170465,1011.9415672387004
2.011532958984375,-0.0060630446323193,-0.0273370658673346,-0.0277221196621656,-0.0397395007312297,0.054385345429182,0.0675135776400566,0.1622606219338886,0.0086513116906273,2.0043235423164534,-9.361312866210938,-24.97538375854492,-36.153350830078125,0.006731917520064176,1011.9415496927268
2.021602294921875,0.0192987299735192,-0.1373769648626446,0.0387070395350456,-0.0368987545371055,0.0351394563913345,0.0821744948625564,0.1618682894170442,0.0090297508535789,2.0051036360244345,-9.12742042541504,-24.84119033813477,-36.178955078125,0.006864040145982241,1011.9415321437748
2.031670166015625,0.0044510337252635,-0.2721684432767331,0.1200432604849338,-0.0474395453929901,-0.0229667238891124,0.0812429189682006,0.1614387023409141,0.0089862096889035,2.005956637548989,-9.0057373046875,-24.886777877807617,-36.138275146484375,0.006996143551268075,1011.9415145973758
2.041738037109375,-0.025087624706421,-0.4004641299307346,0.2000204680413007,-0.0707121193408966,-0.0862646400928497,0.0612979009747505,0.1608608906277941,0.0082804581162042,2.00670582182834,-9.011591911315918,-25.184955596923828,-36.04022216796875,0.007128246956553916,1011.9414970509767
2.05180712890625,-0.0665369349871995,-0.4806574644558131,0.2187760219156742,-0.0979139059782028,-0.1338835507631302,0.0459045693278312,0.1600274658098116,0.0070427693121507,2.0072678559186805,-9.353423118591309,-25.03728675842285,-35.934814453125,0.00726036637903327,1011.9414795024503
2.061875,-0.1019693687317892,-0.5159365753687918,0.1759843434154987,-0.1187426820397377,-0.162930890917778,0.0337122157216072,0.1589338271135888,0.0054310602419846,2.007673511488369,-9.155914306640623,-24.864648818969727,-36.177154541015625,0.007392469784319111,1011.9414619560513
2.071944091796875,-0.0799894094508141,-0.5400166852667927,0.0862432822138071,-0.1204111501574516,-0.1691080927848816,0.0245781056582927,0.157698872108991,0.0036703390812281,2.007981599124696,-9.413546562194824,-24.89545249938965,-36.17333984375,0.007524589206798471,1011.9414444075247
2.08201220703125,-0.0496803055027499,-0.5698711407825351,0.0111877489686012,-0.1113896891474723,-0.1406397670507431,0.015755271539092,0.1565168365787439,0.0020700467478929,2.0081833041000574,-9.360846519470217,-24.78826904296875,-36.09368896484375,0.00765669581552301,1011.9414268607003
2.0920810546875,-0.0462813609465723,-0.5759231342978776,-0.0209001646876335,-0.0965502932667732,-0.0920099169015884,0.0159403625875711,0.1554905182443959,0.0008848457081047,2.0083433226772844,-9.423165321350098,-24.565587997436523,-36.576995849609375,0.007788812034563664,1011.9414093125993
2.10214892578125,-0.0544933683402836,-0.5611132493093609,-0.0357604646891355,-0.0730998292565345,-0.0401707142591476,0.0119782201945781,0.1547333011548785,0.0002342571897137,2.008473575951488,-9.408285140991213,-24.80167007446289,-36.33297729492188,0.0079209154398495,1011.9413917662002
2.11221826171875,-0.0719818842537933,-0.5960453003503382,-0.0016553659915924,-0.0828983932733535,-0.002003354486078,0.0113254804164171,0.1540469826768602,3.15256788859e-05,2.008598169426792,-9.551633834838867,-24.288938522338867,-36.3216552734375,0.008053038065767563,1011.9413742172483
2.1222861328125,-0.0128552072567865,-0.5734210883490741,0.0542769491106271,-0.0763471871614456,0.0108907734975218,0.0038683991879224,0.1533705677473377,0.0001066726144394,2.008684267739832,-9.216093063354492,-24.4111385345459,-36.207916259765625,0.0081851414710534,1011.9413566708492
2.13235498046875,0.0296621318310149,-0.6099000765711069,0.0527320577561855,-0.0686093717813491,-0.0091460524126887,-0.0011718997266143,0.152802672385699,0.0001200109296907,2.0086967181366457,-9.591466903686523,-24.54100799560547,-36.305206298828125,0.008317257690094053,1011.9413391227482
2.142423095703125,0.0237763480283203,-0.6060363868802785,0.0079828154474496,-0.0669056698679924,-0.0264766067266464,-0.0061742984689772,0.152305875925632,-0.0001064126928295,2.008671123079002,-9.756255149841309,-24.626611709594727,-36.05145263671875,0.008449364298818592,1011.9413215759237
2.1524921875,0.0195721743367495,-0.5731133375741541,-0.038258711245656,-0.0535645633935928,-0.0248906947672367,-0.0124873220920562,0.1519048120876533,-0.000367343024032,2.008569550194029,-9.591559410095217,-24.636871337890625,-36.77093505859375,0.008581483721297953,1011.9413040273972
