Timestamp,Acc x (m/s^2),Acc y (m/s^2),Acc z (m/s^2),Gyro x (rad/s),Gyro y (rad/s),Gyro z (rad/s),Beccheggio/Pitch (rad/s),Rollio/Roll (rad/s),Imbardata/Yaw (rad/s),Mag x (microTesla),Mag y (microTesla),Mag z (microTesla),Altitudine (m),Pressione (milliBar)
0.0,1.0237440733285958,-0.0561800881093233,0.0782569069932128,0.0575746016092168,-0.0862571611298489,0.0056033216928623,0.0276247673372264,-0.0417105347697514,-0.018180528986331,-0.0165129956990063,0.0326681173390493,-0.0491219352183654,-0.0073159447554091,1013.2128069674174
0.0100125156445556,1.0452709611252429,0.0090013810262469,0.0041988138757158,0.1404322193698502,-0.0526716515788867,0.014897006305844,-0.056372171923881,0.0015108260395154,-0.0054411500513997,-0.042821751445996,0.0141645833215748,0.0539665785033783,0.0924204364737133,1013.1982592202796
0.0200250312891113,1.0172189138246517,0.0554590579532105,-0.0493661636551603,0.0632753792614741,-0.0712198221039586,0.027516579748504,-0.0151987596708597,-0.0568678387737668,0.075643420193277,-0.1014031121241186,0.1124459031879644,0.0257074516383673,0.0277095597073999,1013.254067957748
0.030037546933667,1.0270024464685954,0.0409618747960077,-0.0250110466518979,0.1198156944438229,0.0078352143630946,-0.0764053601781823,0.0403433860476534,-0.0465698520541422,-0.0558351275715252,-0.0117655268520904,0.0127497425829044,0.0410588205992337,0.0312772265263256,1013.2696846207529
0.0400500625782227,0.9724158425625596,0.0134486066900925,0.0957851939077692,0.0035288148388862,0.0265728530695056,-0.0644003207467245,-0.0507019176905111,-0.033298047719731,0.1376933950616047,-0.0351329129779764,-0.0107483552644024,0.0407613864513576,0.0209808151871875,1013.257146699099
0.0500625782227784,1.052862824169765,-0.0522762584019287,0.0034092609074628,0.0734175491134832,0.0383607294913757,-0.0009517112909127,0.002073983369449,0.0477629620918383,0.0832415038441262,0.007338433704706,0.0594529847900103,0.0547195176397305,-0.0306892707919839,1013.198778287478
0.0600750938673341,1.0007258669476051,0.0107289419802286,-0.0213466881805741,-0.0253722454356582,0.0606378571536964,-0.0256850658319032,-0.0295346344213685,0.0248189053934428,-0.0314152732133704,-0.0100666175860816,-0.0894773113320544,-0.0182240549295978,0.0334471339092808,1013.2231384644352
0.0700876095118898,0.8986374146077347,-0.0423933329294876,-0.0444080617371969,0.0544062763279113,0.0540339066524872,0.0720830744908781,0.0165734119368376,-0.038271242930185,-0.0071797932736388,-0.0192675323311262,0.0430042328503662,-0.0139709413850954,0.0715840648145117,1013.2103163476588
0.0801001251564455,1.0230530156684443,-0.084704547279182,0.0132996523285172,0.0538829649928006,-0.0313826697596171,0.0083309438428606,-0.0207830789238854,-0.0696302861142341,0.0663766993606821,-0.0223924358207207,-0.0627978573099045,0.0704653918386483,-0.0595342135468182,1013.2713971160751
0.0901126408010012,0.9589589067028584,-0.0303594127397407,0.0532276667506997,-0.0405833765627472,0.0015115339615151,-0.0286529402147748,0.0117445032766204,-0.0584673458898415,0.0446181471072014,0.0264318970421654,0.0100120887838541,-0.0259104628304782,-0.0377509906301136,1013.151318454106
0.1001251564455569,0.977971867970227,-0.1234232326884285,0.0117133745198455,0.030044311321346,-0.1037834243842528,-0.0242298086918509,0.0162534727055256,0.0669762504608982,-0.028841279016364,-0.0001856242169536,0.0412874340728273,-0.02147739524632,-0.01540649405963,1013.24224165573
0.1101376720901126,1.0599928054329442,-0.0873554156263333,0.0581267331541015,0.0454185064680995,-0.0407556271119592,0.018526288502788,-0.0624556281964082,0.0598996422539158,0.0560301679609809,0.0568269185706259,-0.0295484813656025,0.0429405926941773,-0.0251315135135723,1013.2259807825936
0.1201501877346683,1.1001791568171224,-0.1480740032286912,0.0382693721055133,-0.0733935853788254,-0.028492579698441,-0.017589529075779,-0.02482297011605,-0.1127027455372309,-0.0151030415283197,0.0601572165735608,-0.0633131128799155,0.0173106957104643,-0.0458133278387843,1013.3136866774736
0.130162703379224,0.9125735875943072,-0.034582902021606,-0.0292583280284859,-0.0405297414191584,0.0377546747301193,-0.0228608237843447,-0.0118983944498027,-0.0651145541850453,0.0324332924154475,-0.0149014820682981,0.043862338813302,-0.0275281057915887,0.0642565024999285,1013.2183321403068
0.1401752190237797,1.029141965855958,-0.0590016275973016,-0.0893274988490826,0.0369109897254566,0.0301532977875837,0.0655075262669447,0.0344551509145107,0.0435629317985067,0.1008917083350714,0.0068755000580862,0.0026480269927198,-0.0087655942361764,0.0178445815125943,1013.218781436611
0.1501877346683354,1.1029817830120443,-0.030986970592099,-0.0435273186153447,0.0053152484962966,-0.0211152076999443,0.0279575833223099,0.0675737642116637,-0.0463163294485353,0.0029236455281729,0.0176434519152693,0.0401383154806353,-0.0306765915392128,-0.0404115093266875,1013.242341616196
0.1602002503128911,0.9171157626005336,-0.0123592516854433,-0.0626621342007274,0.0119376700881861,-0.0649397719793992,-0.0337444548233472,-0.0327116188184062,-0.0480740915971356,-0.0232419713726168,-0.0068860617495638,-0.0322424242186593,-0.0033086997328234,0.0433482976942867,1013.2750918857276
0.1702127659574468,1.0440917803607177,-0.0386405344791241,0.0410421779128332,0.0220792860357725,0.0105024182240025,-0.040751630677228,0.0141474775794599,0.0301616970921865,0.050587034795993,-0.0400656240267951,-0.1362667200548593,-0.0927154307528926,0.0629765071551791,1013.3295506536582
0.1802252816020025,0.981751221163754,0.016241427451046,0.0214084102309018,-0.0400937048677692,-0.0094672712037311,-0.0148495949827867,-0.081702041886331,0.0286283724488716,-0.0331866896085863,0.0034576790363989,0.0152155077417319,0.0365285918472987,-0.027150007977206,1013.3165761715222
0.1902377972465582,0.9845589285635952,0.0446837382715605,-0.0116773200398007,-0.0389029292498848,-0.0162800931490186,-0.0284369432160746,-0.0588314443717476,0.0040636148987596,0.0772145710547604,-0.0053306304144423,-0.0494236938684517,-0.0006788651391284,-0.0429620278791978,1013.1784764618334
0.2002503128911139,1.0204917225112875,0.0121190481494272,-0.0111839089443307,0.0168553350276251,-0.038064344557783,-0.0400583371634422,0.0827265320169564,-0.0310028912334255,-0.0532888337732001,0.0168830809840693,-0.006294872663934,0.0093711281646988,0.0391490370438613,1013.2661368501444
0.2102628285356696,1.0169690265732885,-0.0466504432554796,-0.0138884504287953,0.0681440908429955,0.0302218250180031,0.0056216013263912,0.0439544117413039,-0.0348135500868957,-0.0697565019705679,0.0171833181844756,0.0166287472448588,0.0370448864077459,0.0131718289094514,1013.35499891606
0.2202753441802253,0.9842969385547828,-0.0795417580167501,-0.0827175292201348,-0.0125601529552857,-0.0132958358170849,-0.0110659961360319,0.0457941472093236,0.0343778137419244,-0.0615381688618289,0.0985382511315715,-0.0480170220499335,0.0016159231370685,0.028167294053821,1013.2124659281128
0.2302878598247809,0.9471416274483536,-0.0570405529677322,-0.034783623926674,0.0625725582914845,-0.0569827317205473,-0.0200564545870489,0.0370035422080871,-0.0145288261816659,0.0930273458746407,-0.0122750631459517,0.0134728665206738,-0.0913935150135012,0.0287689648047013,1013.1917007724508
0.2403003754693367,1.0420407495530135,0.0336865768250786,0.0466122889487062,-0.0204813726723335,-0.0203583972274517,0.0550386775531759,-0.0223622170087492,0.0205618017018957,0.0320580711973622,0.0166867051443384,-0.0192549808968452,-0.0384711434725032,-0.0316912306356977,1013.2396158208404
0.2503128911138924,1.0128355791749588,0.0091287240611142,-0.0016602154307035,-0.1392834962605165,-0.0640990293106266,0.0277050120871787,-0.0245989591246945,-0.0406671934317735,0.0032509174783213,-0.000280285719305,0.037559833107868,0.0496977146470169,-0.0220217555594975,1013.2836687889562
0.260325406758448,0.9976525357856428,0.0282191459639382,0.0115794383898826,0.0501689996835393,0.0036750432595866,0.0592659341700463,0.0320122698993344,-0.0076021176341859,-0.0301881134002574,0.0428734694640441,-0.0611973938091313,-0.0528257329688309,-0.019100932282915,1013.197756793188
0.2703379224030037,1.0134137888976091,0.01001109089248,0.0084964486927799,-0.0386344648739804,-0.0223673891749399,-0.0436844877241999,0.0103480791251466,-0.0229421118579763,-0.0317297922719133,-0.0336648615967906,0.0436908451248433,-0.0071745061797531,0.0335339227840427,1013.184808406202
0.2803504380475594,0.9442485154573524,0.0057731405272105,-0.0482237447370656,0.0400045578273622,0.0923880368326904,0.0343864308804227,-0.0682454849910486,-0.0240597211660344,0.1125314442433881,-0.0577828146283916,0.0165406900441293,0.0327394120355741,-0.0012005307364326,1013.23303020065
0.2903629536921152,1.060851639035778,0.1023672461080161,-0.011857027080179,-0.0067398366599784,0.001270434169025,0.0838315061791131,-0.060724281087711,-0.0098942539766386,0.0604108235533986,0.0436707646753217,0.0381113105989047,0.0581147910313505,0.0679144140264782,1013.265947997625
0.3003754693366708,1.0464565142897546,0.0189833626702393,-0.0834280247858224,0.1143020358796512,-0.024134990956711,0.0095214388440874,0.0407883670868072,-0.0044862037120418,0.0681854598798639,-0.0290072324892749,-0.1607608113892739,-0.0241992642574181,-0.0507316266638216,1013.2559419372814
0.3103879849812265,1.1031563095846342,0.0938266704275042,-0.0616111642424991,0.0255346017310217,-0.0144181363736885,0.0067923140590934,-0.0672555155655934,-0.0185716978468465,0.045196141262885,-0.0522860436488352,-0.0332661809133154,0.0082567726766739,-0.031312537234746,1013.1460758888217
0.3204005006257822,0.9722312033851256,0.0738477934895662,-0.08207683294698,-0.0032653798377634,-0.0082304949987996,0.0200483436499661,-0.0490438215117388,0.0517620500610605,0.0208995539410138,-0.0044945263044599,0.0263312373188281,-0.0729443447351612,0.0240327052749556,1013.2193197314964
0.3304130162703379,0.9554726626442798,0.0407650468248735,0.0516998360801253,-0.042718751168452,0.0553662538909606,-0.014754421009536,0.0176963178486658,-0.0182054090803674,-0.0471955628183671,0.0660801212029896,0.0780680977511947,0.0422615080221735,0.0124488262306618,1013.2526634904366
0.3404255319148936,1.0365360598259512,-0.0185727264209785,-0.0059189762063607,0.0604189803545945,0.0078877299746705,-0.0065374829964502,-0.0579653619267588,-0.0654293365705539,-0.0143049156382397,-0.0077599075406031,-0.0196011639878832,-0.1168225619395239,-0.0080643257581289,1013.2201350326716
0.3504380475594493,1.0211682473468078,-0.1234405982584059,-0.0283419725787101,0.0598392950460553,-0.0010437708176965,0.0302372143410006,-0.0215641684134016,-0.0617289733088296,-0.0449766996565015,-0.0458452101153886,0.0578614881277251,0.0369438059032483,-0.0067205210602534,1013.2450800287032
0.360450563204005,0.9565583341977496,0.0611100517185553,0.1121185669541737,0.0676614262613683,-0.0972046095307087,-0.095830292774483,0.0199581732262584,0.026976493203973,0.0397799113060172,-0.046894547334101,-0.068710726885035,0.0610570941907606,-0.075960321589374,1013.2167225898808
0.3704630788485607,1.0223658384432253,0.01907071184853,0.0046739089263565,-0.0493411771549734,0.0131434446797866,0.0061503877552723,-0.0463790984913347,0.0124759198886065,0.048049780122849,-0.0361934430343836,-0.0538579192736548,-0.0249202187691737,0.0105857925273659,1013.2312572812768
0.3804755944931164,1.06094216011835,0.0002292708115162,-0.0051166013236002,0.1072008227235289,-0.0162848301402053,0.0977631430206813,-0.0067070846841144,-0.0430724388992401,0.0835232529045473,-0.0300325140380452,-0.0707380520762132,0.0577593008781583,-0.0145758434971213,1013.2033776655478
0.3904881101376721,1.03565595937489,-0.0430078356669119,-0.0321732827053749,0.020936267749076,0.078641451830274,-0.0528483993640929,0.0609248630813705,0.0378658715053934,-0.036382062329764,-0.0055450360108725,0.0027610341752018,0.0197766347990807,0.0325987041908997,1013.2796888106196
0.4005006257822278,0.9209895399524132,-0.0539236944859122,-0.0668139812999632,-0.0423099820698806,0.0595148112474669,0.010872998597298,0.045894970643209,-0.0422889609246927,0.0722070451727378,-0.0440807672778633,-0.09394974942721,0.0042738214110566,-0.087828645906705,1013.2908488270958
0.4105131414267834,0.996210140738365,0.0520932974156645,0.0936988124177996,-0.0237311436015617,-0.0142683450584706,0.0190898146888494,0.0835012013297726,0.0395869524231823,-0.0440277695375964,-0.0179651945259657,0.0308274201650595,-0.0786254222376039,-0.0136050558461317,1013.28662354888
0.4205256570713392,0.8889907669006856,-0.0486659008158043,-0.0006847290600289,0.0469504629002357,-0.0697498364748239,0.0296664197563724,-0.083598693825011,0.0580377594777794,-0.0989696376784325,-0.0536366527572871,0.0814442209093646,0.0213898305910898,-0.0612484037976583,1013.2482811193136
0.4305381727158949,0.978556957560905,-0.0323058495913091,-0.0533887554323491,0.0367124461404614,-0.0302149517581184,-0.0268814221676936,0.03702818748231,-0.0612359858399893,0.0033405440662614,-0.0340775832960023,0.0307600008864419,0.0330699812561085,0.0109408494614482,1013.2300708440212
0.4405506883604506,1.0616596572019787,-0.0769740903554517,-0.071567351067877,-0.0730069116588356,0.0008370008173167,0.033336537669143,0.0232216785679943,-0.0078258530275062,0.0465521408784351,-0.0760590143000257,0.0237854297109908,0.0310928119776573,-0.0471992674969946,1013.2070744199856
0.4505632040050062,1.0496413046661337,0.1096115615051804,-0.0391845067390082,-0.0907579242144161,-0.1157009949552391,0.0401866973941248,0.0234806362289995,0.0023998450854269,-0.042845830027004,-0.0372038757766252,-0.0291976871932708,-0.0137369743143871,0.0676594920981922,1013.2513380290744
0.4605757196495619,0.9972247211674898,-0.0829983440850357,0.0332402020659418,-0.0664198897768162,0.0337150722158977,-0.0556675268902513,-0.0290702190430306,-0.0446472693630858,-0.0317888659080158,0.0568366336624595,0.0480179676844906,-0.0615195523929769,-0.0461647496157223,1013.2017345446136
0.4705882352941176,0.9207457584538636,-0.0001354277217976,0.0188444506491281,-0.0705725460439453,0.1024271085858863,-0.0549196375385354,0.0791395202557612,0.0220181414341885,-0.0279511825599709,-0.0145486636059739,-0.0118230410321872,0.064615557131831,-0.0909739275700969,1013.3640915775788
0.4806007509386734,0.9672165026211216,-0.032692136719793,-0.0200022024487375,-0.002601186351609,0.0234081820066365,0.0163344591453317,-0.0018049056302221,0.0155481526636218,-0.0745907768145657,-0.0136978524425185,-0.0147922285073412,0.0595384035864799,0.0253184192764776,1013.2189172649274
0.490613266583229,0.985159624545667,0.0202623545971786,-0.0991485568642682,0.0259439212755659,-0.0306035727135684,-0.0732375608110361,0.0014986156441245,0.0242064282416807,-0.0032762921846793,-0.0670309203591787,0.0406961860935656,0.0302208388911879,-0.0075007939407361,1013.2712379784102
0.5006257822277848,0.9818156118979688,0.0316051851253386,0.02737566329512,0.0178931264125195,0.0687597743101642,-0.0135503630725088,0.0157760512559487,-0.0268836332280388,0.0749821387643027,-0.0420023453228095,-0.0310243233609616,-0.0434771471484157,0.0137136828185256,1013.2781672670354
0.5106382978723404,1.0342232574288444,-0.0440305622437757,0.0133180426090693,0.046339776886714,0.0264327649382313,-0.1091521556633807,-0.0242176373372513,0.0225990538604534,-0.0001231718275388,0.0667356689618215,0.0836716667003385,0.0517155976056536,0.0288187817460409,1013.2759802300526
0.5206508135168961,0.973763560906464,-0.0663544542421996,-0.0178979941507165,-0.0336025711544147,-0.0712115547904146,0.0102056906132135,0.0184943353623398,-0.0427227962475065,0.0905518936989788,0.005999805259186,-0.0181855693599504,-0.0356460448993094,-0.0223919635901913,1013.2321605446392
0.5306633291614519,1.0481240198336623,0.0149045428966679,0.0060081273927671,-0.0110526795170126,-0.0751039704669998,-0.0043976736134611,0.0295123991257608,-0.0178190343276117,-0.0762266879439422,0.0470834150901976,0.0621751041653511,0.0647277358411052,0.0329982381591044,1013.2196695131814
0.5406758448060075,0.9104768379561314,-0.0189128838061531,-0.0004270724550001,-0.0272365699829543,0.0045463380910746,0.0824274997211596,0.0474019945539481,-0.0536318335043597,0.0319724206744214,-0.0468974711977641,-0.0336957582411794,-0.0343873438394068,-0.0078059203545987,1013.2797595692684
0.5506883604505632,0.985496038618746,0.0736569078674294,0.0811298693031026,0.0010903472290031,0.0382256626505184,-0.0632333746139944,-0.0341007723556468,0.0265636044333958,-0.0441602199159861,-0.0719383927048651,-0.0350017393709387,0.0561601881982805,0.1157361274926229,1013.2982819463124
0.5607008760951189,1.022847794534338,0.0306083813511202,-0.1003621226959359,0.0208413301907785,-0.0119693710510434,0.0587703103811543,0.0646394058477468,-0.0100269855909322,-0.0290977136939619,-0.0488930625630832,-0.0529904731388639,-0.0045246466128798,0.026271329181534,1013.186538674322
0.5707133917396746,0.9767754879906728,0.0644059933580662,-0.0307194489585377,0.0654229306438435,-0.0581064106084045,0.0294171170774127,0.0468448791807969,0.0391502349094194,0.0568063085699239,-0.0017429963634468,0.0288538511996109,0.039439378568161,-0.0500902382406865,1013.256641606356
0.5807259073842304,1.0365602979908013,0.0097556615918016,-0.0590554204668664,0.0877877269964768,-0.0600115822714099,0.0182757747744715,-0.0204478069651612,0.0985917385905988,0.0084737090074314,0.0356442801111736,0.0572065658723231,0.0346387990336832,0.0109441376305856,1013.2312355979324
0.590738423028786,1.03357348920112,-0.0230025954889717,0.0139477078721203,-0.0057842367732272,0.0210608830702876,0.0047182697926854,0.0802092763250309,-0.054042947310834,0.0979566141914299,-0.0262266069601737,-0.0599601665366628,-0.0074522093388119,-0.0178746832322048,1013.2669314463454
0.6007509386733417,0.9701007938346408,0.020926416081653,0.0372556923192987,0.1070122218318819,0.0306020315528307,-0.0520241700146978,-0.0061987089845162,0.0101528931265709,-0.0301723186475563,0.025432327620324,0.0149649630458337,-0.0602071004845314,0.0393596604256678,1013.2384608775416
0.6107634543178974,0.9969065985994372,0.010293570355375,-0.0403011020526787,0.0175367693709109,-0.0149697342236227,-0.0778046930518057,-0.001360362798388,-0.0213137650581104,-0.0299010771126741,-0.0662391803384171,-0.1185524217517411,-0.0179052916496797,0.0263930329913066,1013.2077207067435
0.6207759699624531,0.9671263707091404,-0.0089298424998175,-0.0120735794345823,0.0107642073749083,-0.0053248773260306,0.0130076771967333,-0.0380602068426336,0.017452052166173,0.0616456408923656,-0.0049204339037471,0.02520436896899,-0.0478842474159601,-0.0401984390319887,1013.2280875578842
0.6307884856070087,1.0014452485997556,-0.0929781121423604,0.108438706051698,-0.0539758012604028,-0.0309470802799706,-0.0122595323289136,0.0806510986381438,0.0087219822380738,-0.0063161479160081,0.0293662915066163,-0.014300019864717,-0.0214347361968958,0.0276798862858906,1013.2530421476338
0.6408010012515645,1.009955568309002,-0.0414376498917577,-0.0741428686860364,-0.0845308552441996,0.0471716326927051,0.0629156731343712,0.0053809731279586,0.0297433181363174,-0.0354798269716021,0.0063829469848973,-0.0593464640270045,0.0254570970012552,-0.0046502620498506,1013.3398812101876
0.6508135168961202,1.0189567229654308,-0.0512739404311301,0.0031758824997185,0.0285655433014506,-0.0553160323157693,0.0153305819833829,-0.0303038628322812,0.0494352824169591,-0.0111156756352079,0.0402494201152474,0.0340522653687986,0.0247021366800363,0.0417857862887067,1013.305513566051
0.6608260325406758,1.0329223853443543,0.0180145344074468,-0.0556716123787942,0.0246228196204378,0.0449822381015187,0.0344237120068944,-0.0204370375654654,0.0598123261390057,-0.0542903819649487,0.0616793448903129,-0.0254185982699579,0.0408181052713939,-0.0138520968149536,1013.2293836450197
0.6708385481852316,0.9764710288936628,0.022099089946134,0.0564418577860277,-0.0050445573084801,-0.0799355727334866,-0.0339495245721978,-0.0637019581783332,-0.0580007410718589,0.0087243819911117,0.0264775118988751,0.0132888492841631,0.0488083742662968,0.0833019829770952,1013.2066796176772
0.6808510638297872,0.9822640145959652,0.0590120708134568,0.0632995031076361,-0.0678783402338766,-0.0153693444073411,0.04328695711801,0.00487678952754,-0.0330135893463637,0.0032469167534447,0.0035921383086701,-0.0100101171022049,0.0095231788547589,-0.0242283889530277,1013.2426911910392
0.690863579474343,0.9198385953796596,-0.0603019966256239,0.0208706024682186,-0.0414681732202037,0.0392211303536229,-0.0220481600811071,0.0415655800851381,0.0249752103734877,0.0667511415318302,-0.0102809543610604,-0.0393431383809792,-0.0191344960526694,0.0781047426149909,1013.2356547971084
0.7008760951188986,0.974867890050479,0.0944636825279071,-0.0170734989291592,-0.0531178651244095,0.0188230880825935,0.0112011138898445,0.1071740143194368,-0.0178136821801872,-0.0348104771574388,-0.0192275081922753,0.0687357863411559,0.0522532423116547,0.0130630525081593,1013.1879858629296
0.7108886107634543,0.9735480723564652,0.0438015965947778,0.0583529504440487,-0.0582819006149477,-0.0144945605595676,0.0408246402980645,-0.0280926049445115,0.0225272031030056,-0.0571927079814107,0.0223939603828314,0.0048082775683206,0.0876438106336788,-0.0847817193689765,1013.2038056894992
0.7209011264080101,0.9642661376749434,0.0065342726886939,-0.0155771093433512,0.0942072699460158,-0.0384430125452649,-0.025579031512713,0.0097008080559185,-0.0151059679186275,-0.0021506748179855,0.0129578586587883,-0.0549277437545913,-0.0393581893651522,-0.0943763525947107,1013.2288398913298
0.7309136420525657,0.9840884327721516,0.0267584844061236,-0.0053594664888428,-0.0714542432547089,0.0640240421064161,-0.0478665795370313,0.0104412706785863,-0.0081653129595124,0.0483075945748334,-0.1466642974879336,-0.0354812874571515,0.0164920322355201,0.0166189633047823,1013.238267242631
0.7409261576971214,1.0553743154177953,-0.0978152761170629,0.0047871843647807,0.0446257702183958,-0.0630449402756605,0.0670462523260583,0.0078383563461314,-0.0317142489672319,0.0078330304135508,-0.0068853283637498,0.0162881358738894,-0.0170357225614339,0.0483131523715625,1013.3566927909948
0.7509386733416771,1.064978349884257,-0.0126459799998421,-0.0056597406365747,-0.000549243926416,-0.0023806228040086,-0.0853886696474979,0.0413309895778813,-0.0516592832940847,-0.0579436789393141,-0.0303997750237662,0.0510083454913657,0.0626200971889363,-0.0268734214784701,1013.280919163216
0.7609511889862328,1.0130010371152576,-0.0200870456793551,0.0144071925830124,-0.015517389106575,-0.0479625278020053,-0.0574821360861522,-0.0275031032688508,-0.0542528716034336,-0.0159068304090767,0.0257612951719901,0.033568032022299,-0.0204333143513356,-0.0889075773268516,1013.256628813962
0.7709637046307886,1.078066323426398,0.0057305901874359,0.032301044969227,-0.0240294475224343,-0.0282357299236766,-0.043998841883319,-0.0114692766775544,0.0433969562553595,0.0455016536921159,-0.0023076991359644,0.0309835246325764,0.0327316463309877,-0.0037897205465098,1013.3335909705032
0.7809762202753442,1.0586631408478056,-0.0110654444925365,0.0598859899894037,-0.0922773500647892,0.024866262330198,-0.046582812591086,0.0425841229944546,-0.0199789755850273,0.0123944309998704,0.0411114456362439,0.0381560637355518,0.0350396140127782,0.020559020845678,1013.1873390846426
0.7909887359198999,0.9756639137462544,0.0250389186956813,-0.001022934645461,-0.0059083613940032,-0.069631453589463,-0.0225816123273738,-0.0317976998889658,-0.0712796361196129,-0.0947710046125504,0.0507281124145992,-0.0370302196409115,0.0562140604690757,0.1005698728875219,1013.3467186607392
0.8010012515644556,1.0783955931510127,0.0828052140556915,-0.0767534205265819,0.0001734317289192,0.0097368844927834,0.023589136190238,-0.0532296096021541,-0.072797376089154,0.035728853931948,-0.0546443510119765,0.0754195386952457,0.0345192227861434,0.0046752602090635,1013.269543056398
0.8110137672090113,0.9575642949909536,0.0004702864129166,-0.0257940603887857,-0.0134984436896133,-0.0359714873630774,-0.0608818596815982,-0.0139850331537687,-0.0129623438690944,0.0560207480905325,-0.0094959766962215,-0.0001695512224367,-0.0338276705607983,0.0136507444716895,1013.1773717526283
0.8210262828535669,0.9790312336301517,0.0063608090830835,0.012425170121076,0.0368976788225155,-0.0389923217837476,0.0228843260362169,0.0337013068863087,-0.0389668327945402,-0.0399360608879814,0.0428732370763395,-0.0237088089797803,0.0104547911816257,0.0620484218866785,1013.2218697177236
0.8310387984981227,1.072803703526106,0.0043823076086914,-0.0411556053933236,0.0151180129746596,-0.0007132966598475,0.0302830638339,0.0514623521617256,0.0473244343116679,0.0097815020537484,0.0088081171531167,0.0800900498419822,-0.0486705223336064,-0.1144344355002712,1013.2308649186964
0.8410513141426784,1.1203264337708965,0.0580844083877444,0.0391117983718957,0.0722313031299192,0.0156809809608233,0.0178228251358971,0.0296007208371795,0.0431347181843879,-0.0182032880906432,-0.0097219000796603,0.0278650427651012,0.011194258544087,-0.0079596083931841,1013.1979072698874
0.851063829787234,0.9964147564328604,-0.0030487864677075,-0.0523773304643081,0.0373725220007252,-0.0788838662173614,-0.005551161416511,0.0487121921194183,-0.0164987030317416,-0.0428744464538935,0.0740474291506845,-0.0133164812454905,-0.015483805665696,-0.0102937570744982,1013.2297970860348
0.8610763454317898,1.0615792033032805,0.0436785408637778,-0.0324957164957226,-0.093714225871228,0.0525381651062447,-0.1144277976884165,-0.0540695206695527,0.0840923545533627,-0.0328165966633264,-0.0294091747571227,-0.0440193655793041,-0.0769140521550424,-0.0334537537264227,1013.259372637471
0.8710888610763454,0.9561003617778516,-0.0643210261324783,-0.0118107770417097,0.0700456536273695,0.0476855752912684,0.001888966647107,-0.0128221120169333,0.0291951751283553,0.0479201051144854,-0.1027162905237516,-0.1149022045254458,0.0033937193647338,-0.0555227676736394,1013.211698962817
0.8811013767209012,0.9535309595567328,0.0423765213297979,-0.0850827746598347,-0.0605150373273737,0.0922459904209499,0.0635751874194511,0.0591492872246194,0.0204502161328786,0.0450317137090087,-0.009918393395287,0.0344872821389719,0.0450985623973513,-0.0038565827226116,1013.2375072663016
0.8911138923654568,1.0477314661719794,0.032906029586047,0.0236508785762077,0.0108345027743051,-0.1040138924413037,0.0666151337629216,-0.0145878963564921,-0.0468596894098759,0.0225964192901655,-0.0163793155557285,-0.0143440008658897,-0.0065120120830015,-0.013620976466697,1013.336762098183
0.9011264080100124,0.9587864274964248,0.0856284747749601,0.0323683248080318,0.0336144937625614,-0.0159182639910276,0.0219846779349019,-0.0392874131184223,-0.0323659686481036,0.0397679626850427,0.0321536909894799,-0.0272177907703215,-0.0743862445848278,-0.0178706766590665,1013.1445313262708
0.9111389236545684,0.9485461352252454,0.0576895951199147,-0.0107412393338974,0.004959172899295,0.0502379615333913,0.0142795305721885,0.0302787289327005,0.1584694010424419,0.0187891015979852,-0.0229101905537979,-0.0108665720070575,0.0222473254905777,-0.06529757146703,1013.2948407424916
0.921151439299124,1.0406348152674163,-0.0235287568566127,0.0378821467656726,-0.1211627810667237,0.0219811636363209,0.0444065794686115,-0.0921606870391552,-0.0469195011117921,-0.0334320874118106,0.0663019170077459,0.0105849970198536,-0.0407722387826609,0.0288719793137748,1013.2968876817392
0.9311639549436797,1.0258363953939842,-0.0898268834739749,-0.0407875153332662,0.0080553043259458,-0.0028610931605279,-0.0553895953901288,0.0050202993596957,0.0316967044615336,0.1063590411110895,-0.0561380503776299,-0.0078809481857239,-0.0295377177633633,0.0555124797986117,1013.2494008812936
0.9411764705882352,1.0214470400759732,-0.0352004268802411,-0.0116498204255581,0.0001702207249643,0.001742701406492,0.0437841210415826,0.0362755876707025,-0.0113723590355479,-0.0165434782436266,-0.1031695950814151,-0.0394724937977068,0.1189262226392626,-0.0283051365284049,1013.2768050951988
0.951188986232791,1.0674589615334755,0.02144537902201,0.0252440449513365,-0.0934080268802688,-0.0093164104983839,-0.0123304343744828,0.0279400098160372,-0.0331964488572379,-0.0224386485508728,-0.0516721851386925,-0.093801912752848,0.0117040134086035,0.0049138023576563,1013.1652415440152
0.9612015018773468,1.116675771128642,0.0132218806088284,0.0808749014702916,0.0130816245952673,-0.0381784017692099,-0.0287820014469563,0.018014916466172,0.037979980105972,-0.0222100872695687,-0.0031264111159394,-0.1103346895283782,0.0178295084268727,0.0755241862543292,1013.2941470307932
0.9712140175219024,1.062895442897941,0.0368459784331339,-0.0910946270601643,0.0956975735793278,0.0397408620309393,0.0528489176646594,0.0031828255676607,-0.0319060561738013,-0.085313655402667,0.104032987864172,0.0709907274778794,-0.0209703506114295,-0.0081949110048337,1013.2662982680796
0.981226533166458,0.944345618821975,0.0029905472234972,0.0426620728174658,0.0483741398196675,0.057034934057047,0.0871008076253424,-0.0268962539543346,-0.0224313523667314,-0.0358414810686201,0.0514177989687271,-0.0533202461603851,0.0172512413498536,-0.0230587164232333,1013.2845825594372
0.9912390488110138,0.9978848478730196,-0.0970297446431407,0.0021968494657103,-0.1083279529120935,0.0268309738880007,0.0012721959360697,-0.1049382716792159,-0.0418125707138477,0.0022936121858343,-0.0547977441106256,-0.0141856164982634,0.0635593753198972,0.084264845155596,1013.2972662958751
1.0012515644555695,0.9852061451841396,-0.0833143384107879,-0.048957995741423,-0.0155800236151618,0.0020915590141888,-0.0227731863392092,-0.0314928810383629,-0.0365683648983875,-0.0421978826893399,-0.040817461542832,0.0313880801828847,0.1011908246893385,0.011485409961778,1013.2442179426416
1.0112640801001251,1.0369027699469668,-0.0442572074247441,-0.0265540641463639,-0.0722341837805911,0.0879866812296406,-0.0595536976954355,0.0424878566025896,0.0085125260673621,-0.0917216379330942,-0.036709287645492,-0.009131883602503,0.0523428053299805,0.0365469410172765,1013.2892248710612
1.0212765957446808,1.1634466950335032,-0.030841102862755,0.0497344624938994,-0.1436870210945761,-0.0725248366680523,0.0713397710212041,-0.0023309946368478,0.0628889145235451,-0.0087191622412765,-0.0287884789153414,0.0595341667784253,-0.1351218985352368,0.0371391338985944,1013.251275805628
1.0312891113892366,1.0221278290007063,0.0105024018981074,0.0762072859483458,0.0036301058180029,0.0265931734898034,-0.0051535625201083,-0.0364997348678476,0.001923895740743,0.0061007825121371,-0.0264357201794441,0.0553622713150446,-0.0875832407029585,-0.0175323567240653,1013.1681559828128
1.0413016270337925,0.9464941603967328,0.0146462782690736,-0.0069038243979229,-0.0422921560192288,-0.0415632445961232,-0.0165891248556003,0.0340252473505864,0.0020322814655811,-0.0486972542560559,0.0130561918200407,-0.000610836234833,0.0985638248713254,0.0310705074346185,1013.148141493538
1.051314142678348,1.0510898873897134,-0.0165684527909938,-0.0212409161361169,0.0856645200736611,-0.0530834363116521,-0.0280146596227138,0.0758378268980612,0.1109325412461803,-0.0309288583492417,-0.0391059308074639,0.0311487295627702,-0.0217367554134677,0.037640348880997,1013.2747564053492
1.0613266583229035,0.975468948401962,0.0062605306530834,-0.0094380508288995,0.0614260344152698,0.0397011485450695,-0.043733085970635,0.0261741486824094,0.0579472985579976,-0.0413803336552747,0.0535682952843818,0.0292147944067881,0.0168650334767242,0.031291872077473,1013.3055546026494
1.0713391739674594,0.9183882565860736,-0.0806770316860729,0.022283074563873,0.0648172655054079,0.0144666633493188,0.054726443744754,0.0066141390574253,-0.065956548802253,0.0366998560772482,-0.0075858399169822,-0.0910230004122716,-0.0157187627824649,0.013276060076369,1013.2192581817012
1.081351689612015,0.9510339239638148,0.094787155489882,0.0159284921564322,-0.0148327522333032,-0.0321762351755079,-0.0715871401507543,0.0462265628527988,-0.0856399832623985,-0.0386680528603946,-0.0100040337088239,-0.0048110028107962,0.0862192384919064,0.0106677857553279,1013.2119813648358
1.0913642052565709,1.019034683272276,0.015532953713093,-0.0265835195469941,-0.008351271057279,-0.0119119582787941,-0.0423174116593281,-0.0094285372533407,-0.1395544943373819,0.0340846948774087,0.0369680993839249,0.0554706486868257,0.0066658266078678,0.1408242119707799,1013.2331234914276
1.1013767209011265,0.9873538709336684,-0.04676218855268,0.0214190028803238,0.063032801074373,-0.0546544334404553,-0.0033186508966493,0.0485193487405716,0.0105863609477903,0.0075675893506205,0.0038058555245762,-0.0045766228646466,0.0390255652248839,0.0161244152826228,1013.1638323903884
1.111389236545682,1.0000212508188353,-0.0027506362093594,0.0538887506379253,-0.0259529154423311,0.0177771581437329,-0.0366977049066919,-0.051440635867131,-0.0552393271215483,0.0251287518824248,0.006606271679351,-0.00739866446924,0.0345611614134114,0.0535660593556766,1013.2607586968946
1.1214017521902375,0.9842990229874812,0.0329092061604016,-0.0208619536659698,-0.051063088673134,0.0704609241156833,0.0067187956672226,0.072901140234748,0.0328678188835878,-0.0736430186320808,-0.0275331845466184,-0.0095063882074007,0.0086092912005085,-0.0140579301297181,1013.2582861594487
1.1314142678347936,0.9337284136765384,0.0985998405440054,-0.0131520373594859,0.0494916624244135,0.1205708356816556,-0.0287212754758801,0.02466310399867,-0.0149377132228392,0.0080362611035471,0.0182725854485508,-0.0690164719064766,-0.0528338442994444,0.0038323499418543,1013.221491582198
1.1414267834793492,0.9672337977182148,-0.0282859862740699,-0.0520945713341856,0.1399301044994517,-0.008038235000081,0.0033506091358617,-0.1047304165975482,-0.0165312827046748,0.059036645527978,0.0450474893014833,0.0044596964552146,0.011324512729617,0.0537398741517135,1013.3098252273368
1.1514392991239049,1.041136721087037,0.0503248205383555,-0.0316052781496052,0.0241487021385428,-0.0407199864022735,0.0867864356310978,0.0129922739759246,0.0514250562874215,0.0563997777896695,0.0795023343630054,0.0026913209131092,-0.0246504384732385,-0.0065622143439737,1013.2083862572374
1.1614518147684607,0.9451140025104946,-0.0587892258882671,-0.0104181491664741,-0.0189511552006826,-0.0355722546373842,-0.018099065995081,0.0243953633878697,-0.0574594229232677,0.0398496906382558,-0.0088986818657977,0.0061795434894953,0.0048527060468866,0.0040652017795583,1013.238720091423
1.1714643304130163,1.0176090699542044,-0.0086113339220088,0.0954109699391217,0.0381540133380788,0.0098912831653103,-0.044689314276386,0.064476028231709,-0.0065430054046455,-0.0641113898797057,0.0521199112495891,0.0185011804306847,0.0403116493594227,0.0461159134775277,1013.2729910891796
1.181476846057572,1.010522820722722,-0.1382826405209862,0.0036225775995735,-0.0023814776180156,-0.0209882769339089,-0.0547713058572452,0.0286069059744909,-0.1099385987918524,0.0563867911681644,-0.0502031905302624,-0.0714465245819008,-0.0515430575962177,-0.0818134429357426,1013.2744773530696
1.1914893617021276,1.0587216495584495,-0.0338810915558233,0.0027115291483936,0.0140151474116723,0.0903064033866509,0.0111511631644822,-0.0298344799936835,-0.0494130618864505,-0.0417101212285079,0.0279736184542463,-0.0429566804353829,-0.0244884374984534,-0.006823644049817,1013.2212436240254
1.2015018773466837,0.921808901060644,-0.0148297802046047,-0.0407970854968143,0.0196211157707138,0.0384785020463798,-0.0153164386766592,0.1005191035794151,-0.0180804787296045,-0.0411990485557906,-0.0041654573590395,-0.0008680679872322,0.0694118103931627,-0.043797656787201,1013.2546861121912
1.211514392991239,1.0263891755556145,0.0166691091739502,-0.0645581932551124,0.0031589787365015,-0.0183228645483367,0.0815989784995395,0.0115929359826469,-0.0280148915663389,-0.0296483125355882,-0.076934641130582,-0.0127218910923272,0.0027522682631121,0.031547869760708,1013.297117635811
1.2215269086357947,0.9853149021299344,-0.0017283784364699,0.0190850389954004,0.0317203099690024,-0.0500285297558953,0.0670348927795895,0.004699046123175,-0.0589332478140404,-0.0715298742966334,-0.0079944863087386,-0.1059630728427184,0.0528092670056613,0.0267055587153841,1013.2485440158656
1.2315394242803506,1.0094458479368038,0.1049130545776881,0.0676509837873827,0.0100972703867562,0.0104654115991478,0.0364820184807932,0.0618414909091141,0.0229605509956491,0.0725467504639353,0.0794809258209446,-0.0185753880817408,0.0106095069329081,-0.0052980157253413,1013.2223958337609
1.2415519399249062,1.0949335200346373,-0.0584743372237604,-0.0207033928011857,0.023239006852695,-0.003994100208283,0.0709392379726262,-0.0105508849555023,0.0389204166634394,0.0786628715368688,-0.053351138292125,-0.0021352332995751,0.054920311666098,0.0237258630133105,1013.2136336911748
1.2515644555694618,0.9687010125833488,0.1075335623326286,0.0491567173715346,-0.0680499923478013,-0.0628206760154763,0.0812338136025687,0.0109984483079234,0.015584330800251,0.009092058007081,-0.0768019514098365,-0.000958002369941,0.0288210421509912,0.0676883577150245,1013.2685463268198
1.2615769712140177,0.9826053919391448,0.0660763278670047,0.0930635047285621,-0.1325786271355981,-0.022684883309753,0.0025774282466672,0.0677182078907896,0.0554948531083863,0.128461442503794,-0.1006657136838746,-0.0260257880757717,-0.0598298386280766,-0.0595141584948748,1013.2327709633818
1.271589486858573,1.0051672700063676,0.0209190921671545,-0.0679326360081883,0.063446953653077,0.0477704097317139,-0.0043500331565543,-0.0285894444524724,0.0219105312527276,-0.1034434942913624,0.0134944796614702,0.0890454687082278,0.0998608074405806,0.0484646041921176,1013.2295289654128
1.281602002503129,0.9665213287146468,-0.0261392273204861,-0.0357096192130607,-0.0697359468836053,0.003989642670776,-0.0459650263518254,0.0302909280885374,0.0058293791807462,2.099161087859269e-05,-0.0713431921750912,-0.0409883280633777,-0.0189882774402693,-0.016995483332123,1013.171803644907
1.2916145181476846,0.962719227895536,-0.0422310464571667,0.0322007621765077,-0.0080727354056788,0.0192911039400395,-0.0478492096143896,-0.0161996441971673,0.0019897160978546,-0.0251197526397069,0.0357777548263315,0.0615285482589445,0.0401663452097862,0.0132540636286261,1013.3571212352416
1.3016270337922404,0.9547864957613348,0.0041662228958942,0.0603255242668438,0.0322489947066652,0.0282777067118069,-0.025905394177585,0.0188994481743234,0.0736752815965989,0.0010068814617974,-0.0071562433424169,-0.0247518162881429,-0.0819122618149112,-0.0234569070772105,1013.2418436655876
1.311639549436796,0.981302453989507,-0.0355580957582069,0.0723729212150798,0.0143890176764323,0.0047737340925121,0.0239773095949855,-0.0898733271138811,0.0871432010418203,0.0726411310172441,0.0548242950394985,0.0616611387380924,-0.0179584541390152,0.0007571433341691,1013.3037767280662
1.3216520650813517,1.0584992158747246,-0.0169383399463884,0.0463972012275012,0.0030781994262007,-0.0456469689142083,-0.0627925401495665,-0.0501596144942216,0.0397195706241076,-0.044415262105638,-0.0553551929335577,0.0191179707822109,0.0215294536558272,-0.0566482862921283,1013.174393648512
1.331664580725907,0.9825632049485716,0.0325598667302819,-0.0824089031870099,0.0546248938022441,0.0043553025324972,-0.094153031066978,-0.0342150170160993,0.0395082864496794,-0.0400944216674072,-0.0310692495079632,0.1234534460386736,0.0151913550631231,-0.0183746811635355,1013.247888249194
1.3416770963704632,0.9871471023259474,0.0136845249226446,-0.0167730781924958,0.0285173256752728,0.0165231469395843,-0.0693797294490074,0.0234219193031463,-0.0224137843873187,0.0586011406664125,-0.0188419422392863,0.0860897083894072,-0.0520802803113875,0.019312110626894,1013.1966627657008
1.3516896120150188,0.9748841680819218,-0.0284456167608245,0.0346211516778658,-0.0969660005265968,-0.0304826824703562,0.0674616409754449,-0.0370672588422993,-0.0599399496381205,0.0549806311134879,0.0011788172576066,-0.0044073786541145,-0.0870017531629031,-0.0672661928692249,1013.2895837419594
1.3617021276595744,1.0387770542239605,-0.0133518484409152,-0.0126138807746619,-0.0230066663385308,-0.0733744247552694,-0.0608871526816653,-0.0530418618451736,-0.0103475834092135,-0.0102214060391884,0.0348250903290902,-0.0271332124563619,-0.0145506143437621,0.0898426495519464,1013.2036179010456
1.3717146433041305,1.0842502225325528,0.1047468647473573,-0.0375514682971387,0.0327343209478806,-0.0664104452314596,0.0828266369161476,0.0675916833506869,-0.0341844137584936,-0.0356100016187619,0.0132750856792574,-0.0136873476168678,0.0873129560600256,-0.0072455252398134,1013.2482985765854
1.381727158948686,1.1177535174498814,0.0278544773008348,0.0247701195376534,-0.0706833295365045,0.0133688876364731,0.0229974682140951,-0.0116840850367205,0.0047539570671494,0.009952825044484,-0.0401700721735405,0.0300449683358439,-0.023187786367454,-0.0289798473196248,1013.1986057425968
1.3917396745932415,1.0249164184609063,-0.0086445801604438,0.0221718144101703,-0.0119974281460931,-0.0086575837058108,-0.0325064768683826,-0.0151251905520016,-0.0316670331902338,-0.0271987705628954,-0.0295027761381335,-0.0673203063918088,-0.0111075219630827,-0.0268630070125255,1013.23793749672
1.4017521902377972,1.0823925643898358,0.00888828250973,-0.0076018211441775,-0.0238336692069167,-0.0132387865076816,0.0129969260894277,-0.1119458285363688,-0.0524704663784992,0.0310111725369077,-0.0425904177213284,0.0080026913766746,0.0380416536391943,0.0079943612836067,1013.2751839444384
1.411764705882353,1.0045426970985698,0.034132576608369,0.0248517263698305,-0.0224256071920457,0.018455374404486,0.0745643726755748,-0.0692912342569346,-0.0008538567123759,-0.020328350730077,0.0915746779855392,0.0127851669899811,-0.0273667437585778,-0.0696131741226753,1013.1818613831492
1.4217772215269089,1.0902570372195453,-0.0135778885561082,-0.0582133037523211,-0.0153008431689989,-0.0605965408738883,-0.120313813063564,-0.0232001393799678,0.0151495047188994,-0.0011420269821358,0.0070743700667744,-0.0019021649816365,0.0996037408225807,-0.0440526852847825,1013.1774764150888
1.4317897371714643,0.9357038415999556,0.0411479358980745,-0.0424626732257217,0.0077735219965086,0.0334516210316516,0.1016679392297977,0.0667527921028315,-0.1276944522422777,0.024277338875407,-0.0422566501345515,-0.0232856334162684,0.1088363495621482,0.0690889474272797,1013.2970771307392
1.44180225281602,0.9837939917515528,0.0502773161214606,-0.0533882573251354,0.0079006924388642,-0.1207705505615966,0.0679343981886665,0.1083564162019727,-0.0575949053140001,-0.0045030835985987,-0.038754255231551,-0.0669932302265163,0.1113357434681527,0.1329342101808256,1013.163051086217
1.4518147684605758,0.924471217962436,0.080660271212245,-0.0791444768056819,-0.0296959820645344,0.0258077201094012,-0.0287413469434686,0.0729399107285858,0.0280267750199135,-0.0234438889470821,-0.0501271966954809,-0.0574849842308333,-0.0119278150747357,-0.0043399709502737,1013.2478123295642
1.4618272841051314,1.0404573204364815,-0.0118951671220895,0.0151053884751393,0.0454328024217939,0.0055614613970912,0.0108663434806063,-0.02407729952098,-0.0491201884518766,-0.063284592086327,0.0398364257724155,-0.1291250925815842,0.0671971768244546,0.0128275001532371,1013.2391834284642
1.471839799749687,0.93649159979854,0.0844079574129234,-0.0045401052064912,-0.0375639135725345,-0.0453048157789664,0.0713699691089511,-0.0205676335554219,0.0859035626345588,0.0135339151440032,-0.0035435526685918,-0.0095766122774686,0.0012002061137138,-0.0209578443839411,1013.2204816835908
1.481852315394243,1.007948131566511,0.0167417309823409,0.1039655418368972,0.0448219571585085,-0.0481170222713763,0.0171021305717604,0.0321751572249677,-0.0467613141817302,-0.0111657445967668,-0.017670647618568,0.0341356117089929,0.033467070655118,0.0413658556366534,1013.267069304848
1.4918648310387983,0.9851270610718244,0.021668525783783,0.077589091299929,0.0634964856435798,-0.0319545147253432,-0.0087809616779469,0.0102334713790126,0.1195718420547792,0.0152421562001251,0.0218443819985275,-0.0446294452347939,0.0044499413327386,-0.1243537162285451,1013.2330781843968
1.5018773466833542,1.0259295197192757,-0.0616057693224103,-0.0040321047345599,0.0528832345483577,-0.0166831371041366,-0.0955470868337693,-0.0312275806037022,-0.0935538375051732,0.0491521947113001,0.1078142502424651,0.0158989173499857,-0.0052442572432159,-0.0431537642189177,1013.2777968389958
1.51188986232791,0.944945083002366,-0.0270586952922329,0.0600926730809522,-0.0411847868056514,-0.0425040152573093,-0.0432113677601741,0.0264334690081604,-0.035118842789807,0.0566533335276286,-0.0208433870951737,-0.0112265259428205,-0.0135212588609959,-0.0421904555497686,1013.2055674016198
1.5219023779724656,0.9756827210008964,0.0476481591840394,-0.0384455667399885,0.0685335696715965,-0.0144716907497797,0.0375622714185539,0.0336671871927014,0.0170948374847445,-0.0402201205512382,-0.0422763881277543,0.0491857734798136,-0.0208465124021513,-0.004212667954329,1013.3006307552556
1.5319148936170213,1.0587701618226617,-0.0209989600117318,0.0265436948481567,0.0047631362673057,0.0740759252308013,0.0796602570387095,0.0724662446771027,0.0255129530440796,0.1381971104674544,-0.0526064251774176,-0.1068858526699858,-0.0495442532548492,0.0292293787668344,1013.2561449416712
1.5419274092615771,0.9852517298745206,0.0269515704175041,0.0956939293593823,0.0185016955546398,-0.0167750470097853,0.0303210781646331,-0.0565530229798836,-0.0590913323712113,0.0675613313727601,-0.0593282890130533,0.0462183160555906,-0.0183944009733303,0.03909455093761,1013.2246693888447
1.5519399249061328,0.9480183080555066,-0.0122384496359153,0.0472198421198797,-0.0696737774615084,0.0962144237102071,-0.033981448905166,0.070724250206558,-0.0138500856371559,-0.0415915964624477,-0.0699672058841833,-0.0430085294160722,-0.0229459542096762,0.0296639809833015,1013.247519869574
1.5619524405506884,1.042522347913701,0.0204225322814365,-0.02159922324883,-0.0298036694985548,-0.0451091334970701,0.0540134230155004,-0.0507379288430392,-0.07373234646463,0.0199206452572085,-0.0672150778687492,-0.0861311810296706,0.0105336276835286,0.0149243388500642,1013.256018169856
1.571964956195244,0.9522702173812836,0.0385967572113997,0.0211726638273088,0.0091268737185121,0.0584397819314606,0.0343578012337254,0.0063013782932561,-0.123752242741221,0.0074914680774925,-0.0246679570821084,-0.0368254870667691,-0.0696297110950055,0.0469975082758489,1013.304974890126
1.5819774718398,1.0090145057584277,0.0308620038637219,0.0382457524315334,-0.0684159876776638,0.0542498090906674,0.0593604080232131,0.0126784850434577,-0.0104878428875782,-0.0003605487458775,0.0312526681598403,-0.0981481812996903,-0.1243305773336309,-0.0915774001725137,1013.2532463730134
1.5919899874843555,1.0870232627220489,-0.0567929027743852,-0.0877719268043858,-0.0482273093844142,-0.0040902831920213,-0.0178834994121659,0.0240579334562498,-0.0043205760221375,0.056187222141079,0.062530221980649,-0.0437189173279229,-0.0863786549872021,0.084773951155036,1013.1691536168578
1.6020025031289111,1.0392757984995078,-0.0367420576937976,0.069714215724648,-0.0461324889692199,0.0451276676707335,-0.0282703379177165,0.0246965061207171,0.0877135970244284,0.0050722316008488,-0.020493853839957,0.0172228783254114,0.1234939341992776,-0.0298294619092544,1013.2254001820316
1.612015018773467,0.997052638845548,0.0121094430930416,0.0029831747990349,-0.0841314272508899,0.1128380421564206,0.0353847436789373,0.0628515926252923,-0.0292072512486651,0.0107938162360029,0.0659844429838271,0.0510648525490807,-0.0206479599395868,0.008208951095847,1013.2325946538732
1.6220275344180226,1.0050347891780014,-0.0855354159656494,0.0199052124291383,-0.0356019674055249,-0.0447380691554161,0.0173962410175453,0.0321460061025886,-0.0321232720473933,0.0151579675045023,-0.04635941686758,0.0496176054294826,0.0236442129961283,0.0072158293766892,1013.208361746155
1.6320400500625782,0.9785028721012848,-0.008535708051788,-0.0604477271915248,-0.0008981400815298,0.0385031861985761,-0.0586784640891775,0.0508529007687347,-0.0146970631331121,-0.0386295770486105,-0.0676035224864434,-0.0302374844232989,-0.042469705084266,0.0725862174736471,1013.2829357269248
1.642052565707134,1.0624535491346032,-0.0128972538346626,-0.0657716171435272,-0.0363254632280928,-0.0309739778256692,-0.0278269559206154,-0.0590230850103004,-0.0514931025115267,-0.0333061790756598,0.0322925724136407,0.0670996007705444,0.0463961279824689,0.0254967374703385,1013.3253570702776
1.6520650813516895,1.0129340038857282,-0.029004556864149,-0.0158867496856799,-0.0206171472988486,-0.0533938836481935,0.0092531396477618,0.0625195344388311,-0.0200932870065967,-0.0167288631856408,0.0059281064831596,0.0783261392151708,-0.0202252718784976,0.0607904911957623,1013.289603014156
1.6620775969962454,1.065390827154157,-0.0269400020524204,-0.0491209331442102,0.0284721177781864,0.0109409827499036,-0.0155994641551398,0.0286380599095802,-0.0809829821167324,0.0786128147681852,0.0218273743597928,-0.0146083795863975,0.0110098930431312,0.0179525082302445,1013.287675995505
1.672090112640801,1.0008143337328688,0.0837066902424747,0.1277330792939412,-0.0517373698896082,-0.0067768174421579,0.0417330948289479,-0.0229068830842842,0.031550989807994,-0.018942805367993,-0.0674173524417417,-0.0541420871652067,-0.0443826432611886,-0.08301541864514,1013.3213711467464
1.6821026282853568,0.9306865477474872,-0.0437155859877766,0.0043102328869147,0.0038948154309315,0.0974087731687213,0.0700484834914073,0.1151971844833211,0.0696348673896445,0.0465144869920262,-0.0443396172970277,0.0227009915424479,0.0206082709738888,-0.0582263027832963,1013.2307958249936
1.6921151439299125,1.0018700640466744,-0.0640742781586834,0.0476996862057858,-0.0054470799048988,-0.0432722032218807,-0.1010588914525893,0.0559110111230203,0.0238854866092498,0.0087215546700516,0.0278687204213002,-0.0402012552707057,0.0975332748343905,-0.0287959453166016,1013.2319846733812
1.702127659574468,1.0156709883923256,0.1167952159355755,-0.0123834872221526,-0.0674332847094013,-0.0402426759201209,0.0155288297013608,0.025790557935202,-0.0657560453221677,0.0700668560248281,0.0895592639970927,0.0557763982772396,-0.0003247918120009,0.000587410666301,1013.238222215649
1.7121401752190235,1.019678471328113,0.0352712593410068,-0.0105621799663777,0.038216872357182,0.062400712324237,0.0611489250881697,-0.0201039634715266,-0.1024804674002239,0.018316714878638,-0.0201897888522837,0.0413577100940498,0.0435773135054405,-0.0313251037322785,1013.2333008606288
1.7221526908635796,0.9411537436584458,-0.0199942942476,-0.0826374890341342,-0.0143325411597962,-0.0129933670255794,-0.136713909908847,0.0667518557829276,0.0124828515422554,-0.0374832857495445,0.0563529776939202,0.0111694929537747,-0.0438295314114107,-0.0948844761313851,1013.3233850229998
1.7321652065081352,1.0163679640116492,-0.063231107198172,-0.0506217754309651,0.0280675171643705,0.0449080721078819,-0.0368015006481533,-0.0947880954802622,0.032403019573189,-0.0595075430838397,0.067281463358408,-0.0129442458763022,-0.0363705716891654,0.069386073476939,1013.3145883951398
1.7421777221526908,1.01027434967472,0.1278616100976291,0.0062001219037625,0.0596473358666571,0.0386816419083515,0.0028509770618746,-0.0241943604234294,-0.0051412805160872,0.0489590713039505,-0.0282002266227008,-0.1270943406683872,0.0291912021116093,-0.0194112739063252,1013.1507316451076
1.7521902377972467,1.117799673524606,0.0235366555952651,0.0616144122011942,-0.0305799632318143,0.045954856994711,-0.0435289521387979,-0.0142433376323683,0.0427851374530942,-0.0187653095435581,-0.0124345085353485,-0.0135837404009843,-0.0270691817234639,-0.0725506732418309,1013.3308637408372
1.7622027534418023,1.0817253842972243,-0.0329250115000516,0.0681551176376673,-0.0773979593254111,-0.0768017515225319,0.0016410082393653,-0.0805507842441654,-0.0098991495920392,-0.0933603115187208,0.0200707133979234,-0.0343020679991763,0.000188980728756,0.0067577894362332,1013.2501636413224
1.772215269086358,0.9686335273464884,-0.023366631630505,-0.0815590887681853,-0.0353010393074855,0.0674740099626299,-0.0614871263775848,0.0831648115794635,0.067819045710943,0.0090227542841747,-0.1272082809159705,-0.0154915509442426,-0.0104155726347633,0.0359299002022299,1013.2214830037196
1.7822277847309136,1.036362674758279,-0.0349143694735501,-0.0743976625128598,0.0195371191396646,0.0159295033266699,-0.0179418023380487,0.0292966106533775,-0.0245606466611369,0.0127447369774793,-0.0720266977641694,0.0193151480940425,0.0021749733792685,0.1108312801705254,1013.2279008656848
1.7922403003754694,0.98403193561857,0.0217760579264306,-0.059749613900752,0.0442831492942031,-0.0567677265566623,-0.0150238765376175,0.0586852399162717,-0.060841778704622,0.0024922344113124,-0.0109631086678235,-0.005520123662102,-0.117660665511841,0.0972993467578615,1013.1789327834618
1.802252816020025,1.0041862083981474,-0.0114739303917721,-0.0932550075725284,-0.0848662705822318,-0.0120751567920792,-0.0624688876584834,0.0488006301801507,-0.0355131820734695,-0.0487533419513955,0.0399844088488365,0.0229333437577369,-0.0158817991887767,0.0032629631403283,1013.320007678267
1.8122653316645807,0.9973939465717347,0.0798836949520472,-0.0330627395914879,-0.0120124656183632,0.0316959075122503,0.0364315045197158,0.007887830217408,0.0258959836543103,-0.0062729216884984,0.0228895653531412,0.0510261843815601,-0.0127026693138549,0.0418887986804494,1013.2848349821054
1.8222778473091368,0.9837326707102868,-0.0732769976050865,0.0062597475084218,0.0741799944347274,-0.0139809338022179,-0.058066167713364,-0.0339022978641144,0.080894149128051,-0.024844879909703,-0.1012386081638655,0.0578230577219534,-0.0002417016361892,-0.0260198582886691,1013.2305919881506
1.832290362953692,0.9610368018392996,0.0111665231007381,0.0555862789563839,-0.0154048931104595,0.0529121577697446,0.0262848720447781,-0.1069788096155092,0.012049853479352,0.0210051699542409,-0.0067622262233583,-0.0099803850781919,0.0391686065222758,-0.0384722450597266,1013.3029246888558
1.842302878598248,1.0473636118317782,-0.0478472581387528,-0.0213569517105028,0.0289232620137679,-0.011062898661673,-0.0090347559543076,-0.051256751956035,0.0230474594565293,-0.0276408267371752,-0.0128971174616059,0.017296498978942,0.1296839869824242,-0.0019735575478792,1013.2981911294198
1.8523153942428037,0.963534404160747,0.0231733013197675,0.0090996697018649,-0.0948696933815059,0.1303354622756733,-0.035895843419291,-0.0214208868225214,0.0194676349745725,-0.0245948619201848,-0.001524246692457,-0.0035984776518431,0.0286143759074755,-0.015755195142866,1013.2158186167768
1.8623279098873595,0.994500712583991,0.0367813772149577,-0.0393326870996117,-0.0077636295949119,-0.0631759352798057,-0.0905696413251535,-0.0381461514702926,-0.0731415523246573,0.0416187038726527,-0.0067357052795207,0.0129128228722474,-0.0238020184668861,-0.0148472980351849,1013.1810494568622
1.872340425531915,0.9606653579453872,-0.098530080084409,0.048069421613039,-0.0474752966405776,0.0074069540059807,-0.0633747964111286,0.0729272857316324,0.099409917117355,0.0265603427722058,-0.0937651762301462,-0.0057203342946167,0.0357348589976998,0.0622791920386641,1013.317212809766
1.8823529411764703,0.9649304245212074,-0.0417934310805477,-0.0364181109220765,0.0043589314689827,0.0647826300171744,-0.0876762900361632,-0.0653919244077265,-0.0193149948748754,-0.0150167851143665,0.0015009883101811,-0.0115543162719351,0.0215993572235129,0.0262562852456914,1013.2213269695276
1.8923654568210264,0.933438649939797,-0.0127905870862008,-0.0610958700869331,-0.1242996611754474,0.0258481312841578,-0.0023386027895537,-0.0059947204574089,0.0231109234827507,-0.0016607091693467,0.0084476798677036,-0.0906602023000198,-0.0287423053831731,-0.0970124238970795,1013.2570091990054
1.902377972465582,0.9579537613395652,-0.0237807035609845,0.1334990923824656,-0.0656699085003681,0.040559556181615,-0.0646207151769987,0.0340345700566181,-0.0623531501977516,-0.099333522007794,-0.02635303156586,-0.0329054026918066,-0.0282564833236124,0.0067823433920226,1013.2373794505926
1.9123904881101377,1.038857272133051,0.0989973489675394,-0.0091329360721558,-0.0631792644754725,0.0405840075643646,0.0587553821137977,0.0231465971538958,-0.0022612635612925,-0.0415020043665886,-0.0285626164921614,0.0103900809586598,-0.0090682634315741,-0.0653049312135376,1013.2944777065302
1.9224030037546933,0.9373406899978408,0.0762223223573675,0.0599435569873396,-0.0302747083565395,-0.028507315652651,-0.007907835222108,0.0143244538961295,-0.0527314281358201,0.0241601944523401,-0.0784726842794502,0.0167337687439445,-0.0494260829832967,-0.0026639193499921,1013.3111386759878
1.9324155193992487,0.9825652241881228,-0.0292635467444522,0.0056485196200661,0.0060508041148493,0.0053980758837379,0.0554559028931549,0.0061361283272464,-0.0544610072970731,0.0057515376385564,0.05192930568154,-0.0850658147617017,0.0795383253448795,-0.0668064542129003,1013.1938463341236
1.9424280350438048,0.8713580511455558,-0.0454657601010256,-0.0890654977380054,-0.0445608880426231,0.0115604949609541,0.0125281517298565,-0.0735535016297447,-0.0385589229785442,0.0637489718575575,-0.041720131141298,0.0016630793585354,0.0102895826423862,-0.1260669163250257,1013.230621957699
1.9524405506883604,1.0342061949651662,-0.0252947225035027,-0.0674070722003951,-0.0292745251682503,0.0747252229798851,-0.0035526192554436,0.0231907264239434,-0.0119700406263286,-0.001326805692367,0.0478995647079283,0.0225921005188713,-0.0175533009698983,-0.0300104933420718,1013.3331868686186
1.9624530663329165,0.9692747428415566,-0.0430593044108568,-0.094589344312218,-0.0665064827372104,0.0163481112399432,-0.0541422852114992,-0.056308316511543,-0.0478213287014919,0.1064982031933027,0.0648499398633515,-1.1049209314120636e-05,-0.0013037259836726,0.0750161359674773,1013.3252382451308
1.972465581977472,1.017552947791966,-0.0240262467816536,-0.003152908407477,0.0449545840891305,0.0855176611825066,0.0551059257808724,-0.0728833607877361,0.0340754807556345,0.0086773911019796,-0.0121007284303195,-0.0206953994510537,-0.0755585396749883,-0.0177377061681597,1013.2355513240184
1.9824780976220275,0.9921410012552928,-0.0342108822690308,0.0263906384632516,0.0577770522251876,-0.032684600931489,-0.0036821490570277,-0.0171996922738984,0.1039177473578112,-0.0109192912100872,-0.0066634389670375,-0.0802968068149541,-0.0548035611268034,0.0901945676933381,1013.1963695206572
1.9924906132665836,0.9765341926400928,0.0752648696156471,0.0196563283529776,-0.0620819765252177,-0.0549852783653278,0.0482932485003348,0.0029820148245104,-0.0126873962126774,-0.0482870606753833,0.0322996188887568,0.1252702903671337,0.0283326654101428,-0.0286286189286371,1013.1613815071596
2.002503128911139,0.878285429171682,-0.0589136094741079,-0.0284330126251477,0.073126790663902,-0.10054970656186,0.0005194988636713,-0.0026904794934909,0.0345927748730213,0.0198254170362286,0.0764152479103321,-0.0775724494926786,0.0152568221888249,0.1214151767479545,1013.2258271048972
2.012515644555694,0.9845396249232474,-0.0131865680863521,-0.0306492776465901,0.0148215691468869,0.0359246230384363,0.0041867730431183,-0.0486286267961927,0.028997247510919,0.0052668829268878,0.0013198092653634,0.0965635311562515,0.0378424955288355,-0.0154918352555364,1013.2642113490596
2.0225281602002503,0.933623052309994,0.0328299239036458,-0.0977568821899231,0.0235932352427247,0.08210899301522,0.0765856501033401,0.0675826172874885,-0.0295602240142787,-0.0701520030238175,-0.0524614675458849,0.074707252007934,0.0956195333493629,-0.0430986926618893,1013.2806875698336
2.032540675844806,0.8987759904900021,0.0015928953901688,0.0815771589641966,0.0535049668723976,-0.029972332595684,0.0875661021275675,0.0728492132231111,-0.0689370443182163,0.0698389059591179,-0.0350842797739044,-0.0368154680093583,-0.0822574425462953,0.0394114048351897,1013.250644909287
2.042553191489361,0.9530710785329796,-0.0867976434878726,-0.0767575764764164,0.017649854181714,0.0267793854508522,0.0339524378272753,0.0006206552848924,-0.0262003019421269,-0.0241363057796548,-0.0660579563164019,0.036447437494308,-0.0598290054163462,-0.0233022283099025,1013.3626626815476
2.0525657071339176,0.9592300902120068,-0.010346449571047,-0.0145222977928157,0.0145325000094924,0.0400232681523907,-0.1169339037847224,0.0419363666289953,0.0545586321290126,-0.0295892090185047,-0.0948347160944222,0.0331222582199847,0.041292600263745,-0.0155331099408625,1013.3167126252632
