Timestamp,Acc x (m/s^2),Acc y (m/s^2),Acc z (m/s^2),Gyro x (rad/s),Gyro y (rad/s),Gyro z (rad/s),Beccheggio/Pitch (rad/s),Rollio/Roll (rad/s),Imbardata/Yaw (rad/s),Mag x (microTesla),Mag y (microTesla),Mag z (microTesla),Altitudine (m),Pressione (milliBar)
0.0,0.0,0.0,0.0,0.0,0.0,0.0,0.0,0.0,0.0,30.0,7.0,-40.0,100,1013.25
0.0100057736720554,0.0062857777296812,0.00078584353802,0.0,0.0,0.0,0.00235753061406,0.0,0.00078584353802,0.00235753061406,30.0157168707604,6.999938244039926,-39.9921415646198,100,1013.25
0.0200115473441108,0.0125653449909882,0.0015716385455178,0.0,0.0,0.0,0.0047149156365536,0.0,0.0015716385455178,0.0047149156365536,30.03143277091036,6.999752979973501,-39.98428361454482,100,1013.25
0.0300173210161662,0.0188324974516081,0.0023573364949684,0.0,0.0,0.0,0.0070720094849054,0.0,0.0023573364949684,0.0070720094849054,30.04714672989937,6.999444219241886,-39.97642663505032,100,1013.25
0.0400230946882217,0.025081043045288,0.0031428888648406,0.0,0.0,0.0,0.0094286665945218,0.0,0.0031428888648406,0.0094286665945218,30.062857777296813,6.999011980912897,-39.9685711113516,100,1013.25
0.0500288683602771,0.0313048080897147,0.0039282471425934,0.0,0.0,0.0,0.0117847414277804,0.0,0.0039282471425934,0.0117847414277804,30.07856494285187,6.998456291679826,-39.96071752857407,100,1013.25
0.0600346420323325,0.0374976433862307,0.0047133628276726,0.0,0.0,0.0,0.014140088483018,0.0,0.0047133628276726,0.014140088483018,30.09426725655345,6.997777185859796,-39.95286637172328,100,1013.25
0.0700404157043879,0.0436534302953596,0.0054981874345052,0.0,0.0,0.0,0.0164945623035157,0.0,0.0054981874345052,0.0164945623035157,30.109963748690102,6.996974705391638,-39.94501812565495,100,1013.25
0.0800461893764434,0.0497660867821393,0.0062826724954941,0.0,0.0,0.0,0.0188480174864824,0.0,0.0062826724954941,0.0188480174864824,30.125653449909883,6.996048899833305,-39.93717327504506,100,1013.25
0.0900519630484988,0.0558295734252877,0.0070667695640112,0.0,0.0,0.0,0.0212003086920336,0.0,0.0070667695640112,0.0212003086920336,30.141335391280226,6.994999826358805,-39.92933230435989,100,1013.25
0.1000577367205542,0.0618378993842672,0.0078504302173892,0.0,0.0,0.0,0.0235512906521678,0.0,0.0078504302173892,0.0235512906521678,30.157008604347787,6.993827549754682,-39.92149569782611,100,1013.25
0.1100635103926096,0.0677851283183487,0.0086336060599122,0.0,0.0,0.0,0.0259008181797367,0.0,0.0086336060599122,0.0259008181797367,30.172672121198246,6.9925321424160005,-39.91366393940088,100,1013.25
0.1200692840646651,0.0736653842518298,0.009416248725804,0.0,0.0,0.0,0.0282487461774122,0.0,0.009416248725804,0.0282487461774122,30.18832497451608,6.991113684341885,-39.90583751274196,100,1013.25
0.1300750577367205,0.0794728573796114,0.0101983098822155,0.0,0.0,0.0,0.0305949296466466,0.0,0.0101983098822155,0.0305949296466466,30.203966197644316,6.989572263130576,-39.89801690117785,100,1013.25
0.1400808314087759,0.0852018098073953,0.0109797412322091,0.0,0.0,0.0,0.0329392236966273,0.0,0.0109797412322091,0.0329392236966273,30.219594824644183,6.98790797397402,-39.89020258767791,100,1013.25
0.1500866050808313,0.0908465812208338,0.0117604945177415,0.0,0.0,0.0,0.0352814835532245,0.0,0.0117604945177415,0.0352814835532245,30.23520989035483,6.98612091965199,-39.88239505482259,100,1013.25
0.1600923787528868,0.0964015944780281,0.012540521522644,0.0,0.0,0.0,0.037621564567932,0.0,0.012540521522644,0.037621564567932,30.25081043045288,6.984211210525745,-39.87459478477356,100,1013.25
0.1700981524249422,0.1018613611198509,0.0133197740756,0.0,0.0,0.0,0.0399593222268002,0.0,0.0133197740756,0.0399593222268002,30.266395481512003,6.982178964531202,-39.866802259244,100,1013.25
0.1801039260969976,0.107220486792649,0.01409820405312,0.0,0.0,0.0,0.0422946121593602,0.0,0.01409820405312,0.0422946121593602,30.2819640810624,6.980024307171665,-39.8590179594688,100,1013.25
0.1901096997690531,0.1124736765779674,0.0148757633825135,0.0,0.0,0.0,0.0446272901475404,0.0,0.0148757633825135,0.0446272901475404,30.29751526765027,6.97774737151007,-39.85124236617487,100,1013.25
0.2001154734411085,0.1176157402240302,0.0156524040448573,0.0,0.0,0.0,0.0469572121345721,0.0,0.0156524040448573,0.0469572121345721,30.313048080897147,6.97534829816076,-39.84347595955143,100,1013.25
0.2101212471131639,0.1226415972738079,0.0164280780779619,0.0,0.0,0.0,0.0492842342338859,0.0,0.0164280780779619,0.0492842342338859,30.32856156155924,6.972827235280818,-39.83571921922038,100,1013.25
0.2201270207852193,0.1275462820846063,0.0172027375793327,0.0,0.0,0.0,0.0516082127379981,0.0,0.0172027375793327,0.0516082127379981,30.34405475158665,6.970184338560898,-39.82797262420667,100,1013.25
0.2301327944572748,0.132324948734216,0.0179763347091283,0.0,0.0,0.0,0.0539290041273849,0.0,0.0179763347091283,0.0539290041273849,30.359526694182566,6.967419771215628,-39.82023665290872,100,1013.25
0.2401385681293302,0.1369728758087764,0.0187488216931153,0.0,0.0,0.0,0.056246465079346,0.0,0.0187488216931153,0.056246465079346,30.374976433862308,6.964533703973517,-39.81251178306885,100,1013.25
0.2501443418013857,0.1414854710676224,0.0195201508256184,0.0,0.0,0.0,0.0585604524768553,0.0,0.0195201508256184,0.0585604524768553,30.39040301651237,6.961526315066418,-39.80479849174382,100,1013.25
0.2601501154734411,0.1458582759805058,0.0202902744724665,0.0,0.0,0.0,0.0608708234173995,0.0,0.0202902744724665,0.0608708234173995,30.40580548944933,6.9583977902185215,-39.79709725527533,100,1013.25
0.2701558891454965,0.1500869701327085,0.0210591450739343,0.0,0.0,0.0,0.0631774352218031,0.0,0.0210591450739343,0.0631774352218031,30.421182901478687,6.955148322634883,-39.789408549260656,100,1013.25
0.2801616628175519,0.1541673754936946,0.0218267151476798,0.0,0.0,0.0,0.0654801454430395,0.0,0.0218267151476798,0.0654801454430395,30.4365343029536,6.951778112989491,-39.7817328485232,100,1013.25
0.2901674364896073,0.1580954605450844,0.022592937291676,0.0,0.0,0.0,0.0677788118750282,0.0,0.022592937291676,0.0677788118750282,30.451858745833523,6.94828736941288,-39.77407062708324,100,1013.25
0.3001732101616627,0.1618673442638712,0.0233577641871389,0.0,0.0,0.0,0.0700732925614169,0.0,0.0233577641871389,0.0700732925614169,30.46715528374278,6.944676307479269,-39.76642235812861,100,1013.25
0.3101789838337182,0.1654792999569467,0.0241211486014493,0.0,0.0,0.0,0.0723634458043479,0.0,0.0241211486014493,0.0723634458043479,30.482422972028985,6.940945150193256,-39.75878851398551,100,1013.25
0.3201847575057736,0.1689277589431443,0.0248830433910696,0.0,0.0,0.0,0.0746491301732089,0.0,0.0248830433910696,0.0746491301732089,30.497660867821395,6.9370941279760405,-39.7511695660893,100,1013.25
0.330190531177829,0.1722093140791645,0.0256434015044558,0.0,0.0,0.0,0.0769302045133674,0.0,0.0256434015044558,0.0769302045133674,30.51286803008912,6.933123478651199,-39.74356598495544,100,1013.25
0.3401963048498845,0.1753207231258975,0.0264021759849625,0.0,0.0,0.0,0.0792065279548875,0.0,0.0264021759849625,0.0792065279548875,30.52804351969925,6.9290334474299895,-39.73597824015037,100,1013.25
0.3502020785219399,0.1782589119518175,0.0271593199737431,0.0,0.0,0.0,0.0814779599212295,0.0,0.0271593199737431,0.0814779599212295,30.543186399474862,6.924824286896218,-39.72840680026257,100,1013.25
0.3602078521939953,0.1810209775702829,0.0279147867126438,0.0,0.0,0.0,0.0837443601379316,0.0,0.0279147867126438,0.0837443601379316,30.55829573425288,6.920496256990635,-39.72085213287356,100,1013.25
0.3702136258660508,0.1836041910077427,0.0286685295470909,0.0,0.0,0.0,0.0860055886412727,0.0,0.0286685295470909,0.0860055886412727,30.573370590941817,6.916049624994883,-39.71331470452909,100,1013.25
0.3802193995381062,0.1860060000000149,0.0294205019289718,0.0,0.0,0.0,0.0882615057869154,0.0,0.0294205019289718,0.0882615057869154,30.58841003857944,6.911484665514989,-39.70579498071028,100,1013.25
0.3902251732101616,0.1882240315139713,0.0301706574195102,0.0,0.0,0.0,0.0905119722585306,0.0,0.0301706574195102,0.0905119722585306,30.603413148390203,6.906801660464407,-39.6982934258049,100,1013.25
0.400230946882217,0.1902560940921404,0.0309189496921336,0.0,0.0,0.0,0.0927568490764008,0.0,0.0309189496921336,0.0927568490764008,30.618378993842672,6.902000899046613,-39.690810503078666,100,1013.25
0.4102367205542724,0.1921001800179088,0.0316653325353342,0.0,0.0,0.0,0.0949959976060028,0.0,0.0316653325353342,0.0949959976060028,30.63330665070669,6.897082677737235,-39.68334667464666,100,1013.25
0.4202424942263278,0.1937544672991837,0.0324097598555231,0.0,0.0,0.0,0.0972292795665694,0.0,0.0324097598555231,0.0972292795665694,30.648195197110464,6.892047300265754,-39.675902401444766,100,1013.25
0.4302482678983833,0.1952173214685554,0.0331521856798763,0.0,0.0,0.0,0.099456557039629,0.0,0.0331521856798763,0.099456557039629,30.663043713597528,6.886895077596738,-39.668478143201234,100,1013.25
0.4402540415704387,0.196487297198183,0.0338925641591743,0.0,0.0,0.0,0.101677692477523,0.0,0.0338925641591743,0.101677692477523,30.67785128318349,6.881626327910645,-39.66107435840826,100,1013.25
0.4502598152424941,0.1975631397278056,0.0346308495706332,0.0,0.0,0.0,0.1038925487118998,0.0,0.0346308495706332,0.1038925487118998,30.692616991412667,6.876241376584172,-39.65369150429367,100,1013.25
0.4602655889145496,0.198443786104469,0.0353669963207288,0.0,0.0,0.0,0.1061009889621864,0.0,0.0353669963207288,0.1061009889621864,30.707339926414576,6.870740556170155,-39.64633003679271,100,1013.25
0.470271362586605,0.1991283662327443,0.0361009589480115,0.0,0.0,0.0,0.1083028768440347,0.0,0.0361009589480115,0.1083028768440347,30.72201917896023,6.865124206377042,-39.63899041051988,100,1013.25
0.4802771362586604,0.199616203734398,0.0368326921259149,0.0,0.0,0.0,0.1104980763777447,0.0,0.0368326921259149,0.1104980763777447,30.736653842518297,6.859392674047907,-39.63167307874085,100,1013.25
0.4902829099307159,0.1999068166166671,0.0375621506655539,0.0,0.0,0.0,0.1126864519966617,0.0,0.0375621506655539,0.1126864519966617,30.75124301331108,6.85354631313903,-39.62437849334446,100,1013.25
0.5002886836027713,0.1999999177484768,0.038289289518516,0.0,0.0,0.0,0.1148678685555482,0.0,0.038289289518516,0.1148678685555482,30.765785790370323,6.847585484698042,-39.61710710481484,100,1013.25
0.5102944572748267,0.1998954151441321,0.0390140637796434,0.0,0.0,0.0,0.1170421913389303,0.0,0.0390140637796434,0.1170421913389303,30.78028127559287,6.841510556841628,-39.609859362203565,100,1013.25
0.5203002309468822,0.1995934120542006,0.0397364286898057,0.0,0.0,0.0,0.1192092860694171,0.0,0.0397364286898057,0.1192092860694171,30.794728573796117,6.835321904732789,-39.60263571310194,100,1013.25
0.5303060046189376,0.1990942068634994,0.0404563396386643,0.0,0.0,0.0,0.121369018915993,0.0,0.0404563396386643,0.121369018915993,30.809126792773288,6.829019910557678,-39.59543660361336,100,1013.25
0.540311778290993,0.1983982927962855,0.0411737521674274,0.0,0.0,0.0,0.1235212565022823,0.0,0.0411737521674274,0.1235212565022823,30.823475043348548,6.822604963501994,-39.58826247832573,100,1013.25
0.5503175519630484,0.1975063574289403,0.0418886219715955,0.0,0.0,0.0,0.1256658659147867,0.0,0.0418886219715955,0.1256658659147867,30.837772439431912,6.816077459726953,-39.58111378028404,100,1013.25
0.5603233256351039,0.196419282010631,0.0426009049036976,0.0,0.0,0.0,0.127802714711093,0.0,0.0426009049036976,0.127802714711093,30.852018098073955,6.809437802344817,-39.57399095096302,100,1013.25
0.5703290993071592,0.1951381405926202,0.0433105569760174,0.0,0.0,0.0,0.1299316709280522,0.0,0.0433105569760174,0.1299316709280522,30.86621113952035,6.802686401394002,-39.56689443023983,100,1013.25
0.5803348729792147,0.1936641989670821,0.0440175343633097,0.0,0.0,0.0,0.1320526030899292,0.0,0.0440175343633097,0.1320526030899292,30.880350687266198,6.795823673813756,-39.5598246563669,100,1013.25
0.5903406466512702,0.1919989134164759,0.0447217934055073,0.0,0.0,0.0,0.134165380216522,0.0,0.0447217934055073,0.134165380216522,30.894435868110147,6.78885004341841,-39.552782065944925,100,1013.25
0.6003464203233255,0.1901439292747112,0.0454232906104169,0.0,0.0,0.0,0.1362698718312508,0.0,0.0454232906104169,0.1362698718312508,30.908465812208338,6.781765940871203,-39.54576709389583,100,1013.25
0.610352193995381,0.1881010793015264,0.0461219826564051,0.0,0.0,0.0,0.1383659479692154,0.0,0.0461219826564051,0.1383659479692154,30.9224396531281,6.77457180365769,-39.538780173435946,100,1013.25
0.6203579676674364,0.1858723818716869,0.0468178263950738,0.0,0.0,0.0,0.1404534791852216,0.0,0.0468178263950738,0.1404534791852216,30.93635652790148,6.76726807605872,-39.53182173604926,100,1013.25
0.6303637413394918,0.183460038980793,0.0475107788539249,0.0,0.0,0.0,0.1425323365617748,0.0,0.0475107788539249,0.1425323365617748,30.9502155770785,6.759855209123004,-39.52489221146075,100,1013.25
0.6403695150115473,0.1808664340696653,0.048200797239014,0.0,0.0,0.0,0.1446023917170421,0.0,0.048200797239014,0.1446023917170421,30.96401594478028,6.752333660639257,-39.51799202760986,100,1013.25
0.6503752886836027,0.1780941296694605,0.0488878389375933,0.0,0.0,0.0,0.1466635168127799,0.0,0.0488878389375933,0.1466635168127799,30.977756778751868,6.744703895107928,-39.51112161062407,100,1013.25
0.6603810623556581,0.1751458648698413,0.049571861520743,0.0,0.0,0.0,0.1487155845622289,0.0,0.049571861520743,0.1487155845622289,30.99143723041486,6.736966383712509,-39.50428138479257,100,1013.25
0.6703868360277135,0.1720245526127036,0.0502528227459917,0.0,0.0,0.0,0.1507584682379753,0.0,0.0502528227459917,0.1507584682379753,31.005056454919835,6.729121604290447,-39.49747177254008,100,1013.25
0.680392609699769,0.1687332768141341,0.0509306805599254,0.0,0.0,0.0,0.1527920416797764,0.0,0.0509306805599254,0.1527920416797764,31.01861361119851,6.721170041303628,-39.49069319440075,100,1013.25
0.6903983833718244,0.1652752893174429,0.0516053931007839,0.0,0.0,0.0,0.1548161793023517,0.0,0.0516053931007839,0.1548161793023517,31.03210786201568,6.713112185808456,-39.48394606899216,100,1013.25
0.7004041570438798,0.1616540066802795,0.0522769187010463,0.0,0.0,0.0,0.1568307561031391,0.0,0.0522769187010463,0.1568307561031391,31.04553837402093,6.704948535425534,-39.47723081298954,100,1013.25
0.7104099307159353,0.1578730067990093,0.0529452158900047,0.0,0.0,0.0,0.1588356476700143,0.0,0.0529452158900047,0.1588356476700143,31.058904317800096,6.69667959430893,-39.47054784109995,100,1013.25
0.7204157043879906,0.1539360253736834,0.0536102433963245,0.0,0.0,0.0,0.1608307301889734,0.0,0.0536102433963245,0.1608307301889734,31.07220486792649,6.68830587311504,-39.46389756603676,100,1013.25
0.7304214780600461,0.1498469522170954,0.0542719601505934,0.0,0.0,0.0,0.1628158804517804,0.0,0.0542719601505934,0.1628158804517804,31.08543920301187,6.679827888971057,-39.45728039849406,100,1013.25
0.7404272517321016,0.1456098274115728,0.0549303252878582,0.0,0.0,0.0,0.1647909758635747,0.0,0.0549303252878582,0.1647909758635747,31.098606505757164,6.67124616544303,-39.45069674712142,100,1013.25
0.7504330254041569,0.1412288373172978,0.0555852981501476,0.0,0.0,0.0,0.1667558944504428,0.0,0.0555852981501476,0.1667558944504428,31.11170596300295,6.662561232503537,-39.444147018498526,100,1013.25
0.7604387990762124,0.1367083104361038,0.0562368382889837,0.0,0.0,0.0,0.1687105148669512,0.0,0.0562368382889837,0.1687105148669512,31.124736765779677,6.653773626498946,-39.43763161711016,100,1013.25
0.7704445727482678,0.1320527131348334,0.0568849054678797,0.0,0.0,0.0,0.1706547164036393,0.0,0.0568849054678797,0.1706547164036393,31.137698109357597,6.644883890116306,-39.4311509453212,100,1013.25
0.7804503464203232,0.1272666452324821,0.0575294596648248,0.0,0.0,0.0,0.1725883789944746,0.0,0.0575294596648248,0.1725883789944746,31.150589193296497,6.635892572349821,-39.42470540335175,100,1013.25
0.7904561200923786,0.1223548354554895,0.0581704610747558,0.0,0.0,0.0,0.1745113832242674,0.0,0.0581704610747558,0.1745113832242674,31.163409221495115,6.626800228466952,-39.41829538925244,100,1013.25
0.8004618937644341,0.1173221367656675,0.0588078701120151,0.0,0.0,0.0,0.1764236103360453,0.0,0.0588078701120151,0.1764236103360453,31.176157402240303,6.617607419974124,-39.41192129887985,100,1013.25
0.8104676674364895,0.1121735215653814,0.0594416474127957,0.0,0.0,0.0,0.1783249422383871,0.0,0.0594416474127957,0.1783249422383871,31.188832948255914,6.608314714582053,-39.40558352587204,100,1013.25
0.8204734411085449,0.106914076784721,0.0600717538375719,0.0,0.0,0.0,0.1802152615127158,0.0,0.0600717538375719,0.1802152615127158,31.20143507675144,6.59892268617068,-39.39928246162428,100,1013.25
0.8304792147806004,0.1015489988555174,0.0606981504735165,0.0,0.0,0.0,0.1820944514205497,0.0,0.0606981504735165,0.1820944514205497,31.21396300947033,6.589431914753739,-39.39301849526483,100,1013.25
0.8404849884526557,0.0960835885771683,0.0613207986369039,0.0,0.0,0.0,0.1839623959107119,0.0,0.0613207986369039,0.1839623959107119,31.22641597273808,6.579842986442928,-39.38679201363096,100,1013.25
0.8504907621247112,0.0905232458793476,0.061939659875499,0.0,0.0,0.0,0.185818979626497,0.0,0.061939659875499,0.185818979626497,31.23879319750998,6.570156493411723,-39.38060340124501,100,1013.25
0.8604965357967667,0.0848734644867715,0.0625546959709317,0.0,0.0,0.0,0.1876640879127953,0.0,0.0625546959709317,0.1876640879127953,31.25109391941864,6.5603730338588,-39.37445304029068,100,1013.25
0.870502309468822,0.0791398264912941,0.0631658689410576,0.0,0.0,0.0,0.1894976068231729,0.0,0.0631658689410576,0.1894976068231729,31.263317378821156,6.550493211971098,-39.36834131058942,100,1013.25
0.8805080831408775,0.0733279968366932,0.0637731410423031,0.0,0.0,0.0,0.1913194231269094,0.0,0.0637731410423031,0.1913194231269094,31.275462820846062,6.5405176378865,-39.36226858957697,100,1013.25
0.8905138568129329,0.0674437177215985,0.0643764747719966,0.0,0.0,0.0,0.1931294243159899,0.0,0.0643764747719966,0.1931294243159899,31.287529495439934,6.530446927656165,-39.35623525228004,100,1013.25
0.9005196304849883,0.0614928029260899,0.0649758328706843,0.0,0.0,0.0,0.194927498612053,0.0,0.0649758328706843,0.194927498612053,31.299516657413687,6.520281703206468,-39.35024167129316,100,1013.25
0.9105254041570436,0.0554811320675707,0.0655711783244315,0.0,0.0,0.0,0.1967135349732945,0.0,0.0655711783244315,0.1967135349732945,31.31142356648863,6.510022592300606,-39.344288216755686,100,1013.25
0.9205311778290992,0.0494146447915946,0.066162474367108,0.0,0.0,0.0,0.1984874231013241,0.0,0.066162474367108,0.1984874231013241,31.32324948734216,6.499670228499822,-39.33837525632892,100,1013.25
0.9305369515011546,0.0432993349033822,0.0667496844826591,0.0,0.0,0.0,0.2002490534479773,0.0,0.0667496844826591,0.2002490534479773,31.33499368965318,6.489225251124283,-39.332503155173406,100,1013.25
0.94054272517321,0.0371412444458262,0.0673327724073603,0.0,0.0,0.0,0.2019983172220809,0.0,0.0673327724073603,0.2019983172220809,31.346655448147207,6.478688305213593,-39.3266722759264,100,1013.25
0.9505484988452656,0.030946457729839,0.067911702132057,0.0,0.0,0.0,0.203735106396171,0.0,0.067911702132057,0.203735106396171,31.35823404264114,6.4680600414869645,-39.32088297867943,100,1013.25
0.9605542725173208,0.0247210953229366,0.0684864379043882,0.0,0.0,0.0,0.2054593137131647,0.0,0.0684864379043882,0.2054593137131647,31.369728758087764,6.457341116303026,-39.31513562095612,100,1013.25
0.9705600461893764,0.0184713080020009,0.0690569442309946,0.0,0.0,0.0,0.2071708326929838,0.0,0.0690569442309946,0.2071708326929838,31.381138884619894,6.446532191619295,-39.30943055769006,100,1013.25
0.9805658198614318,0.0122032706761955,0.0696231858797102,0.0,0.0,0.0,0.2088695576391306,0.0,0.0696231858797102,0.2088695576391306,31.392463717594204,6.435633934951292,-39.303768141202895,100,1013.25
0.9905715935334872,0.005923176286037,0.0701851278817383,0.0,0.0,0.0,0.2105553836452151,0.0,0.0701851278817383,0.2105553836452151,31.40370255763477,6.42464701933132,-39.29814872118261,100,1013.25
1.0005773672055427,-0.0003627703153484,0.0707427355338112,0.0,0.0,0.0,0.2122282066014336,0.0,0.0707427355338112,0.2122282066014336,31.414854710676224,6.413572123266902,-39.29257264466189,100,1013.25
1.010583140877598,-0.0066483584927379,0.0712959744003329,0.0,0.0,0.0,0.2138879232009987,0.0,0.0712959744003329,0.2138879232009987,31.42591948800666,6.4024099306988775,-39.28704025599667,100,1013.25
1.0205889145496534,-0.0129273779650389,0.071844810315506,0.0,0.0,0.0,0.2155344309465181,0.0,0.071844810315506,0.2155344309465181,31.43689620631012,6.391161130959165,-39.28155189684494,100,1013.25
1.030594688221709,-0.0191936249411641,0.0723892093854418,0.0,0.0,0.0,0.2171676281563254,0.0,0.0723892093854418,0.2171676281563254,31.44778418770884,6.379826418728191,-39.27610790614558,100,1013.25
1.0406004618937643,-0.0254409082494968,0.0729291379902529,0.0,0.0,0.0,0.2187874139707587,0.0,0.0729291379902529,0.2187874139707587,31.458582759805054,6.368406493991994,-39.27070862009747,100,1013.25
1.0506062355658197,-0.0316630554548857,0.07346456278613,0.0,0.0,0.0,0.2203936883583901,0.0,0.07346456278613,0.2203936883583901,31.4692912557226,6.356902061998987,-39.2653543721387,100,1013.25
1.0606120092378752,-0.0378539189571293,0.0739954507074008,0.0,0.0,0.0,0.2219863521222026,0.0,0.0739954507074008,0.2219863521222026,31.479909014148017,6.345313833216415,-39.26004549292599,100,1013.25
1.0706177829099306,-0.0440073820649215,0.0745217689685721,0.0,0.0,0.0,0.2235653069057163,0.0,0.0745217689685721,0.2235653069057163,31.49043537937144,6.333642523286471,-39.25478231031428,100,1013.25
1.080623556581986,-0.05011736503926,0.0750434850663542,0.0,0.0,0.0,0.2251304551990627,0.0,0.0750434850663542,0.2251304551990627,31.500869701327083,6.321888852982106,-39.249565149336455,100,1013.25
1.0906293302540415,-0.0561778311003447,0.0755605667816688,0.0,0.0,0.0,0.2266817003450064,0.0,0.0755605667816688,0.2266817003450064,31.511211335633377,6.310053548162513,-39.24439433218331,100,1013.25
1.1006351039260969,-0.0621827923920299,0.076072982181638,0.0,0.0,0.0,0.2282189465449139,0.0,0.076072982181638,0.2282189465449139,31.52145964363276,6.298137339728304,-39.23927017818362,100,1013.25
1.1106408775981522,-0.0681263158979425,0.0765806996215568,0.0,0.0,0.0,0.2297420988646703,0.0,0.0765806996215568,0.2297420988646703,31.531613992431136,6.286140963576371,-39.23419300378443,100,1013.25
1.1206466512702078,-0.0740025293034141,0.0770836877468473,0.0,0.0,0.0,0.2312510632405419,0.0,0.0770836877468473,0.2312510632405419,31.541673754936948,6.274065160554442,-39.22916312253152,100,1013.25
1.1306524249422631,-0.0798056267974398,0.0775819154949949,0.0,0.0,0.0,0.2327457464849848,0.0,0.0775819154949949,0.2327457464849848,31.5516383098999,6.261910676415326,-39.22418084505005,100,1013.25
1.1406581986143185,-0.0855298748089315,0.0780753520974667,0.0,0.0,0.0,0.2342260562924003,0.0,0.0780753520974667,0.2342260562924003,31.561507041949337,6.24967826177086,-39.21924647902533,100,1013.25
1.150663972286374,-0.0911696176715945,0.0785639670816116,0.0,0.0,0.0,0.235691901244835,0.0,0.0785639670816116,0.235691901244835,31.571279341632238,6.2373686720455535,-39.21436032918388,100,1013.25
1.1606697459584294,-0.096719283211834,0.0790477302725422,0.0,0.0,0.0,0.2371431908176265,0.0,0.0790477302725422,0.2371431908176265,31.580954605450845,6.224982667429939,-39.20952269727458,100,1013.25
1.1706755196304848,-0.1021733882541692,0.079526611794998,0.0,0.0,0.0,0.238579835384994,0.0,0.079526611794998,0.238579835384994,31.59053223589996,6.212521012833623,-39.20473388205002,100,1013.25
1.1806812933025403,-0.1075265440387155,0.080000582075191,0.0,0.0,0.0,0.2400017462255729,0.0,0.080000582075191,0.2400017462255729,31.60001164150382,6.199984477838048,-39.19999417924809,100,1013.25
1.1906870669745957,-0.1127734615453812,0.0804696118426313,0.0,0.0,0.0,0.2414088355278941,0.0,0.0804696118426313,0.2414088355278941,31.609392236852628,6.187373836648971,-39.195303881573686,100,1013.25
1.200692840646651,-0.1179089567195214,0.0809336721319356,0.0,0.0,0.0,0.2428010163958068,0.0,0.0809336721319356,0.2428010163958068,31.618673442638716,6.174689868048644,-39.190663278680645,100,1013.25
1.2106986143187066,-0.1229279555938824,0.081392734284615,0.0,0.0,0.0,0.244178202853845,0.0,0.081392734284615,0.244178202853845,31.6278546856923,6.161933355347725,-39.18607265715385,100,1013.25
1.220704387990762,-0.127825499301778,0.0818467699508455,0.0,0.0,0.0,0.2455403098525367,0.0,0.0818467699508455,0.2455403098525367,31.636935399016917,6.149105086336905,-39.18153230049155,100,1013.25
1.230710161662817,-0.1325967489765449,0.0822957510912188,0.0,0.0,0.0,0.2468872532736564,0.0,0.0822957510912188,0.2468872532736564,31.645915021824376,6.136205853238252,-39.17704248908781,100,1013.25
1.240715935334873,-0.1372369905324353,0.0827396499784733,0.0,0.0,0.0,0.2482189499354201,0.0,0.0827396499784733,0.2482189499354201,31.654792999569462,6.12323645265629,-39.17260350021527,100,1013.25
1.2507217090069285,-0.141741639322223,0.0831784391992073,0.0,0.0,0.0,0.2495353175976218,0.0,0.0831784391992073,0.2495353175976218,31.663568783984147,6.110197685528803,-39.16821560800793,100,1013.25
1.2607274826789836,-0.1461062446669231,0.0836120916555709,0.0,0.0,0.0,0.2508362749667129,0.0,0.0836120916555709,0.2508362749667129,31.672241833111418,6.097090357077375,-39.16387908344429,100,1013.25
1.2707332563510392,-0.1503264942531473,0.0840405805669406,0.0,0.0,0.0,0.2521217417008218,0.0,0.0840405805669406,0.2521217417008218,31.68081161133881,6.083915276757655,-39.1595941943306,100,1013.25
1.2807390300230943,-0.1543982183937521,0.0844638794715721,0.0,0.0,0.0,0.2533916384147164,0.0,0.0844638794715721,0.2533916384147164,31.68927758943144,6.070673258209382,-39.15536120528428,100,1013.25
1.29074480369515,-0.1583173941475692,0.0848819622282353,0.0,0.0,0.0,0.2546458866847059,0.0,0.0848819622282353,0.2546458866847059,31.697639244564705,6.05736511920612,-39.15118037771765,100,1013.25
1.3007505773672057,-0.162080149294148,0.085294803017828,0.0,0.0,0.0,0.2558844090534841,0.0,0.085294803017828,0.2558844090534841,31.70589606035656,6.043991681604775,-39.14705196982172,100,1013.25
1.3107563510392608,-0.1656827661595838,0.085702376344971,0.0,0.0,0.0,0.2571071290349132,0.0,0.085702376344971,0.2571071290349132,31.71404752689942,6.03055377129482,-39.14297623655029,100,1013.25
1.3207621247113162,-0.1691216852896498,0.0861046570395822,0.0,0.0,0.0,0.2583139711187467,0.0,0.0861046570395822,0.2583139711187467,31.72209314079165,6.017052218147311,-39.13895342960418,100,1013.25
1.3307678983833715,-0.1723935089666067,0.086501620258431,0.0,0.0,0.0,0.2595048607752931,0.0,0.086501620258431,0.2595048607752931,31.730032405168625,6.003487855963625,-39.13498379741569,100,1013.25
1.340773672055427,-0.1754950045662119,0.0868932414866728,0.0,0.0,0.0,0.2606797244600184,0.0,0.0868932414866728,0.2606797244600184,31.737864829733457,5.989861522423972,-39.13106758513327,100,1013.25
1.3507794457274824,-0.1784231077516143,0.0872794965393626,0.0,0.0,0.0,0.2618384896180878,0.0,0.0872794965393626,0.2618384896180878,31.74558993078725,5.97617405903566,-39.127205034606376,100,1013.25
1.360785219399538,-0.1811749255009781,0.0876603615629487,0.0,0.0,0.0,0.2629810846888463,0.0,0.0876603615629487,0.2629810846888463,31.753207231258976,5.962426311081132,-39.12339638437052,100,1013.25
1.3707909930715934,-0.1837477389658423,0.0880358130367461,0.0,0.0,0.0,0.2641074391102385,0.0,0.0880358130367461,0.2641074391102385,31.760716260734924,5.948619127565763,-39.11964186963254,100,1013.25
1.3807967667436487,-0.1861390061573962,0.0884058277743885,0.0,0.0,0.0,0.2652174833231656,0.0,0.0884058277743885,0.2652174833231656,31.76811655548777,5.934753361165425,-39.11594172225612,100,1013.25
1.3908025404157045,-0.1883463644580123,0.0887703829252605,0.0,0.0,0.0,0.2663111487757815,0.0,0.0887703829252605,0.2663111487757815,31.77540765850521,5.920829868173837,-39.11229617074739,100,1013.25
1.4008083140877596,-0.1903676329555574,0.0891294559759087,0.0,0.0,0.0,0.2673883679277263,0.0,0.0891294559759087,0.2673883679277263,31.78258911951817,5.906849508449674,-39.10870544024091,100,1013.25
1.410814087759815,-0.1922008145981758,0.0894830247514323,0.0,0.0,0.0,0.2684490742542969,0.0,0.0894830247514323,0.2684490742542969,31.789660495028645,5.892813145363474,-39.10516975248568,100,1013.25
1.4208198614318706,-0.1938440981674144,0.089831067416852,0.0,0.0,0.0,0.2694932022505559,0.0,0.089831067416852,0.2694932022505559,31.79662134833704,5.8787216457443146,-39.10168932583148,100,1013.25
1.430825635103926,-0.1952958600677413,0.0901735624784588,0.0,0.0,0.0,0.2705206874353764,0.0,0.0901735624784588,0.2705206874353764,31.803471249569174,5.864575879826284,-39.098264375215415,100,1013.25
1.4408314087759813,-0.1965546659306891,0.0905104887851414,0.0,0.0,0.0,0.2715314663554243,0.0,0.0905104887851414,0.2715314663554243,31.81020977570283,5.850376721194738,-39.094895112148585,100,1013.25
1.4508371824480368,-0.1976192720320382,0.0908418255296923,0.0,0.0,0.0,0.272525476589077,0.0,0.0908418255296923,0.272525476589077,31.81683651059385,5.836125046732349,-39.09158174470308,100,1013.25
1.4608429561200922,-0.1984886265206403,0.0911675522500927,0.0,0.0,0.0,0.2735026567502782,0.0,0.0911675522500927,0.2735026567502782,31.823351045001854,5.821821736564957,-39.08832447749907,100,1013.25
1.4708487297921475,-0.1991618704576671,0.0914876488307763,0.0,0.0,0.0,0.2744629464923289,0.0,0.0914876488307763,0.2744629464923289,31.829752976615527,5.8074676740072135,-39.08512351169224,100,1013.25
1.480854503464203,-0.1996383386652586,0.0918020955038713,0.0,0.0,0.0,0.2754062865116141,0.0,0.0918020955038713,0.2754062865116141,31.836041910077427,5.793063745508033,-39.08197904496129,100,1013.25
1.4908602771362585,-0.1999175603837313,0.0921108728504217,0.0,0.0,0.0,0.2763326185512653,0.0,0.0921108728504217,0.2763326185512653,31.842217457008434,5.778610840595848,-39.078891271495785,100,1013.25
1.5008660508083138,-0.1999992597366977,0.0924139618015859,0.0,0.0,0.0,0.2772418854047579,0.0,0.0924139618015859,0.2772418854047579,31.84827923603172,5.764109851823678,-39.07586038198414,100,1013.25
1.5108718244803694,-0.1998833560036379,0.0927113436398148,0.0,0.0,0.0,0.2781340309194445,0.0,0.0927113436398148,0.2781340309194445,31.854226872796296,5.7495616747140055,-39.07288656360185,100,1013.25
1.5208775981524247,-0.1995699636996522,0.0930030000000074,0.0,0.0,0.0,0.2790090000000223,0.0,0.0930030000000074,0.2790090000000223,31.86006000000015,5.734967207703477,-39.06996999999993,100,1013.25
1.53088337182448,-0.1990593924623188,0.0932889128706452,0.0,0.0,0.0,0.2798667386119357,0.0,0.0932889128706452,0.2798667386119357,31.865778257412902,5.720327352087413,-39.06711087129355,100,1013.25
1.5408891454965357,-0.1983521467457655,0.0935690645949044,0.0,0.0,0.0,0.2807071937847132,0.0,0.0935690645949044,0.2807071937847132,31.87138129189809,5.705643011964153,-39.06430935405096,100,1013.25
1.550894919168591,-0.1974489253222596,0.0938434378717462,0.0,0.0,0.0,0.2815303136152388,0.0,0.0938434378717462,0.2815303136152388,31.876868757434924,5.69091509417922,-39.06156562128254,100,1013.25
1.5609006928406464,-0.1963506205918073,0.0941120157569856,0.0,0.0,0.0,0.2823360472709569,0.0,0.0941120157569856,0.2823360472709569,31.882240315139715,5.676144508269315,-39.058879842430144,100,1013.25
1.570906466512702,-0.1950583177004457,0.0943747816643374,0.0,0.0,0.0,0.2831243449930123,0.0,0.0943747816643374,0.2831243449930123,31.887495633286747,5.661332166406153,-39.05625218335663,100,1013.25
1.5809122401847573,-0.1935732934680979,0.0946317193664407,0.0,0.0,0.0,0.2838951580993221,0.0,0.0946317193664407,0.2838951580993221,31.892634387328812,5.646478983340127,-39.0536828063356,100,1013.25
1.5909180138568126,-0.1918970151270502,0.094882812995861,0.0,0.0,0.0,0.2846484389875831,0.0,0.094882812995861,0.2846484389875831,31.89765625991722,5.6315858763438165,-39.05117187004139,100,1013.25
1.6009237875288682,-0.1900311388722988,0.0951280470460702,0.0,0.0,0.0,0.2853841411382107,0.0,0.0951280470460702,0.2853841411382107,31.902560940921404,5.616653765155343,-39.0487195295393,100,1013.25
1.6109295612009236,-0.1879775082251977,0.095367406372404,0.0,0.0,0.0,0.2861022191172122,0.0,0.095367406372404,0.2861022191172122,31.90734812744808,5.601683571921569,-39.04632593627596,100,1013.25
1.620935334872979,-0.1857381522120241,0.0956008761929976,0.0,0.0,0.0,0.2868026285789928,0.0,0.0956008761929976,0.2868026285789928,31.91201752385995,5.58667622114115,-39.04399123807002,100,1013.25
1.6309411085450345,-0.1833152833592617,0.0958284420896978,0.0,0.0,0.0,0.2874853262690935,0.0,0.0958284420896978,0.2874853262690935,31.91656884179396,5.571632639607441,-39.04171557910302,100,1013.25
1.6409468822170898,-0.1807112955075827,0.0960500900089544,0.0,0.0,0.0,0.2881502700268633,0.0,0.0960500900089544,0.2881502700268633,31.921001800179088,5.556553756351264,-39.03949909991046,100,1013.25
1.6509526558891452,-0.177928761446687,0.0962658062626872,0.0,0.0,0.0,0.2887974187880618,0.0,0.0962658062626872,0.2887974187880618,31.925316125253744,5.541440502583529,-39.03734193737313,100,1013.25
1.6609584295612008,-0.1749704303733374,0.096475577529132,0.0,0.0,0.0,0.289426732587396,0.0,0.096475577529132,0.289426732587396,31.92951155058264,5.526293811637736,-39.03524422470868,100,1013.25
1.670964203233256,-0.1718392251751003,0.0966793908536627,0.0,0.0,0.0,0.2900381725609882,0.0,0.0966793908536627,0.2900381725609882,31.933587817073253,5.5111146189123215,-39.03320609146337,100,1013.25
1.6809699769053117,-0.1685382395424773,0.0968772336495918,0.0,0.0,0.0,0.2906317009487755,0.0,0.0968772336495918,0.2906317009487755,31.93754467299184,5.49590386181291,-39.03122766350408,100,1013.25
1.690975750577367,-0.1650707349122795,0.0970690936989475,0.0,0.0,0.0,0.2912072810968427,0.0,0.0970690936989475,0.2912072810968427,31.94138187397895,5.480662479694407,-39.02930906301052,100,1013.25
1.7009815242494224,-0.1614401372452663,0.0972549591532283,0.0,0.0,0.0,0.2917648774596851,0.0,0.0972549591532283,0.2917648774596851,31.945099183064567,5.465391413802998,-39.02745040846772,100,1013.25
1.7109872979214775,-0.1576500336412303,0.0974348185341346,0.0,0.0,0.0,0.292304455602404,0.0,0.0974348185341346,0.292304455602404,31.948696370682693,5.45009160721802,-39.02565181465865,100,1013.25
1.720993071593533,-0.1537041687948741,0.0976086607342777,0.0,0.0,0.0,0.292825982202833,0.0,0.0976086607342777,0.292825982202833,31.952173214685555,5.434764004793717,-39.02391339265722,100,1013.25
1.730998845265589,-0.1496064412959815,0.0977764750178655,0.0,0.0,0.0,0.2933294250535965,0.0,0.0977764750178655,0.2933294250535965,31.95552950035731,5.419409553100892,-39.02223524982134,100,1013.25
1.741004618937644,-0.1453608997775348,0.0979382510213659,0.0,0.0,0.0,0.2938147530640976,0.0,0.0979382510213659,0.2938147530640976,31.95876502042732,5.404029200368451,-39.02061748978634,100,1013.25
1.7510103926096996,-0.1409717389155894,0.0980939787541464,0.0,0.0,0.0,0.2942819362624393,0.0,0.0980939787541464,0.2942819362624393,31.96187957508293,5.388623896424843,-39.01906021245853,100,1013.25
1.761016166281755,-0.1364432952848534,0.0982436485990915,0.0,0.0,0.0,0.2947309457972745,0.0,0.0982436485990915,0.2947309457972745,31.96487297198183,5.373194592639403,-39.01756351400908,100,1013.25
1.7710219399538103,-0.1317800430740686,0.0983872513131961,0.0,0.0,0.0,0.2951617539395884,0.0,0.0983872513131961,0.2951617539395884,31.967745026263923,5.3577422418636,-39.01612748686804,100,1013.25
1.781027713625866,-0.1269865896654274,0.0985247780281368,0.0,0.0,0.0,0.2955743340844104,0.0,0.0985247780281368,0.2955743340844104,31.970495560562732,5.342267798372192,-39.01475221971863,100,1013.25
1.7910334872979212,-0.1220676710823907,0.0986562202508192,0.0,0.0,0.0,0.2959686607524577,0.0,0.0986562202508192,0.2959686607524577,31.973124405016385,5.326772217804293,-39.01343779749181,100,1013.25
1.8010392609699766,-0.1170281473104064,0.0987815698639028,0.0,0.0,0.0,0.2963447095917083,0.0,0.0987815698639028,0.2963447095917083,31.975631397278057,5.311256457104357,-39.012184301360975,100,1013.25
1.811045034642032,-0.1118729974951509,0.0989008191263017,0.0,0.0,0.0,0.2967024573789051,0.0,0.0989008191263017,0.2967024573789051,31.97801638252604,5.295721474463084,-39.01099180873698,100,1013.25
1.8210508083140875,-0.106607315023039,0.0990139606736633,0.0,0.0,0.0,0.2970418820209901,0.0,0.0990139606736633,0.2970418820209901,31.980279213473267,5.280168229258241,-39.00986039326337,100,1013.25
1.8310565819861429,-0.1012363024888595,0.0991209875188228,0.0,0.0,0.0,0.2973629625564684,0.0,0.0991209875188228,0.2973629625564684,31.982419750376454,5.264597681995418,-39.008790124811775,100,1013.25
1.8410623556581984,-0.0957652665555131,0.0992218930522345,0.0,0.0,0.0,0.2976656791567035,0.0,0.0992218930522345,0.2976656791567035,31.98443786104469,5.249010794248709,-39.00778106947765,100,1013.25
1.8510681293302536,-0.0901996127109285,0.0993166710423804,0.0,0.0,0.0,0.2979500131271412,0.0,0.0993166710423804,0.2979500131271412,31.986333420847608,5.233408528601332,-39.00683328957619,100,1013.25
1.861073903002309,-0.0845448399273363,0.0994053156361546,0.0,0.0,0.0,0.2982159469084638,0.0,0.0994053156361546,0.2982159469084638,31.98810631272309,5.217791848586183,-39.005946843638455,100,1013.25
1.8710796766743647,-0.0788065352281795,0.0994878213592252,0.0,0.0,0.0,0.2984634640776758,0.0,0.0994878213592252,0.2984634640776758,31.989756427184503,5.202161718626327,-39.00512178640775,100,1013.25
1.88108545034642,-0.0729903681680291,0.0995641831163721,0.0,0.0,0.0,0.2986925493491165,0.0,0.0995641831163721,0.2986925493491165,31.991283662327444,5.186519103975448,-39.00435816883628,100,1013.25
1.8910912240184756,-0.0671020852309539,0.0996343961918016,0.0,0.0,0.0,0.298903188575405,0.0,0.0996343961918016,0.298903188575405,31.992687923836037,5.17086497065823,-39.00365603808199,100,1013.25
1.901096997690531,-0.061147504152886,0.0996984562494379,0.0,0.0,0.0,0.2990953687483138,0.0,0.0996984562494379,0.2990953687483138,31.99396912498876,5.1552002854107055,-39.00301543750562,100,1013.25
1.9111027713625863,-0.0551325081735865,0.0997563593331905,0.0,0.0,0.0,0.2992690779995716,0.0,0.0997563593331905,0.2992690779995716,31.99512718666381,5.139526015620553,-39.002436406668096,100,1013.25
1.9211085450346417,-0.0490630402238916,0.099808101867199,0.0,0.0,0.0,0.299424305601597,0.0,0.099808101867199,0.299424305601597,31.99616203734398,5.12384312926735,-39.00191898132801,100,1013.25
1.9311143187066973,-0.0429450970539841,0.0998536806560534,0.0,0.0,0.0,0.2995610419681604,0.0,0.0998536806560534,0.2995610419681604,31.99707361312107,5.1081525948628,-39.00146319343946,100,1013.25
1.9411200923787528,-0.0367847233084898,0.099893092884992,0.0,0.0,0.0,0.2996792786549762,0.0,0.099893092884992,0.2996792786549762,31.99786185769984,5.09245538139092,-39.00106907115008,100,1013.25
1.951125866050808,-0.0305880055542529,0.0999263361200747,0.0,0.0,0.0,0.2997790083602241,0.0,0.0999263361200747,0.2997790083602241,31.998526722401493,5.0767524582481975,-39.00073663879925,100,1013.25
1.9611316397228635,-0.024361066266692,0.0999534083083335,0.0,0.0,0.0,0.2998602249250006,0.0,0.0999534083083335,0.2998602249250006,31.999068166166676,5.0610447951837285,-39.00046591691667,100,1013.25
1.9711374133949189,-0.0181100577806775,0.0999743077778996,0.0,0.0,0.0,0.2999229233336988,0.0,0.0999743077778996,0.2999229233336988,31.999486155557992,5.045333362239325,-39.000256922221006,100,1013.25
1.9811431870669745,-0.011841156211907,0.099989033238106,0.0,0.0,0.0,0.2999670997143181,0.0,0.099989033238106,0.2999670997143181,31.99978066476212,5.029619129689613,-39.000109667618936,100,1013.25
1.9911489607390296,-0.0055605553547859,0.0999975837795679,0.0,0.0,0.0,0.2999927513387039,0.0,0.0999975837795679,0.2999927513387039,31.99995167559136,5.013903067982111,-39.00002416220432,100,1013.25
2.0011547344110854,0.0007255394371606,0.0999999588742384,0.0,0.0,0.0,0.2999998766227152,0.0,0.0999999588742384,0.2999998766227152,31.999999177484767,4.9981861476772975,-39.000000411257616,100,1013.25
2.0111605080831407,0.0070109173822948,0.0999961583754412,0.0,0.0,0.0,0.2999884751263237,0.0,0.0999961583754412,0.2999884751263237,31.999923167508825,4.982469339388675,-39.00003841624559,100,1013.25
2.021166281755196,0.0132893684072371,0.0999861825178798,0.0,0.0,0.0,0.2999585475536394,0.0,0.0999861825178798,0.2999585475536394,31.999723650357595,4.966753613722831,-39.0001381748212,100,1013.25
2.0311720554272514,0.0195546892825377,0.0999700319176228,0.0,0.0,0.0,0.2999100957528685,0.0,0.0999700319176228,0.2999100957528685,31.99940063835245,4.951039941219489,-39.00029968082377,100,1013.25
2.041177829099307,0.0258006897515846,0.099947707572066,0.0,0.0,0.0,0.2998431227161982,0.0,0.099947707572066,0.2998431227161982,31.99895415144132,4.935329292291582,-39.00052292427934,100,1013.25
2.051183602771362,0.0320211986466966,0.0999192108598709,0.0,0.0,0.0,0.2997576325796129,0.0,0.0999192108598709,0.2997576325796129,31.99838421719742,4.91962263716532,-39.00080789140129,100,1013.25
2.061189376443418,0.0382100699863538,0.0998845435408793,0.0,0.0,0.0,0.299653630622638,0.0,0.0998845435408793,0.299653630622638,31.997690870817586,4.903920945820267,-39.0011545645912,100,1013.25
2.0711951501154733,0.044361189047545,0.0998437077560047,0.0,0.0,0.0,0.2995311232680142,0.0,0.0998437077560047,0.2995311232680142,31.996874155120096,4.888225187929447,-39.00156292243995,100,1013.25
2.0812009237875286,0.0504684784072305,0.0997967060271003,0.0,0.0,0.0,0.2993901180813008,0.0,0.0997967060271003,0.2993901180813008,31.995934120542007,4.87253633279946,-39.002032939729,100,1013.25
2.091206697459584,0.0565259039469525,0.0997435412568028,0.0,0.0,0.0,0.2992306237704086,0.0,0.0997435412568028,0.2992306237704086,31.994870825136054,4.856855349310616,-39.00256458743197,100,1013.25
2.10121247113164,0.0625274808146592,0.0996842167283539,0.0,0.0,0.0,0.2990526501850616,0.0,0.0996842167283539,0.2990526501850616,31.99368433456708,4.841183205857104,-39.00315783271646,100,1013.25
2.1112182448036947,0.0684672793378526,0.0996187361053966,0.0,0.0,0.0,0.2988562083161898,0.0,0.0996187361053966,0.2988562083161898,31.99237472210793,4.82552087028719,-39.00381263894604,100,1013.25
2.1212240184757505,0.0743394308822185,0.0995471034317497,0.0,0.0,0.0,0.2986413102952491,0.0,0.0995471034317497,0.2986413102952491,31.990942068634997,4.809869309843443,-39.0045289656825,100,1013.25
2.131229792147806,0.080138133649948,0.0994693231311577,0.0,0.0,0.0,0.2984079693934733,0.0,0.0994693231311577,0.2984079693934733,31.989386462623155,4.7942294911030086,-39.00530676868842,100,1013.25
2.141235565819861,0.0858576584120266,0.0993854000070179,0.0,0.0,0.0,0.2981562000210538,0.0,0.0993854000070179,0.2981562000210538,31.98770800014036,4.778602379917905,-39.00614599992982,100,1013.25
2.1512413394919165,0.0914923541688201,0.0992953392420832,0.0,0.0,0.0,0.2978860177262498,0.0,0.0992953392420832,0.2978860177262498,31.985906784841664,4.762988941355388,-39.00704660757917,100,1013.25
2.161247113163972,0.0970366537333709,0.0991991463981427,0.0,0.0,0.0,0.2975974391944283,0.0,0.0991991463981427,0.2975974391944283,31.983982927962856,4.747390139638346,-39.00800853601857,100,1013.25
2.1712528868360272,0.1024850792318845,0.0990968274156779,0.0,0.0,0.0,0.2972904822470337,0.0,0.0990968274156779,0.2972904822470337,31.98193654831356,4.731806938085756,-39.00903172584322,100,1013.25
2.181258660508083,0.107832247515974,0.0989883886134956,0.0,0.0,0.0,0.296965165840487,0.0,0.0989883886134956,0.296965165840487,31.979767772269916,4.716240299053188,-39.010116113865045,100,1013.25
2.1912644341801384,0.1130728754813122,0.0988738366883383,0.0,0.0,0.0,0.2966215100650151,0.0,0.0988738366883383,0.2966215100650151,31.977476733766768,4.700691183873383,-39.01126163311662,100,1013.25
2.2012702078521937,0.1182017852874412,0.0987531787144701,0.0,0.0,0.0,0.2962595361434104,0.0,0.0987531787144701,0.2962595361434104,31.975063574289404,4.685160552796877,-39.012468212855296,100,1013.25
2.211275981524249,0.1232139094735766,0.09862642214324,0.0,0.0,0.0,0.29587926642972,0.0,0.09862642214324,0.29587926642972,31.9725284428648,4.669649364932702,-39.0137357785676,100,1013.25
2.2212817551963044,0.1281042959653555,0.0984935748026217,0.0,0.0,0.0,0.2954807244078651,0.0,0.0984935748026217,0.2954807244078651,31.969871496052438,4.654158578189158,-39.01506425197378,100,1013.25
2.23128752886836,0.1328681129675808,0.0983546448967303,0.0,0.0,0.0,0.2950639346901909,0.0,0.0983546448967303,0.2950639346901909,31.96709289793461,4.63868914921465,-39.0164535510327,100,1013.25
2.241293302540416,0.137500653738127,0.0982096410053155,0.0,0.0,0.0,0.2946289230159465,0.0,0.0982096410053155,0.2946289230159465,31.96419282010631,4.623242033338617,-39.01790358994685,100,1013.25
2.251299076212471,0.1419973412382905,0.0980585720832318,0.0,0.0,0.0,0.2941757162496956,0.0,0.0980585720832318,0.2941757162496956,31.96117144166464,4.6078181845125314,-39.01941427916768,100,1013.25
2.2613048498845263,0.1463537326549927,0.0979014474598857,0.0,0.0,0.0,0.2937043423796572,0.0,0.0979014474598857,0.2937043423796572,31.958028949197715,4.592418555250986,-39.02098552540114,100,1013.25
2.2713106235565816,0.150565523790363,0.097738276838659,0.0,0.0,0.0,0.2932148305159771,0.0,0.097738276838659,0.2932148305159771,31.95476553677318,4.577044096572869,-39.02261723161341,100,1013.25
2.281316397228637,0.1546285533143687,0.0975690702963101,0.0,0.0,0.0,0.2927072108889303,0.0,0.0975690702963101,0.2927072108889303,31.9513814059262,4.561695757942637,-39.0243092970369,100,1013.25
2.2913221709006923,0.1585388068762888,0.0973938382823514,0.0,0.0,0.0,0.2921815148470544,0.0,0.0973938382823514,0.2921815148470544,31.94787676564703,4.546374487211678,-39.02606161717649,100,1013.25
2.301327944572748,0.1622924210709687,0.0972125916184044,0.0,0.0,0.0,0.2916377748552131,0.0,0.0972125916184044,0.2916377748552131,31.94425183236809,4.531081230559775,-39.02787408381596,100,1013.25
2.3113337182448035,0.1658856872559381,0.0970253414975305,0.0,0.0,0.0,0.2910760244925917,0.0,0.0970253414975305,0.2910760244925917,31.94050682995061,4.515816932436676,-39.0297465850247,100,1013.25
2.321339491916859,0.1693150552156215,0.096832099483541,0.0,0.0,0.0,0.2904962984506231,0.0,0.096832099483541,0.2904962984506231,31.93664198967082,4.500582535503767,-39.03167900516459,100,1013.25
2.331345265588914,0.1725771366690179,0.0966328775102818,0.0,0.0,0.0,0.2898986325308456,0.0,0.0966328775102818,0.2898986325308456,31.93265755020564,4.485378980575856,-39.03367122489718,100,1013.25
2.341351039260969,0.1756687086173877,0.0964276878808973,0.0,0.0,0.0,0.2892830636426918,0.0,0.0964276878808973,0.2892830636426918,31.928553757617944,4.470207206563074,-39.03572312119103,100,1013.25
2.351356812933025,0.1785867165286369,0.0962165432670699,0.0,0.0,0.0,0.2886496298012097,0.0,0.0962165432670699,0.2886496298012097,31.9243308653414,4.45506815041289,-39.0378345673293,100,1013.25
2.3613625866050807,0.1813282773552528,0.0959994567082379,0.0,0.0,0.0,0.2879983701247138,0.0,0.0959994567082379,0.2879983701247138,31.91998913416476,4.4399627470522525,-39.04000543291762,100,1013.25
2.371368360277136,0.18389068238281,0.0957764416107904,0.0,0.0,0.0,0.2873293248323712,0.0,0.0957764416107904,0.2873293248323712,31.91552883221581,4.424891929329849,-39.042235583892094,100,1013.25
2.3813741339491914,0.1862713999062327,0.0955475117472386,0.0,0.0,0.0,0.286642535241716,0.0,0.0955475117472386,0.286642535241716,31.91095023494477,4.409856627958496,-39.04452488252761,100,1013.25
2.3913799076212467,0.1884680777311667,0.0953126812553662,0.0,0.0,0.0,0.2859380437660987,0.0,0.0953126812553662,0.2859380437660987,31.906253625107325,4.394857771457665,-39.04687318744634,100,1013.25
2.401385681293302,0.1904785454979926,0.0950719646373556,0.0,0.0,0.0,0.2852158939120668,0.0,0.0950719646373556,0.2852158939120668,31.901439292747117,4.379896286096139,-39.04928035362644,100,1013.25
2.411391454965357,0.1923008168261828,0.0948253767588926,0.0,0.0,0.0,0.284476130276678,0.0,0.0948253767588926,0.284476130276678,31.896507535177854,4.364973095834811,-39.05174623241108,100,1013.25
2.421397228637413,0.1939330912768834,0.0945729328482485,0.0,0.0,0.0,0.2837187985447456,0.0,0.0945729328482485,0.2837187985447456,31.89145865696497,4.350089122269623,-39.05427067151752,100,1013.25
2.4314030023094686,0.1953737561317814,0.0943146484953393,0.0,0.0,0.0,0.282943945486018,0.0,0.0943146484953393,0.282943945486018,31.886292969906787,4.335245284574651,-39.056853515046605,100,1013.25
2.441408775981524,0.1966213879865022,0.0940505396507632,0.0,0.0,0.0,0.2821516189522896,0.0,0.0940505396507632,0.2821516189522896,31.881010793015264,4.320442499445345,-39.05949460349237,100,1013.25
2.4514145496535797,0.1976747541569596,0.0937806226248154,0.0,0.0,0.0,0.2813418678744462,0.0,0.0937806226248154,0.2813418678744462,31.87561245249631,4.3056816810419125,-39.06219377375184,100,1013.25
2.4614203233256347,0.1985328138972716,0.093504914086481,0.0,0.0,0.0,0.2805147422594431,0.0,0.093504914086481,0.2805147422594431,31.87009828172962,4.290963740932864,-39.06495085913519,100,1013.25
2.47142609699769,0.1991947194280369,0.0932234310624056,0.0,0.0,0.0,0.2796702931872168,0.0,0.0932234310624056,0.2796702931872168,31.86446862124811,4.276289588038722,-39.067765689375946,100,1013.25
2.481431870669746,0.199659816773957,0.0929361909358434,0.0,0.0,0.0,0.2788085728075304,0.0,0.0929361909358434,0.2788085728075304,31.858723818716868,4.261660128575885,-39.070638090641566,100,1013.25
2.491437644341801,0.1999276464099771,0.0926432114455844,0.0,0.0,0.0,0.2779296343367533,0.0,0.0926432114455844,0.2779296343367533,31.852864228911688,4.24707626600067,-39.07356788554416,100,1013.25
2.5014434180138565,0.1999979437153045,0.0923445106848581,0.0,0.0,0.0,0.2770335320545745,0.0,0.0923445106848581,0.2770335320545745,31.846890213697165,4.232538900953511,-39.07655489315142,100,1013.25
2.511449191685912,0.1998706392348598,0.092040107100217,0.0,0.0,0.0,0.2761203213006509,0.0,0.092040107100217,0.2761203213006509,31.84080214200434,4.218048931203343,-39.07959892899783,100,1013.25
2.521454965357967,0.1995458587478995,0.0917300194903965,0.0,0.0,0.0,0.2751900584711894,0.0,0.0917300194903965,0.2751900584711894,31.834600389807928,4.20360725159216,-39.082699805096034,100,1013.25
2.5314607390300226,0.199023923143744,0.0914142670051547,0.0,0.0,0.0,0.274242801015464,0.0,0.0914142670051547,0.274242801015464,31.828285340103093,4.189214753979752,-39.08585732994845,100,1013.25
2.5414665127020784,0.1983053481047323,0.0910928691440894,0.0,0.0,0.0,0.2732786074322684,0.0,0.0910928691440894,0.2732786074322684,31.821857382881788,4.174872327188625,-39.08907130855911,100,1013.25
2.5514722863741337,0.1973908435967185,0.0907658457554343,0.0,0.0,0.0,0.272297537266303,0.0,0.0907658457554343,0.272297537266303,31.81531691510869,4.160580856949117,-39.09234154244566,100,1013.25
2.561478060046189,0.1962813131676119,0.0904332170348326,0.0,0.0,0.0,0.2712996511044979,0.0,0.0904332170348326,0.2712996511044979,31.80866434069665,4.146341225844694,-39.09566782965168,100,1013.25
2.5714838337182444,0.1949778530546539,0.0900950035240903,0.0,0.0,0.0,0.2702850105722709,0.0,0.0900950035240903,0.2702850105722709,31.801900070481807,4.132154313257443,-39.0990499647591,100,1013.25
2.5814896073903,0.1934817511013156,0.0897512261099074,0.0,0.0,0.0,0.2692536783297223,0.0,0.0897512261099074,0.2692536783297223,31.795024522198148,4.118020995313774,-39.102487738900926,100,1013.25
2.591495381062356,0.1917944854848831,0.0894019060225883,0.0,0.0,0.0,0.2682057180677649,0.0,0.0894019060225883,0.2682057180677649,31.78803812045177,4.103942144830304,-39.10598093977411,100,1013.25
2.601501154734411,0.1899177232559904,0.0890470648347302,0.0,0.0,0.0,0.2671411945041908,0.0,0.0890470648347302,0.2671411945041908,31.780941296694607,4.089918631259964,-39.1095293516527,100,1013.25
2.6115069284064663,0.1878533186915416,0.0886867244598915,0.0,0.0,0.0,0.2660601733796746,0.0,0.0886867244598915,0.2660601733796746,31.77373448919783,4.075951320638296,-39.11313275540108,100,1013.25
2.6215127020785216,0.1856033114626499,0.0883209071512379,0.0,0.0,0.0,0.2649627214537137,0.0,0.0883209071512379,0.2649627214537137,31.76641814302476,4.062041075529977,-39.11679092848762,100,1013.25
2.631518475750577,0.1831699246194037,0.0879496355001685,0.0,0.0,0.0,0.2638489065005057,0.0,0.0879496355001685,0.2638489065005057,31.758992710003373,4.048188754975549,-39.12050364499832,100,1013.25
2.6415242494226323,0.1805555623944501,0.0875729324349206,0.0,0.0,0.0,0.262718797304762,0.0,0.0875729324349206,0.262718797304762,31.751458648698414,4.034395214438368,-39.12427067565079,100,1013.25
2.651530023094688,0.1777628078275683,0.0871908212191537,0.0,0.0,0.0,0.2615724636574612,0.0,0.0871908212191537,0.2615724636574612,31.743816424383077,4.02066130575177,-39.12809178780847,100,1013.25
2.6615357967667435,0.1747944202135757,0.0868033254505127,0.0,0.0,0.0,0.2604099763515382,0.0,0.0868033254505127,0.2604099763515382,31.736066509010254,4.006987877066474,-39.13196674549487,100,1013.25
2.671541570438799,0.1716533323760933,0.0864104690591709,0.0,0.0,0.0,0.2592314071775126,0.0,0.0864104690591709,0.2592314071775126,31.72820938118342,3.993375772798197,-39.13589530940829,100,1013.25
2.681547344110854,0.1683426477698582,0.0860122763063518,0.0,0.0,0.0,0.2580368289190554,0.0,0.0860122763063518,0.2580368289190554,31.72024552612704,3.9798258335755032,-39.139877236936485,100,1013.25
2.691553117782909,0.1648656374144532,0.0856087717828312,0.0,0.0,0.0,0.2568263153484937,0.0,0.0856087717828312,0.2568263153484937,31.712175435656626,3.966338896187901,-39.14391228217169,100,1013.25
2.701558891454965,0.1612257366624751,0.0851999804074184,0.0,0.0,0.0,0.2555999412222552,0.0,0.0851999804074184,0.2555999412222552,31.70399960814837,3.952915793534156,-39.14800019592582,100,1013.25
2.7115646651270207,0.1574265418053423,0.0847859274254172,0.0,0.0,0.0,0.2543577822762516,0.0,0.0847859274254172,0.2543577822762516,31.695718548508346,3.93955735457086,-39.15214072574583,100,1013.25
2.721570438799076,0.1534718065200891,0.084366638407067,0.0,0.0,0.0,0.2530999152212012,0.0,0.084366638407067,0.2530999152212012,31.687332768141346,3.926264404261236,-39.15633361592933,100,1013.25
2.731576212471132,0.1493654381606622,0.0839421392459638,0.0,0.0,0.0,0.2518264177378915,0.0,0.0839421392459638,0.2518264177378915,31.67884278491928,3.9130377635241937,-39.16057860754036,100,1013.25
2.7415819861431867,0.1451114938973787,0.0835124561574607,0.0,0.0,0.0,0.2505373684723823,0.0,0.0835124561574607,0.2505373684723823,31.670249123149212,3.8998782491836295,-39.16487543842539,100,1013.25
2.751587759815242,0.1407141767083669,0.0830776156770495,0.0,0.0,0.0,0.2492328470311486,0.0,0.0830776156770495,0.2492328470311486,31.66155231354099,3.8867866739179857,-39.1692238432295,100,1013.25
2.7615935334872974,0.1361778312269409,0.0826376446587214,0.0,0.0,0.0,0.2479129339761643,0.0,0.0826376446587214,0.2479129339761643,31.65275289317443,3.873763846210061,-39.17362355341279,100,1013.25
2.771599307159353,0.1315069394490225,0.0821925702733091,0.0,0.0,0.0,0.2465777108199275,0.0,0.0821925702733091,0.2465777108199275,31.643851405466183,3.860810570297085,-39.17807429726691,100,1013.25
2.781605080831409,0.1267061163048419,0.0817424200068086,0.0,0.0,0.0,0.245227260020426,0.0,0.0817424200068086,0.245227260020426,31.63484840013617,3.847927646121046,-39.18257579993191,100,1013.25
2.791610854503464,0.1217801050992997,0.0812872216586819,0.0,0.0,0.0,0.2438616649760456,0.0,0.0812872216586819,0.2438616649760456,31.62574443317364,3.8351158692792975,-39.18712778341318,100,1013.25
2.8016166281755197,0.1167337728254896,0.0808270033401397,0.0,0.0,0.0,0.2424810100204192,0.0,0.0808270033401397,0.2424810100204192,31.616540066802795,3.822376030975416,-39.1917299665986,100,1013.25
2.8116224018475746,0.1115721053560188,0.0803617934724064,0.0,0.0,0.0,0.2410853804172193,0.0,0.0803617934724064,0.2410853804172193,31.60723586944813,3.8097089179703487,-39.196382065275934,100,1013.25
2.82162817551963,0.1063002025168677,0.0798916207849639,0.0,0.0,0.0,0.2396748623548917,0.0,0.0798916207849639,0.2396748623548917,31.59783241569928,3.79711531253382,-39.20108379215037,100,1013.25
2.8316339491916858,0.1009232730486669,0.0794165143137778,0.0,0.0,0.0,0.2382495429413336,0.0,0.0794165143137778,0.2382495429413336,31.58833028627556,3.784595992396024,-39.20583485686222,100,1013.25
2.841639722863741,0.0954466294603612,0.0789365033995046,0.0,0.0,0.0,0.2368095101985139,0.0,0.0789365033995046,0.2368095101985139,31.578730067990094,3.772151730699597,-39.21063496600495,100,1013.25
2.8516454965357965,0.0898756827803493,0.0784516176856791,0.0,0.0,0.0,0.2353548530570373,0.0,0.0784516176856791,0.2353548530570373,31.56903235371358,3.759783295951866,-39.21548382314321,100,1013.25
2.861651270207852,0.0842159372102837,0.0779618871168839,0.0,0.0,0.0,0.2338856613506518,0.0,0.0779618871168839,0.2338856613506518,31.55923774233768,3.7474914519773934,-39.22038112883117,100,1013.25
2.871657043879907,0.0784729846868163,0.0774673419369007,0.0,0.0,0.0,0.2324020258107021,0.0,0.0774673419369007,0.2324020258107021,31.54934683873801,3.7352769578708074,-39.22532658063099,100,1013.25
2.8816628175519625,0.0726524993566561,0.0769680126868417,0.0,0.0,0.0,0.2309040380605251,0.0,0.0769680126868417,0.2309040380605251,31.539360253736834,3.723140567949913,-39.23031987313159,100,1013.25
2.8916685912240183,0.0667602319704058,0.0764639302032642,0.0,0.0,0.0,0.2293917906097926,0.0,0.0764639302032642,0.2293917906097926,31.529278604065283,3.7110830317091263,-39.23536069796736,100,1013.25
2.9016743648960737,0.0608020042007093,0.0759551256162659,0.0,0.0,0.0,0.2278653768487978,0.0,0.0759551256162659,0.2278653768487978,31.51910251232532,3.699105093773173,-39.24044874383734,100,1013.25
2.911680138568129,0.0547837028903288,0.0754416303475627,0.0,0.0,0.0,0.226324891042688,0.0,0.0754416303475627,0.226324891042688,31.508832606951252,3.68720749385111,-39.24558369652437,100,1013.25
2.9216859122401844,0.04871127423583,0.0749234761085477,0.0,0.0,0.0,0.2247704283256431,0.0,0.0749234761085477,0.2247704283256431,31.498469522170957,3.6753909666906415,-39.250765238914525,100,1013.25
2.93169168591224,0.0425907179126292,0.0744006948983335,0.0,0.0,0.0,0.2232020846950007,0.0,0.0744006948983335,0.2232020846950007,31.48801389796667,3.66365624203275,-39.25599305101667,100,1013.25
2.941697459584295,0.0364280811471976,0.0738733190017757,0.0,0.0,0.0,0.2216199570053273,0.0,0.0738733190017757,0.2216199570053273,31.47746638003552,3.652004044566621,-39.261266809982246,100,1013.25
2.951703233256351,0.0302294527422856,0.0733413809874791,0.0,0.0,0.0,0.2200241429624373,0.0,0.0733413809874791,0.2200241429624373,31.466827619749584,3.640435093884895,-39.26658619012521,100,1013.25
2.961709006928406,0.0240009570610717,0.0728049137057864,0.0,0.0,0.0,0.2184147411173592,0.0,0.0728049137057864,0.2184147411173592,31.45609827411573,3.6289501044392303,-39.27195086294213,100,1013.25
2.9717147806004616,0.0177487479761726,0.0722639502867496,0.0,0.0,0.0,0.2167918508602489,0.0,0.0722639502867496,0.2167918508602489,31.445279005734992,3.617549785496175,-39.277360497132506,100,1013.25
2.981720554272517,0.0114790027895013,0.0717185241380841,0.0,0.0,0.0,0.2151555724142525,0.0,0.0717185241380841,0.2151555724142525,31.434370482761683,3.606234841093373,-39.28281475861916,100,1013.25
2.9917263279445723,0.0051979161289726,0.0711686689431054,0.0,0.0,0.0,0.2135060068293162,0.0,0.0711686689431054,0.2135060068293162,31.42337337886211,3.595005969996077,-39.28831331056895,100,1013.25
3.001732101616628,-0.0010883061719042,0.0706144186586489,0.0,0.0,0.0,0.2118432559759467,0.0,0.0706144186586489,0.2118432559759467,31.412288373172977,3.5838638656540027,-39.29385581341351,100,1013.25
3.0117378752886834,-0.0073734532055109,0.0700558075129729,0.0,0.0,0.0,0.2101674225389189,0.0,0.0700558075129729,0.2101674225389189,31.40111615025946,3.572809216158501,-39.29944192487027,100,1013.25
3.0217436489607388,-0.0136513151266128,0.0694928700036453,0.0,0.0,0.0,0.2084786100109359,0.0,0.0694928700036453,0.2084786100109359,31.389857400072906,3.561842704200065,-39.30507129996354,100,1013.25
3.031749422632794,-0.0199156892878055,0.0689256408954122,0.0,0.0,0.0,0.2067769226862366,0.0,0.0689256408954122,0.2067769226862366,31.378512817908245,3.5509650070261687,-39.31074359104588,100,1013.25
