Timestamp,Acc x (m/s^2),Acc y (m/s^2),Acc z (m/s^2),Gyro x (rad/s),Gyro y (rad/s),Gyro z (rad/s),Beccheggio/Pitch (rad/s),Rollio/Roll (rad/s),Imbardata/Yaw (rad/s),Mag x (microTesla),Mag y (microTesla),Mag z (microTesla),Altitudine (m),Pressione (milliBar)
0.0,0.9944015979681656,0.0015765311173719,-0.0071376194636194,-0.0053878056626471,0.0112213648025928,0.0100766837302398,-0.011860119418363,-0.0185116378872613,0.0151571382352524,0.0017930851674596,0.0113981386857473,0.0156907057030065,0.0044475321896011,1013.253905853702
0.0100125156445556,1.0068639852970729,-0.0013525101141249,-0.0024251202040958,0.0042925703366179,-0.0083142243509766,0.0044519229679562,0.0016221149578657,0.0144648004212941,-0.0042810355507066,-0.0008287230281231,0.0153070628549076,0.0004437313310788,-0.0019234433724988,1013.2456409828466
0.0200250312891113,0.9971953179181784,-0.0057436471571032,-0.0054435933620875,0.0142709294468817,0.0015286270912309,-0.0052538427207946,0.0007903658711629,0.0158236895287365,0.0082859411363456,-0.0261062125205249,0.0030080790672958,0.0149267060403222,-0.0058222415609079,1013.2316575035225
0.030037546933667,0.9934250094798118,0.0012154464479235,0.0066941698629284,0.0073481150386472,-0.0033348448716919,0.0150567650177303,0.0015692661758138,-0.0016191371592793,0.0013582755485422,6.409879990798532e-05,0.0051522582102322,-0.0169614325924408,-0.0070152726977088,1013.2548628147932
0.0400500625782227,0.9984613033405492,-0.0031811222680484,3.759752596996826e-05,-0.0170996553972202,0.0105141087458964,0.0020741700999328,0.00142332406563,0.003236387148305,0.0181266692967845,0.0076592123944883,-0.0011721046573062,-0.0008333902229294,-0.0147036752116414,1013.2561394728272
0.0500625782227784,1.000840766159932,0.0082898036889898,0.0090859013651633,0.0011426792486778,0.0078888646383896,-0.0084658661730737,-0.0024360479418266,-0.0100795792219208,-0.0191835109038529,-0.0021241458327424,0.0107383036568695,-0.0036682100903637,-0.0142825332039324,1013.2513751557088
0.0600750938673341,0.9794629408425216,-0.007357250833596,0.0083703780524168,-0.0021806368672006,0.0041353097098594,-0.0024431421389541,0.0037673485427471,-0.0009135965292348,7.340023407197309e-05,-0.0070326787489165,-0.004675236778257,-0.0211269346343951,0.00435986595907,1013.2535526956284
0.0700876095118898,1.009916908638646,0.0068769318731864,0.0022948258681048,-0.0186184008115405,-0.0022864182254177,0.0021670866245508,0.0021637875227308,0.007861184966227,-0.012934907049329,0.0003015544748299,0.0092685562187446,0.0033602570184137,0.0033567577705709,1013.252037432808
0.0801001251564455,0.9878455599154828,-0.0147660786695031,0.0029769158959483,0.015842690066199,0.0042658155790571,-0.0166331141366877,0.0078720333817717,-0.0034675465744421,-0.0080703811014179,-0.000826029321114,0.0006720002359542,0.0048286851905034,-0.0021862583368624,1013.2476278930304
0.0901126408010012,0.979449261442549,0.0251179240944802,0.0067106921050725,-0.0156854534975203,0.0071721882612983,-0.0167620052889533,-0.0142056507462258,0.0085605197722549,0.0155913077551065,-0.0096701274522212,0.009713358736094,-0.0008160677315982,0.0055001220020222,1013.2363181529072
0.1001251564455569,1.0014623212642744,0.0061990875908117,0.0054142201237295,-0.0042272306353498,0.0143861378246411,-0.0066541839842721,0.0134897425844149,-0.0118928600942788,-0.0010459456541882,0.0084786473402962,-0.0008770361423028,-8.162631235836418e-05,-0.0011026399026774,1013.2426792026556
0.1101376720901126,0.99849746664012,-0.0179340425063834,-0.0168841546914024,0.0005676152071211,0.0059921583859922,0.0049062912188528,0.0022468366292643,0.0033972910873482,-0.0031671725153961,0.007541381484242,-0.006746983520056,0.0060897278320765,0.0043638944366841,1013.2467185058769
0.1201501877346683,0.983284988656291,0.0085827884492294,0.0010762340536297,0.0162215100814715,-0.0117987924396975,-0.0056206817557368,-0.0009339542850211,-0.0014913771466615,-0.0011526165122558,0.002454724710781,0.0099427444030507,0.0099711398935463,0.0037214325564935,1013.2441304175752
0.130162703379224,1.0009291771271611,-0.0011043453056868,-0.0061052540813999,0.002353669600874,0.0103274621833439,-0.0065173987867677,-0.0064488755133152,0.0010374992964284,-0.0011474293025269,-0.0064166997416824,0.0080114301947198,-0.0095108193521625,0.0093220191571718,1013.2336297232846
0.1401752190237797,0.9961050795059408,-0.0130893092352587,0.0035082785404471,0.003011739044285,0.0016212852492586,-0.0088864641986023,-0.0088925668833285,0.0035466932975674,-0.013563311886154,-0.0009265084046478,0.0013326719427482,-0.0045500546118707,0.0143661471648719,1013.2395840237994
0.1501877346683354,0.9941308081766698,-0.0069641622864193,-0.0046437357672654,-0.0126421293517283,0.0034750193422789,0.001621256923139,0.0116509711497277,0.013319989001668,-0.0127864425726061,-0.0011894364940623,0.0026657761902302,-0.0041599564108822,-0.0067921205844433,1013.249297370574
0.1602002503128911,1.0119109835006457,-0.0064024592999181,-0.0170402764830242,-0.0117411255073937,-0.0188639903948613,-0.0088110987232374,0.0002035241337031,0.0026528333644708,-0.0088400831818289,0.0071827541972699,-0.0093220306801299,0.0069307922414855,-0.008223985298361,1013.2412662204684
0.1702127659574468,0.9943483982452912,-0.0072801532359085,-0.002897300956986,0.0115468917046411,0.0005445408361912,0.0039251146336213,-0.0071655261159548,0.016279918905146,-0.0075197141620512,-0.0031053613325895,0.0080832343368305,0.0009609403378493,0.0045379715634455,1013.2365018702432
0.1802252816020025,0.9996566950728032,0.0038492840315831,0.0046133365804573,0.0115709740622308,-0.0019569144653211,0.0025438148742963,0.0109994178537511,0.0037737505683402,-0.006487649550976,0.0061207651803833,0.0064250512099294,-0.0177584675203816,-0.0021048449032106,1013.2535323263578
0.1902377972465582,0.9989199593226912,-0.0211522436124324,-0.0056917571177424,0.013499472803641,-0.0099936951242764,-0.008487041261209,-0.0035869527627531,-0.0180370685819208,-0.0045890096174598,-0.0051765851868474,0.0018887137536548,-0.0033523297943693,0.0192723124740192,1013.2514429450976
0.2002503128911139,0.9830370587880434,-0.0074417502536006,0.008706880159538,-0.0093227974211198,-0.0027730797233264,-0.0319434343505094,-0.003929912552322,-0.0004117886683068,0.0005583489608549,-0.0151079945981024,-0.0001897884893739,0.0040442601701947,0.0081125251173963,1013.247597790391
0.2102628285356696,0.9854273464043634,-0.0315028746952106,-0.0235139955291505,-0.0077710261594511,-0.0013765147229522,-0.0133128510347261,-0.0013142089032063,-0.0037929194660634,0.0082702531822241,-0.0107161075594906,0.0119847091678526,-0.0077547880215334,0.0089604959273782,1013.23001643316
0.2202753441802253,0.9951180394632826,-0.0001190656384843,-0.016486067126294,-0.0041247912902353,0.0235304309098315,-0.0115886749853183,0.0023312636752589,-0.0027173127470334,-0.0124660933238461,0.0060150353395692,0.0014914622553878,-0.0157783846725037,-0.0062477288708214,1013.2590421125728
0.2302878598247809,1.0046523167979489,0.0170183769209524,0.003006834835715,0.0009376608542038,0.0143799177916368,-0.0048626965207635,-0.0017638050137922,0.0001314632733104,0.0024542955111751,-0.0124245657424226,-0.0011471980720437,-0.0127199676859969,-0.0216273583584592,1013.245324561898
0.2403003754693367,0.9948829066494242,-0.0101098651767646,0.0196932929609166,0.0056801998863925,-0.0108639806082725,0.0007074089538249,-0.0044890810400997,-0.0096237013263013,-0.0113007010005546,0.0189017679500036,-0.0142833925665095,-0.005715612419823,-0.0026396294212652,1013.246521476711
0.2503128911138924,0.9963555360501006,0.0063415666100216,-0.0144892925399037,0.0045380893298755,-0.0129860811307374,0.0049841979612285,0.0113356720065893,-0.0024185867788629,-0.0029994109219102,0.0024929309943035,0.0128414042341353,0.0033971763987888,0.0025520181595877,1013.2443227971124
0.260325406758448,1.0139070743245848,0.0024545765661889,0.0026353257855217,0.0019099536371635,-0.0033021144627938,-0.0144340437290296,-0.0099175403057186,-0.0060518328047566,-0.0006309940921931,-0.0010136316789247,-0.0156491243638114,0.0041345588598876,7.438779713090343e-05,1013.2630742469572
0.2703379224030037,0.9793232004456248,-0.0011894295662833,-0.0109665410565116,0.0112705269428777,0.0070545877427148,-0.0018256706934284,0.0074724789259314,0.0065312672280675,0.004974908703979,-0.0114504980082321,0.0121611033153089,-0.0047408619888574,0.0114859613462339,1013.240171669492
0.2803504380475594,0.997334255638328,0.0149728282815203,0.0065712866234048,0.0104594889787317,-0.0120258542077653,-0.0067358126542964,0.0088908416091719,-0.0032255628370747,0.0103154575171665,0.0014718189946392,0.0188758030972129,-0.0083309973134986,-0.0268272867354911,1013.2291123899846
0.2903629536921152,0.9883220979991943,-0.0164075742600604,0.0032110720505204,-0.0111239265040235,0.0078161803323827,-0.0003056371659133,-0.0086868490959933,-0.0044659679561911,-0.0210340955825473,0.0156172139605078,0.0055072937168858,-0.0139617733000794,0.0049713676614153,1013.2542050247696
0.3003754693366708,0.9824957183848372,0.0161953678051451,0.0042069303755128,-0.0133483459588144,-0.0066895271483352,-0.0064544799246568,0.0036166174923056,0.0081316947076248,0.0163117312333091,0.001482697293445,0.0143275759065639,-0.0165963593672042,0.0110852896805964,1013.241715999146
0.3103879849812265,1.0079993198787884,0.0022335158473386,-0.0016697146397308,0.009900377351615,-0.0056596052937364,0.020326905806361,0.0148971227088578,0.0016530553680613,-0.0081606007237001,-0.0061997679951469,0.0008898019091565,0.0009102926319507,0.0027964731339289,1013.244290643881
0.3204005006257822,0.9965023728669016,-0.0049705803905898,0.0190861095354327,-0.0091622625227652,-0.0065751326571918,0.005050488125452,0.0058368242457737,0.0019435918476879,0.0048259429636341,-0.0100710712578613,0.0147743416571234,-0.0021141884433183,0.0088383050622841,1013.2407055841728
0.3304130162703379,1.0055443136243176,-0.0192641602025399,0.0049294519841762,-0.0169151460529384,0.0102732371344069,-0.0033347471163761,-0.0058319366574478,0.0099587351649317,-0.0031129790622971,-0.0025295213117934,0.0028059063359507,-0.0097667655693395,0.0188084141685932,1013.2342234038664
0.3404255319148936,0.9825761603467248,-0.0084244783599337,0.0031049925316441,0.0028546604118871,-0.0017675137101021,-0.0057250445772583,0.0070570112643051,0.0170040600012983,0.0013735397439363,0.0019596397873786,-0.0039100445311679,0.0040654287758309,-0.0080480933767848,1013.234959709247
0.3504380475594493,1.0077494079858111,0.0072351080522989,-0.0076189071249464,0.0199823095822072,-0.0094494816876789,0.0012009283581875,-0.0089765961377363,0.0012465460010878,0.0122295386943963,0.010883510989126,-0.0053536816103099,0.0080421133542444,-0.0031644869564633,1013.2502743801384
0.360450563204005,0.9843088732279288,-0.0022194376069955,0.0066615910016467,0.0097961497125464,0.0222411119615549,0.0209952362696616,0.0012695524022192,0.0069192811844861,-0.0113120979229023,-0.0019827321245421,-0.0062109810177729,-0.0126832352517757,-0.000859239515499,1013.266044349078
0.3704630788485607,1.0152614865679543,0.0099886435323143,-0.003174510987419,-0.0307673108290832,0.0073802057692221,-0.0175766111327596,-0.0038682227969228,0.0008388325133939,-0.0065903267017036,0.0029990796240135,0.0001006762817323,0.012838090002314,-0.0034876526312043,1013.2397044854388
0.3804755944931164,1.0005849182425612,0.0048552076993309,0.004746381018531,0.0146565626902,0.0070885299975831,0.0066773297112585,-0.0073749546496768,0.0095428994370988,0.0081753460113397,0.0076294914528392,-0.0006220789171668,-0.012570608967945,0.0288596585171224,1013.2683525933846
0.3904881101376721,0.9833304336899068,-0.0042170875397322,-0.0155571832082118,0.006063685851411,0.0035573517273255,-0.0092359322990362,-0.017870109301449,0.0239402945614963,-0.0078366999332473,0.0090964088046357,-0.0040289752751801,0.0008838993986479,0.0167147743075752,1013.253116086589
0.4005006257822278,1.0072379083968257,-0.0063097258916386,-9.848520099682264e-05,-0.0007067623283832,0.0128027082059428,-0.0036972347525508,-0.0056738063191938,0.0030667279013021,0.0097266292648553,-0.0105503840613453,-0.01244555995485,0.0038669128743229,-0.0066963935627157,1013.2476779946328
0.4105131414267834,0.9931606388519684,-0.0025161725497807,-0.0002534776717403,0.0087245301714849,-0.01741901755633,0.0145385264279811,0.0040253030363432,0.0011799578352879,0.0087816428472822,-0.0200630587927235,-0.0060801049595513,-0.0058478053839957,-0.0085248959139161,1013.2331896373806
0.4205256570713392,1.006102081400179,0.0055238549363214,0.0005791501980834,5.887438636169914e-05,-0.0126870349354657,0.0069135697031569,0.0078526366800985,-0.001470802707377,0.0151566494980699,-0.0024279833129118,-0.0048931081861364,0.0053026217822049,0.0092778697142641,1013.2441230674744
0.4305381727158949,0.9996652140070786,0.0007282858636081,0.0041382412728441,0.0150989290193659,0.0058895512909204,-0.0034388457155608,-0.0086250116348667,-0.0140733020006612,0.0067354530449177,-0.0012940119727632,-0.0055602855077218,0.0017877473892114,-0.0020319853918531,1013.2634818683454
0.4405506883604506,0.9868510694898898,0.0126103001308536,0.0098646593970036,-0.0074477916427169,-0.0010114039134718,-0.007871693756245,0.0061324709754568,-0.0148841910236407,-0.009051953567918,0.0059112150481014,-0.0104764531322463,-0.0028286723358442,0.0084800813566396,1013.264414546517
0.4505632040050062,1.0004176261266835,0.0168093654776647,-0.0031205406503199,-0.0073540244591355,-0.0188789059110418,0.0126763967564515,-0.0055016212348955,0.0006229796426546,0.0034430799709483,-0.0006288729935052,0.0091004222549191,-0.006602448198427,-0.0016706923953225,1013.2545198037532
0.4605757196495619,0.9950386676016358,-0.0168721476278013,-0.0017814546617201,-0.0098584365212572,-0.003329798604464,-0.0026514814004582,0.0019227613451798,0.0074177267376292,-0.0103472282540168,-0.0069204488463358,0.0009343348075346,-0.0097240645748456,0.0157066350978619,1013.2489182088814
0.4705882352941176,1.0077943450393887,-0.0169756778607344,-0.0093944727335974,-0.026413164764545,0.0115453621365086,0.0073011216209282,-0.0026579127021854,-0.003463292717595,0.0008848642840962,0.0144785998994042,0.0005130433009035,0.0202963067044247,-0.0046364665949099,1013.2441380818012
0.4806007509386734,1.0052736443710373,0.004523364391471,-0.0099275942973519,0.0150555496502892,0.0015676419676608,0.0126557507427293,0.0001462922657217,-0.0084664254234881,-0.0021844862748018,-0.0115917239334494,-0.00518418495869,-0.0152835429460646,-0.0036830911745059,1013.249456234787
0.490613266583229,0.9913548979475616,0.0069231535071204,0.0030901830573378,0.0132184056002099,0.0057733602218905,-0.0023300747891873,0.0067814181286814,0.0005395823470924,-0.0031555208408057,0.0052919599218257,-0.0008713767540221,-0.0090585731024665,0.0068819313794656,1013.2601922302504
0.5006257822277848,0.9953801600583287,0.0156987412503603,-0.0181080798787749,0.0062226243037323,-0.009699169716315,0.0099925708811289,0.0070771536358364,-0.01481090559811,0.0089342580059467,-0.0161855171075396,0.0098701328512914,-0.0152675843687504,-0.0068802125902003,1013.2456751153338
0.5106382978723404,1.0012141460803847,-0.0027330147436781,-0.0087109764339114,-0.0118278586842783,0.0068838457009727,0.0041237885687756,0.0103847424006439,-0.0143332940525383,-0.0097062409037553,-0.0031610426200002,0.00555969024391,6.485857699488794e-05,0.0179811644915081,1013.264323561054
0.5206508135168961,0.9781794613976952,-0.0123009405126169,-0.0042782574211078,0.0113610950305059,0.0014387995565553,-0.0072558188468217,0.0092702667228674,0.0050108905362189,0.0074579936486223,-0.0054574129391151,0.0173219600527466,-0.0170485467289684,0.0126287771319838,1013.2622588487786
0.5306633291614519,1.004854637969567,0.0059562094025299,0.015549865626152,-0.0052740832393142,0.0082862417380845,0.0178852025031196,0.0222873558929076,-0.0052156625074855,-0.0083925502321396,0.0052089431139553,0.0122318189046263,0.0009371155406279,-0.0048956917038175,1013.2538101862158
0.5406758448060075,0.9959781469937662,0.0089159603448019,0.0064489116867569,0.0043247565872647,0.0212968054076745,-0.0023036302248752,0.0054645411267889,0.0109574651051688,-0.0091787695240277,-0.0007107137450273,0.0172602157661526,-0.012468041979459,-0.0018943189408806,1013.2424269473948
0.5506883604505632,0.988214033895201,0.0022038094054558,0.0052229622846673,0.0108313889167878,0.0010396802957282,0.0233512796910057,-0.011286966076088,-0.0120668787122251,0.0043354520737674,-0.0051785583345685,-0.0087604003130133,0.0023556970989708,-0.011665539707485,1013.2572586147384
0.5607008760951189,0.9922066278425016,-0.0106837505596966,-0.0021407182101603,0.0135185068488597,-0.0067926949177091,-0.005801881972087,-0.0002427483941323,-0.0050997188302404,0.0147487362976876,0.0049791235754958,-0.0136569358314468,-0.0063305184261197,0.0138300162673646,1013.2410869409496
0.5707133917396746,1.0122935170869551,-0.0050471095597238,-0.0110652064601299,-0.0012771676240295,-0.0239824793540469,0.0058193214675069,0.017917778045163,-0.0233734134674304,0.0131351360534776,-0.0013696328080602,0.0104399396350657,-0.0080347298716658,-0.0089891793791865,1013.2639625680235
0.5807259073842304,0.9922150747485474,0.0033281486507783,-0.0125523399891491,0.0071457872514467,-0.0095086559087527,0.0018266817407135,0.0147000951143257,0.0086914146174974,-0.0093217192573144,-0.011180232754883,-0.0002527172189549,-0.0161552470710619,0.000124874037394,1013.2532539145184
0.590738423028786,0.9895044914383332,0.001179713841496,-0.0048867345724349,-0.0083484323617774,0.004376533424246,-0.0055855314866867,-0.0027390003894666,-0.0017553451645247,0.0074452638778075,0.0086653522593299,-0.0037105317902128,0.0024735608576985,0.0027440633419295,1013.2460170987936
0.6007509386733417,0.9969547796608056,0.0127081311360913,0.0225243120637539,0.000173067674674,0.0018343551028336,-0.0059982812332151,0.0097974367947946,0.0111564421525807,0.009938866240288,-0.0021112316699409,0.0104685008877825,-0.0006242347860171,0.0058678050849192,1013.2494001996788
0.6107634543178974,1.002298019234403,-0.0001912359925776,0.0020095445384424,0.0018002792599071,-0.0033752911203758,-0.0019960874635574,-0.0021048005344212,0.0014100461274806,0.0023434480967853,0.0154698798307226,0.0031375940819513,-0.0069702552222624,0.0021687585605664,1013.2509544927208
0.6207759699624531,1.0075820496104808,0.005904851462117,0.0041621160366605,-0.0123200122756416,-0.0025754133869299,-0.0057813162804048,-0.00214684880921,0.0096872154740026,0.0052679491321911,0.0029964531796324,-0.0110143243570392,0.0051166571889193,0.0065047403735054,1013.2423901600602
0.6307884856070087,1.0034126780280923,-0.005211660369498,0.0006165288597189,-0.0037661835628297,0.0059424881854716,0.0054818992784441,-0.0092875872694452,-0.0143118027356757,0.0082225587645394,-0.0030902187446932,0.0110852997662821,-0.0019924026545476,0.0106278746242989,1013.2396844270468
0.6408010012515645,1.002556126407676,-0.0021436037121489,0.0057251170770134,-0.0126900234112599,-0.0135659565701455,0.0153280488473997,-0.0054588730466279,-0.0111072218586822,-0.0099907700427731,0.0024055622309771,-0.0036983121972934,-0.0039272249478185,0.0116178488669995,1013.2703449217256
0.6508135168961202,0.9943527062901508,-0.0009421491643547,0.0030208932668838,0.0048167831432011,-0.0062314639471645,-0.0068783416965776,-0.008146517935211,-0.0142554451339014,-0.0135947991418104,0.0098177302111368,0.0046030782917264,-0.0011734621190832,-0.0090126911275729,1013.2629840569788
0.6608260325406758,1.000093904108175,0.0145447650860482,-0.0089505548066139,-0.0046351576192597,-0.0174711806454182,-0.0082878884106274,0.0200260717022252,-0.0014965276108481,0.0109996173619936,0.0159989672013802,-0.0159180035919037,0.0097575349177885,-0.0124073180658497,1013.2606116061316
0.6708385481852316,1.0033298611881984,-0.0029657773128074,0.0048885798323343,0.0045131881060564,0.005152535896378,-0.0034059305424831,-0.0018146380145675,-0.0012893876261697,-0.0037468522180924,-0.0005928394638742,0.0091650571256303,-8.847130322937631e-05,-0.0095143415701021,1013.2560802325752
0.6808510638297872,0.9983633467084674,0.0051033955071647,-0.0071521351381388,-0.007827528478276,-0.0155500107117419,0.0086272630788956,-0.0009090203504548,-0.0044323118629448,0.0026404177677067,-0.0038980212542266,-0.0061006319519661,-0.0035430899864783,0.01060249213902,1013.246452139874
0.690863579474343,0.984595657991405,0.0120902315859483,0.0024282189933782,0.0065918549170779,-0.0106568777136803,-0.0070354064235693,0.0250717051343605,0.0009270006674721,0.0176396503338376,0.0136543634287229,-0.0007191258122858,0.0180724745731986,-0.009553668047928,1013.2450495641472
0.7008760951188986,1.004440642165816,-0.0121528758025614,-0.0021400972720331,0.0033863612949434,-0.0059105282124,-0.0072696280844207,0.0092157022714473,0.0039373999444425,-0.0150586051088094,-0.0011106904077939,-0.0121909478115569,0.00529841726415,-0.0189767550088129,1013.2475907362052
0.7108886107634543,1.0025810385415033,-0.0038008811435955,-0.0021705892325937,0.0092472306245241,-0.0137253661300931,-0.0029734418782615,0.009166780887598,-0.0066553992947537,0.0089576791833166,-0.0200037984146894,0.0139089746364815,0.0032632686177294,-0.0095488551427388,1013.2450636607796
0.7209011264080101,1.0025530074011164,0.0154314701067133,0.0020372846141289,-0.0029719041399643,-0.0090758148634834,-0.0054539814978927,0.0058917149199551,-0.0049016134594101,-0.0147295289140935,0.0121748747524436,-0.0005870975130321,-0.0055524543625579,-0.0105434250380128,1013.2308994519816
0.7309136420525657,0.9869900746413096,0.0113757780925434,-0.0019688500569163,-0.0041677708476233,-0.0005904880926098,0.0099630050189381,-0.0045871835432947,-0.0259166981812362,0.0062292249359839,0.0100427669291472,0.0046473555569719,0.0035334235514388,0.000609250714226,1013.2532842824846
0.7409261576971214,0.9911859551039336,0.0144454397189311,0.006430482824555,0.0138627756211314,0.0052470331507873,0.0025817554116213,-0.0138409763161688,-0.0032272753865339,0.0138387134490334,0.0137086452792215,0.0125117609782374,0.0047240128773997,0.0201430856621061,1013.270783458972
0.7509386733416771,1.0088956307671118,-0.0007382882663377,-0.000557299047776,-0.0079414009578841,0.0093790409037493,0.006575192818438,-0.0039673520055157,-0.0103425693221319,0.0107192215781757,-0.0113019080896792,-0.0085073619239593,-0.0114528599208263,0.001953288989614,1013.2539547069534
0.7609511889862328,1.0020108900994156,-0.0018223043173639,0.003816282022752,0.0074693760988011,-0.022065381965561,-0.0129853575386288,-0.0127425353271262,-0.0046275592107858,-0.0077198481993679,-0.0022460445969538,0.001622942520037,-0.0045013226831258,0.0041803509172481,1013.2520088165886
0.7709637046307886,1.0175729842348271,0.0022542740674508,0.0015095068291493,-0.0042073459935826,0.0123560031222613,0.0111957663881704,-0.0046407456812311,-0.0093520544894483,-0.0014711575642237,0.0105071935985623,-1.1764762581890112e-05,0.0169565933456253,-0.0073441959190705,1013.26609167666
0.7809762202753442,1.0026196460403116,-0.0054980494664037,-0.0070791029245183,-0.0036702454976252,-0.0056653408124216,0.0027819733986625,-0.0002652170582394,-0.0123155074300971,0.0166666607933642,-0.0062060617756464,0.0189771310887133,0.0085819041695288,0.0055898463843003,1013.2596264290024
0.7909887359198999,0.99496022944927,0.0077364222588867,0.0012058208897732,0.0151716717310875,-0.013156975574184,-0.0222646050240175,-0.027993573736051,0.0177356492502107,-0.0045508230680747,-0.0055964636828051,0.0037625631807625,-0.0133198574481314,0.0073560194558984,1013.2464986388304
0.8010012515644556,1.0170602151178392,0.0013144659993375,0.0002625392930022,0.000442803233083,0.0007261881563041,-0.0045299181354584,-0.0067479959859693,0.0042485497049058,0.0089602662488849,0.0084669167882116,-0.0007170646428136,-0.0036977153789714,-0.0024552561134851,1013.2563217322852
0.8110137672090113,1.0052788061983853,-0.001479031123548,-0.0083888326697341,0.0052915380325935,-0.0102697412760565,-0.0101117163345207,0.0014163074484324,0.0209236250174248,-0.0011190748984592,0.0012253885901343,-0.0013929785181249,-0.015462800524335,-0.0018095356309341,1013.2406419384668
0.8210262828535669,0.9914485750080438,-0.004607115943364,-0.0064906459365412,0.0018058255191174,-0.0071041096779776,-0.0086502359125491,0.0058268838568988,0.0085675229678845,0.00270558154055,-0.0018782583348022,-0.0115818861246516,-0.0117266183689536,0.007264212281699,1013.2444440697824
0.8310387984981227,1.002426770089027,-0.010520942221587,-0.0077099765773903,-0.0060225495066451,-0.0057698803891204,0.0246698901795742,-0.02360527773728,0.0156191193039098,-0.0065901089328724,-0.0121475923466712,-0.002639195982849,-0.0053678493435828,0.0177251544981394,1013.2451226963798
0.8410513141426784,0.9952040589904598,0.0057678812665286,-0.0082418902910814,0.0058207903331954,0.0058237731545832,-0.0019729151061053,-0.0004046652699313,0.0055924934433363,-0.0117355960881817,0.0057914493861826,-0.0081666346518206,0.0015256679489803,0.0053460400743028,1013.2499967235444
0.851063829787234,1.0099102044125583,0.0072471255856308,-0.0096547928582873,-0.0046398474039278,-0.0198829490024495,-0.000276511650334,0.0173799601110369,-0.0120974072549265,-0.0058974069403227,-0.0014623802824542,-0.0042383729731695,-0.0001798154790132,0.0009260151753672,1013.2444599513886
0.8610763454317898,0.998771182488429,-0.0043647155562627,0.0136311028701808,0.0059531044930813,-0.0066581245243174,0.007263184023603,-0.0035713618551334,0.0333607738790081,0.0095634990421527,0.0040207478259965,-9.041003838862784e-05,-0.0031221772221836,-0.0028726665452138,1013.2479232526644
0.8710888610763454,0.9929581819775006,0.005198637097273,-0.0131085023029608,-0.0099243970916551,0.0062098094322066,-0.0096248959425519,0.0132668207332834,-0.0109827931113473,-0.0101195909518308,-0.0074336052740212,0.0022634016870897,0.0057575637130618,0.0012703780381603,1013.2372234631424
0.8811013767209012,0.981766262741036,0.0156782660102748,-0.0063242058938379,-0.0060881891282067,-0.0022714425009173,0.0014625704622824,0.0073661650774695,-0.0101952993208089,0.0015832614420561,0.0194170879991168,-0.0108120373363929,0.0028849920446856,-0.003144320835842,1013.2562108218816
0.8911138923654568,1.0119967563077126,-0.0123216106845326,0.0113897921205893,-0.0095609898836617,0.0047835424543961,-0.0078200705670274,-0.006585959339933,0.0102597402232004,-0.0251840141698093,0.0112950162896701,0.0080717858274281,-0.0045055839733421,-0.0129726773073466,1013.25787964219
0.9011264080100124,0.9948546894502132,0.0103045008977386,-0.0115732641611417,-0.0073774903403581,0.0009648938101172,0.0070916193500995,0.0096417365590872,-0.0226971110899889,0.0101040927443978,0.0086937993503974,-0.006909175542073,0.0018082032539722,-0.0048114145235586,1013.2524936111902
0.9111389236545684,1.0014439576117562,-0.0202526494489711,0.0031724691676354,0.0154420637268037,-0.0138131341677589,0.0006131589022399,0.0066011741610831,-0.0021299396235996,0.0011577973963302,-0.0124326342805033,0.0044594893390604,-0.0095271209420998,-0.0130607132032398,1013.2394941135184
0.921151439299124,0.998923727372624,-0.0047092432005061,-0.0011238291215689,-0.0039943755263688,0.0010138736784155,0.0029912266006902,-0.0026422292061584,-0.0032597102274722,0.0008767722747384,0.0045180425384008,0.0344713050342836,-0.0163006658431244,0.0087488694196456,1013.246257029524
0.9311639549436797,1.0028197553138656,-0.0033775255585582,0.0193240886670189,-0.0058869542214481,0.0094305246180021,0.0057220326501514,0.0082678446099296,-0.0116803511867031,0.0116378580347715,-0.0046853427115032,-0.0004227399824158,-0.0226332896949391,0.0169711378284113,1013.244992269071
0.9411764705882352,1.004411979777371,0.0066711852398138,0.0220367420500919,0.0077797619324465,-0.0008254058822744,-0.0022696985292758,-0.0065324141060873,0.0128331995345172,0.0030025942634013,0.0059842166200986,-0.0034976448055466,0.0013825692218782,0.0001032200882398,1013.2272087288694
0.951188986232791,1.0229746345586288,-0.0101403559175774,0.0093650207001946,-0.0024230382680767,0.0004495498777079,-0.0029092061280252,0.0135297816244399,0.0229008906176411,-0.004910582520905,0.0035614528256051,0.0113406843660496,0.0128695944772969,0.0105917183857024,1013.2466295073305
0.9612015018773468,0.9987169004269248,0.0048413314327956,0.0090773336432631,0.0085775033883382,0.0153616253231655,0.0054158084539838,-0.0131824322438278,0.0153125417047867,0.0002808850249642,0.0255548894653279,-0.0298414940095417,-0.0047378300095704,0.0154340416486077,1013.256674275774
0.9712140175219024,1.00351969267636,-0.0055255786315266,-0.0062199517432393,-0.0027195818672588,0.0096175450848632,0.015543396799187,0.0112668013853479,0.0043315894371096,0.0070996167134007,0.0250853493212145,-0.006734418250585,0.0084428275299726,0.00297864273641,1013.2413172790294
0.981226533166458,0.9932512690371128,-0.0095897679262476,-0.0094025033975195,-0.0062591970842732,-0.0054168629833001,-0.009064941804614,0.0009215959296417,0.0083991339681188,0.0194336046291046,0.0043119137248872,0.009668143886683,-0.0008734624108732,-0.0204670629695517,1013.2401397127154
0.9912390488110138,1.003681751310064,0.0162446199803662,0.0032881729422905,0.014414153224183,-0.0001585712545495,-0.0117798057099886,-0.0063826952313209,0.0118851044159376,-0.009526835183734,0.0074672077174601,0.017351533965274,0.0147836139264493,0.0049522596877973,1013.236902091586
1.0012515644555695,0.9977172420623576,0.0162708236292319,-0.0161061464677144,0.0126569458312801,0.0045580670852664,0.0081780518077514,0.0060540355545555,-0.0215328692962759,-0.0186283505235972,0.000618746524984,0.011879671930348,-0.0022368557173738,0.0026857243961508,1013.2486533141577
1.0112640801001251,0.9950011011493598,-0.0140859265660809,0.0029952052834605,-0.0043857867888018,-0.0227676322120164,0.0126322519880104,0.0041262589631423,-0.0083425642134482,0.0041550391152991,0.0006149463668191,-0.0093421294108957,-0.0168267374673046,-0.0040717264891961,1013.2405692158728
1.0212765957446808,0.9946836515794244,-0.0093339323205695,-0.0088331762564539,0.011459635047539,-0.0146523802272437,-0.0099722784876512,-0.0033348343552634,-0.0019237994054449,0.0119479466061607,-0.0139571589336513,0.0069273872008041,-0.0174447661983271,0.000119158509987,1013.2268707536092
1.0312891113892366,0.9860499641616316,-0.0114040048938346,0.0031914378529126,0.0028004709588855,-0.0088827181711275,-0.0119188876803813,-0.0188705795994634,-0.0036814072728577,0.0088579245018481,0.0156961090565904,0.0028410607400506,-0.0103768017199193,0.0030193367886053,1013.2558559466318
1.0413016270337925,0.9967544451176622,-0.0035146698211608,0.0129926142242635,-0.0122192782999547,-0.0082134832909978,-0.0024274084022583,0.0041807922450502,-0.011805332692094,0.0287540531430245,0.0176625136701733,-0.0009723888767629,-0.0010560647089453,0.0036956446853027,1013.2468286718738
1.051314142678348,1.0047398399823115,0.0043530455907748,0.0058893842882902,-0.0063857101903913,0.0150061433702194,0.0076975962995601,0.0144442373586419,-0.0164529099809984,-0.0064043010322217,-0.0065106942874797,-0.0175945551128704,0.0042205662860345,0.0072621129588491,1013.2582433746336
1.0613266583229035,0.988236662589825,-0.015708274910324,-0.0041465304740771,2.8476553121696607e-06,0.0058438382125021,0.0163722448645534,0.0092743572794441,0.0002038762754236,0.0162260936791695,0.0066887639724598,-0.004969866867854,-0.0054201247914657,0.006417519892158,1013.262361130512
1.0713391739674594,1.004005373495653,-0.0038391958031227,0.0033718092019815,-0.0142842974459853,-0.0059001494044556,-0.0088223848872117,0.0042730706996142,-0.0053901719595115,-0.0048652792380307,-0.0030529617120347,-0.0121399008826768,-0.0154762085758368,-0.0013104414783325,1013.2684959880183
1.081351689612015,1.0004152028014643,0.0191520057340993,0.0079859869784292,0.007398726618452,-0.0018621028169136,0.0016707552386027,0.0071735837522035,0.0044791470571474,-0.0160710845735646,-0.0189672821553662,0.0020552056782442,-0.0055141037722115,-0.0014557095444426,1013.2640893982044
1.0913642052565709,1.0050831432650604,0.0142052390763024,0.0041748932538189,0.011944753031606,0.0296298176970634,-0.0182326322245087,-1.4822111030087029e-05,-0.0136112725342725,0.0148966262511143,0.0106683502808658,5.459276283646947e-05,0.001347044089815,-0.0092421868408583,1013.2891181378776
1.1013767209011265,0.9883060238252428,-0.0001416773069653,0.017462301274275,0.0055647869773215,0.013544954526003,0.006384688086329,-0.0023453129287926,0.0119210022840075,-0.0043948882965186,0.0024534646278602,0.0072428585781681,0.0124835064960884,0.0174619208488176,1013.2709765419186
1.111389236545682,1.0195056888842835,0.0040266174328122,-0.0079460590769957,0.0016607363073656,0.016062855525119,0.005966138606828,0.0131973653001748,0.0063990087848409,0.0086346326506484,0.0010590005011912,0.0021898267180974,-0.0027445017424811,-0.0147496676557979,1013.249083742458
1.1214017521902375,0.9983178478340968,0.0101383731187172,-0.0132094251509615,0.0091425341855802,0.0087729788547676,-0.0008998645953187,0.0119676120149857,0.0130234381498778,0.0086696202575972,-0.0067660369148113,-0.0047192915833986,-0.0061252984014824,0.0118410541766505,1013.2401009897249
1.1314142678347936,1.0056448324239482,0.0068732568050537,-0.0266879506299662,-0.0088496866296135,0.004202387882771,-0.0148163467569881,0.0031196461798937,-0.0122149333448415,0.0001938999604116,-0.0039431564599003,0.0173079422292208,-0.0084118302487867,-0.008802821256968,1013.2450750552492
1.1414267834793492,0.9712889780251924,-0.0029175263257225,-0.0103089631423842,0.0055635124254528,-0.004671335564473,-0.0083639756752817,0.0131147496649516,0.0116897495781344,-0.0073883753904095,-0.0011303143442048,-0.0010307179375647,-0.0024323744594021,0.0002410951413084,1013.2413406457548
1.1514392991239049,1.010352860058836,-0.0041535725076549,-0.0129628755562824,0.0100278404355295,-0.0116240739865877,0.0098766996028757,-0.0051934832652992,-0.0092369700502447,0.0039057856825983,0.0147783691745192,-0.0080187462567285,0.0039860013590775,-0.0108926349490307,1013.2481847811308
1.1614518147684607,0.9991470427612132,0.0093663283904332,0.0257253623243681,-0.0155223086405178,-0.0020173053043077,-0.0034588861251167,0.0104539661541137,0.0069837752876672,0.0053118021458658,0.006337275716695,0.0009388520013871,-0.003805067037193,0.0035621840745806,1013.2532641179577
1.1714643304130163,1.0020371740814311,-0.0005267209340056,0.0004425440537575,0.0033982914186315,-0.0012177736221735,-0.0015099959538922,-0.0044610991158403,0.0057478491300032,0.0153756747030409,-0.002976893814807,-0.0040888646880019,-0.0019020257466216,0.011564382497784,1013.2392857306552
1.181476846057572,0.9857884270321076,-0.0102515855309507,-0.0006907253850811,-0.009174616888228,-0.0079717063393474,-0.0068830171119664,-0.0076316186297983,0.0102310076530033,0.0155069223243863,0.0107494326154395,-0.0151048164652071,-0.0044984847445949,-0.0027142301523622,1013.2518005065436
1.1914893617021276,0.9987228485231544,0.017413781504757,0.0001036086143799,0.0219075401083751,-0.0035680916470832,0.0051696204383237,0.0092857055339818,0.0004490322168798,0.0214165262081283,-0.0242936079340163,0.0038255561041815,0.0029635811324128,0.0007526003654234,1013.2532238506788
1.2015018773466837,0.991439425454361,-0.0002015554972794,0.0071629865871239,0.0044756358228593,0.0127894679396268,-4.549962680909869e-06,-0.0073532098951023,-0.0017055939598972,0.0031680477763256,-0.0085931396450072,0.0051763847624556,0.0037477003366538,-0.0018714966018842,1013.2430405576838
1.211514392991239,0.998326214061739,0.0149169761177861,-0.0033056774146379,-0.007914170212499,-0.0154804475402672,0.0108498956620471,0.0002969164135719,0.0026547427051107,-0.0010243394770388,-0.0102033921840278,0.0002015513278563,-0.014075065029991,-0.0179085919626027,1013.2378581901786
1.2215269086357947,1.000923005217202,-0.0034441818789217,-0.001016450909684,0.0211362335749113,-0.0207923018082075,0.0040697643771195,-0.0208241907242555,0.0028342973261604,0.0147430274697038,-0.0053551431728503,0.0116289473432381,0.0015029004869047,-0.0056337843282026,1013.2601157831324
1.2315394242803506,1.0065906237068096,-0.0070026553321009,0.007170738870903,0.0145708385422199,-0.0014402452656529,0.0160671503871297,-0.0067270539145954,-0.0068277417950147,0.0085743921779021,0.0139102510785972,-0.0035895911699509,-0.0042084810650745,0.0018574840444262,1013.2569052417896
1.2415519399249062,0.9905218137230728,-0.0039069315962787,0.0059305197498831,0.0140962841272544,0.0169920329502933,-0.0100795273852038,-0.0130273879998071,-0.0045123525069362,0.0013460500512006,0.0044730713661074,0.010343056496628,-0.0083345846988565,-0.0137386450883297,1013.257142310214
1.2515644555694618,0.9945472933573272,0.0053889422600896,-0.0171654117691171,0.0038494428241786,0.0129437697867836,0.0011453345518343,0.0031104722111489,-0.0222783351406756,-0.0031393533692758,0.003677442847033,4.68080081802232e-06,0.0139648704658909,-0.0036035069990564,1013.2463469742218
1.2615769712140177,1.0007098691965857,0.0025543032548372,-0.0075638192479165,0.024239360850078,-0.003532475228534,0.0175135818242745,-0.0021782229400216,-0.0018931062835372,-0.0017386798514656,0.0032143207533198,-0.005145092825,-0.0002926286212948,0.0034176686028403,1013.2524750657456
1.271589486858573,0.985198035013963,-0.0010400118567206,-0.0146159275447943,-0.0138151826441972,-0.0043392638844801,-0.0109908312490962,-0.0070182900867815,0.0102668540577258,-0.0014518250090553,0.0162224040309013,0.0041837202187155,-0.007109981634548,-0.0047837686214177,1013.234804806538
1.281602002503129,1.005061697920146,0.0054022600047852,-0.0003013162695305,0.0069657577508289,0.0040438536444347,-0.0088497064591449,0.0053810681529391,-0.0067157229169316,-0.0022049161180287,0.0040417686245725,-0.0104357443356857,-0.0133287938224284,-0.0030897486457514,1013.256528418247
1.2916145181476846,1.004769224627215,-0.0052643707567251,0.0054648774850062,0.0054694148858532,-0.0069620439492172,-0.0036206260922328,0.0121039285674098,0.0131537292274568,0.0108531213808328,-0.0050527539524657,-0.006624805834793,-0.0148226237554084,-0.0079478177290133,1013.2490911616198
1.3016270337922404,1.0110603089066328,0.0020646206053118,0.0184001938996091,-0.0156502542957574,-0.0119872964692762,-0.0015700643246403,-0.0172808857647484,-0.0107528278853911,0.008401401054024,-0.0014806595010524,-0.012461272885611,0.0061732587262447,0.0095893021702187,1013.2530438569992
1.311639549436796,0.9814749653085492,-0.0016129449153646,-0.0048499345970236,0.010435622486115,0.0236945837402412,-0.0049783308783555,0.0071864874337374,-0.0010883709278065,-0.0121571082973989,0.0030912920070535,0.0018510622767864,0.0077342495287604,0.0005422735480811,1013.2501201374804
1.3216520650813517,1.0065638578434952,0.0093279313908277,0.0209190138244752,-0.0039025948272186,0.0135268323588395,-0.0126509411398712,-0.0086284808393316,0.0053473069533501,0.0032185890888153,0.0016723401714688,-0.0057644454389857,-0.0120147332589623,0.0073824512493613,1013.2542774468852
1.331664580725907,1.0056581102475473,-0.0103597424565812,-0.0096513014864451,-0.0004947907095871,-0.0145473803585659,-0.0042800577517948,-0.0029572364499754,0.0094441832374458,0.0028201026213009,0.0013034920589219,0.0008212164590026,-0.0097302725150774,0.0003981124317169,1013.257628229398
1.3416770963704632,1.0124715203608512,0.0075653002848006,-0.0062315414923715,-0.0011651912513844,-0.0076997252443841,-0.0039832258720745,-0.0031725793875451,0.0173246673213412,0.0116322045334618,-0.0050397354253775,-0.0191091645000613,0.0110046243058873,-0.0204266379461317,1013.2656991411836
1.3516896120150188,0.9871349055516868,-0.0051420398489997,-0.0019877206690935,0.0096417156837569,0.0093872365376229,-0.0038531535406043,-0.0041030249889882,0.0129420669307551,-0.0031964631068623,-0.0038366452567863,-0.0060625567301052,-0.017078867097614,-0.012196338773928,1013.2537498857675
1.3617021276595744,1.0059876042915417,-0.0014964283203711,0.0052690665114461,-0.0063197835628466,0.011359758150055,0.0130430805212656,0.0063386042039691,-0.031044163232554,0.0162595596169408,0.0043840604484616,0.0243191830650463,-0.0118579152173976,0.0063944525077758,1013.2521010250084
1.3717146433041305,1.00397913643786,0.004546584300169,-0.0054592335985205,0.0008854900962375,-0.0053934558146203,-0.0186275997779716,-0.0187856102784332,0.0052407759920903,0.0186738946895943,-0.0108247056448888,-0.0115185964811939,0.0004371457435616,0.0078861501952016,1013.2301277134428
1.381727158948686,0.9953996735741872,-0.0028028627471915,0.016799964758698,0.0067824894059472,0.0010801373486628,-0.012023473833593,-0.0167541971939482,-0.0169552624840185,0.0122210486571163,0.0136091451837742,-0.0020032713213974,-0.0116162089196066,-0.0065426010754296,1013.2563662353824
1.3917396745932415,1.02159686716101,-0.0090579189894091,-0.0104529872443875,-0.0158937012986695,0.0027212056990584,-0.0056558022979533,-0.0201655312969979,0.0123919508363939,0.0054411178034357,-0.0105768611401329,0.0002991786863707,-0.0010559250767369,0.0219438825593457,1013.2473928302632
1.4017521902377972,0.9987113167666772,-0.0049234259964775,0.0007492218316696,0.0104908966565614,0.0102007782330859,0.0003295323110348,-0.0034414844784768,0.0131308878619116,-0.0044663263295303,0.0132555496505627,-0.0069846820293923,0.0087275479100609,-0.0066454311792186,1013.2540413021223
1.411764705882353,1.0063210172161177,-0.0141726654707172,-0.0088094489421751,0.0010942084377006,-0.0077193039026846,0.0016867176674524,0.0247159278258759,-0.005090079352875,0.002244536437712,0.0129507461367918,-0.0006545500216922,0.0145002741326298,0.0163263941482007,1013.2645577708616
1.4217772215269089,1.0005591792070962,-0.0050372328837218,-0.0039608919453134,0.0057575114540801,-0.0004239072377416,-0.0008449167780227,-0.0131484513835202,0.0077601620088989,0.001382470953954,-0.0095728039845211,-0.0161505601343959,0.0093257677770717,-0.0073022528017977,1013.2321092500544
1.4317897371714643,1.0116516227477763,-0.000717867251779,0.0143486861351161,0.0005282583327853,0.0348216906988169,0.0094111030767062,-0.0001304916525582,-0.0003319810651588,0.0075129601153472,-0.004264978491412,-0.0046962717937827,0.0085336490257414,-0.0113525518240106,1013.2584790984906
1.44180225281602,0.9983570957968262,-0.0009573638142342,-9.3713453891679e-05,0.0181609218073771,0.0139115716168435,-0.0046676870890537,-0.0161882028548445,0.0006216818270471,-0.0025675749120087,0.0026883554271578,-0.0144512487910098,0.0030673179214618,-0.0100007756739444,1013.2360875353528
1.4518147684605758,0.988786214731769,-0.0020037775699825,-0.0007914520174725,-0.0013930537219007,-0.0039433506031704,0.0095758985230124,0.0128304199436489,0.0087441096050917,0.0014487116674584,0.0103684335671895,-0.0041311050041771,0.0019923475636112,-0.0040151913131043,1013.256822093548
1.4618272841051314,1.0173379199444492,-0.0064424331578444,0.0023495224126376,-0.0128289072346323,-0.007114214062152,0.0083103313409962,-0.0057201795518551,-0.0001811702639715,-0.00364874639739,0.0099200996591594,0.0087440927771513,-0.0052436380620289,-0.0010806939633062,1013.2482307428236
1.471839799749687,0.9943931898918456,-0.004481092583249,0.0173121910423031,0.0009400349290975,-0.0060502060457168,0.0096986711839689,0.0013145297547441,0.0091776417948058,-0.0191464780196202,0.0049632573691043,0.0110438820824397,0.0132077247537688,-0.0089593277425125,1013.259590877313
1.481852315394243,1.0035200309948655,-0.0148881942138866,-0.014857126768952,-0.0014442162350848,-0.003835302583752,0.0176865545401439,-0.0154387373752023,0.0042428920048416,-0.0050706185007776,0.0078588160567104,-0.0053446633389696,0.0031521120842238,-0.0025380914340127,1013.256558023512
1.4918648310387983,0.9950871980164888,0.0011583852555418,0.0112357742583618,0.0163078159088987,0.0180057590320865,-0.001112597692503,-0.0055607940803416,-0.0065968973569655,-0.002319941278647,-0.0015466209527722,0.0066124665897569,-0.0081257287931461,-0.0126454678696474,1013.2445607206467
1.5018773466833542,1.0111685623796909,0.0010988084599321,-0.0064252294301319,-0.0047850152574921,0.0178745657489312,-0.0110551814731827,0.0145202041051792,0.0055104375991563,-0.0193241222420805,-0.0008143983248447,0.0083959318956145,0.0090142209475548,0.0109100321917535,1013.257023073388
1.51188986232791,1.008337688469254,0.0106632767404555,-0.0151790525755635,-0.0190107106302592,-0.0107952423462385,0.0020626099473344,-0.0003231012576485,0.0036589952795694,0.0010589045701062,0.0007476562286004,0.0021953988415299,0.0043777159960531,0.0080768851903089,1013.2369785908091
1.5219023779724656,0.987618286752586,-0.0041337843450191,0.0035992383374639,-0.0170223144546945,-0.0065978915772287,-0.0079836647121118,0.0054454803906266,0.0063880726072817,0.0002995107558295,-0.0070517677106239,-0.0026827740643299,0.0072569565225444,0.0049362804774924,1013.243762885378
1.5319148936170213,0.988921535049432,-0.0146347017060607,-0.0209330046708519,0.0109773434568844,-0.0143750065800795,-0.014798815092429,-0.0084636319128499,0.0060955175730283,0.0183063712885398,-0.011743475581187,0.0016691909374308,-0.006924650737016,-0.0077659197672505,1013.2384367768088
1.5419274092615771,0.986349814760754,0.0027841220224119,0.013317654346508,0.0075057560198209,-0.0084399926242806,-0.0057076528547918,0.00123808478027,0.0029253108772555,0.0202672598944503,-0.0008298813611827,0.0013297785447672,0.0123524726706108,0.0144714635076413,1013.2497111619682
1.5519399249061328,1.0116381051730772,0.0061741162665948,0.0277817588749787,0.0013624887757564,0.0145115674724479,7.703007361925955e-05,0.0011789297887334,0.0062199277497072,0.0003802802986573,0.0015995855246117,-0.0038596907818347,-0.0174190155777583,0.0028880957573658,1013.2802891385902
1.5619524405506884,1.0155003630987924,0.0019221155933803,0.00221704660449,0.0051843380848457,0.0081558680025516,0.0005798731077403,0.0045238776617217,-0.0071524627337392,-0.0076188076238291,0.0054464768633361,-0.0076265799721741,0.0104510306314718,-0.0183138082753111,1013.2565778492876
1.571964956195244,0.990285216899677,0.0062929255649599,-0.0090394235099722,0.0154120043752836,0.0053767758223372,0.0033260701091144,0.0011540443847559,-0.0025257611475361,0.0103272843959641,-0.0026126827110644,0.0058002237938082,0.0057119700278074,-0.0062192035092484,1013.2442299026892
1.5819774718398,1.0060375035400604,-0.0130503468319681,0.0131899012656538,0.0159063683941088,0.0023541324362539,-0.0059791329680256,0.0162937560436557,-0.0062491470109048,-0.0161047671219495,0.0048227759971101,-0.0133184386639319,-0.0202207831805592,-0.0041807202047552,1013.258603071292
1.5919899874843555,0.9908688675221798,-0.0023416795198588,-0.0034611347171331,0.0037785143200936,0.0031920160047588,-0.0102965902968736,-0.0062910215708002,-0.0044242381141607,0.0128618921140001,0.0021366762204552,0.0036241628422184,-0.0047940243685008,0.0075028052020843,1013.236693411428
1.6020025031289111,1.000258249625428,0.0069339664571762,0.002303439736292,-0.0100663176553817,0.0229295231844614,-0.008514965306114,-0.0051135412825211,0.0007945204836685,0.0079466655652332,-0.0183433069236282,0.0090138144934456,-0.013345189525462,-0.0201508583020108,1013.237296315572
1.612015018773467,0.9805788543362072,-0.0005779813410849,9.234840631619388e-05,0.0108340690514782,-0.007526180058437,-0.0059289852295376,-0.0065167808734517,0.0015883767824996,0.0055630618840437,-0.0141335989573755,-0.0073934812257507,0.010202736806336,-0.0038396656306646,1013.2394917012322
1.6220275344180226,1.0017951315059543,-0.0091028228527003,-0.0093141698698936,0.0032569250968766,-0.0005474532493274,-0.0156138264266118,3.606726791106038e-05,0.0049753442405632,0.013862084820747,-0.0069707102275738,-0.0038278557914844,-0.0084736431286498,0.0009676288180187,1013.2277164073404
1.6320400500625782,0.9993730620573,-0.0027065507074982,-0.0055144662174057,0.0008195277528343,0.0119730154843521,-0.0029228185913544,0.0022979634732184,0.0063692190913412,-0.0148518817484308,0.0009609001305264,0.0112579598134428,0.0020460924923685,-0.0295623962120667,1013.2550673153954
1.642052565707134,0.998512317815212,0.0008681140727581,-0.0001347306906108,-0.0017453172306964,-0.0032456241041633,-0.0044776263855976,0.0021859410287304,0.0080746506114518,-0.0117362563403129,-0.006142097894719,0.0126162876135438,0.0210547365823748,0.0319101032644532,1013.2478573622928
1.6520650813516895,1.006606712099831,-0.0024408263827224,0.0047813806198235,-0.0249255354213597,-0.005658554052884,0.0028934556457456,0.01442506531413,-0.0077908501310277,0.0125523230477556,-0.0031732885772098,0.0084738200683168,-0.015214097671791,-0.0120252001308923,1013.2618471708522
1.6620775969962454,1.007957546887375,-0.0157424169711428,-0.0109231089039464,-0.0088346660514643,-0.0044588257164929,0.0068736013372117,0.0022729055051059,0.0135862740894933,0.0001860991802923,-0.0044440397323505,0.0112432564693724,0.0160573565331113,-0.0043362841764598,1013.2662634642518
1.672090112640801,1.0002790187894892,-0.0051160332189851,-0.001804418991589,-0.0076342559524157,-0.0175436362560829,0.0096138881862847,0.0075437209430376,-0.0032300290038113,-0.0115367537529177,-0.0047381400564149,0.0016350883087582,-0.006911253885271,-0.0150532197792792,1013.2506560489164
1.6821026282853568,0.992650043535252,-0.0069406965463037,0.0041026158174281,-0.0059719688552206,-0.0225159491630013,0.0019820905319437,-0.0007940233319873,-0.011541066842989,-0.0008123747663255,-0.0001141242967299,0.0131307822785188,-0.0039489313620582,-0.0066064243737715,1013.2545106558875
1.6921151439299125,0.9981849643799088,0.0104845804300154,-0.0134503011440355,0.0038048402216772,0.010455565316153,-0.0040150524885013,-0.0172475734238737,0.0173124712669418,0.0135876279760913,0.0081822764146995,-0.003644579807337,0.0003329455818915,-0.0006494940697312,1013.2512925276848
1.702127659574468,0.9898851229336773,0.0143513461046056,-0.0106827539100828,-0.0016749128192877,0.0075817898367111,-0.0015414007024678,-0.0068936691881625,-0.0088802785963846,0.0001703270933934,-0.000890233462522,-0.0088176497600379,0.0074330992124337,-0.0070335714994455,1013.2456331276906
1.7121401752190235,1.0018749337683532,0.0080393372715027,0.0201184565786238,-0.0014202231297888,0.0079515665421777,-0.0165543880160197,0.0108679535592967,-0.0042385667447324,0.0030715322851914,0.0054343552344045,7.360820969562313e-05,-0.0042924504709755,0.0097250070646711,1013.2457462372852
1.7221526908635796,0.9695411985254072,0.009753020893377,-0.0059168832453551,-0.0063595454757268,0.0063789641605041,0.0112913888692898,-0.0009870467515963,-0.0103054242496488,-0.0306946309511997,0.0169531446020992,-0.006064599796852,-0.0042217405043618,-0.0060085158369663,1013.239436178904
1.7321652065081352,1.005222252425942,-0.0144951124671923,-0.0057168852932153,-0.003442638716593,0.0013437284087919,0.0046982989602101,0.005038873000628,0.0116323133530765,0.0180438733910693,-0.0067595150174681,-0.0060519320010164,0.0090424633153402,-0.008996312077969,1013.2504550010632
1.7421777221526908,1.0126842176030286,0.0126853483141287,0.0002412486716145,-0.0128544900986716,0.0074454891401105,0.0011422378235466,0.0038808790822897,0.0036008278587887,-0.0060834730135016,-0.0063323283739826,-0.0119150197101282,0.0118460100625694,-0.007292842504518,1013.2381750906198
1.7521902377972467,1.005389796173619,0.004639784164435,0.0138574188920101,0.0200896389680416,0.0160426963564047,-0.0047270152177379,-0.0064346153878116,0.0132084057837808,0.0121844432773961,0.0110410639422469,0.0105006605352155,-0.0160247304612903,-0.0142055302135702,1013.2426483507492
1.7622027534418023,0.9889696142503094,0.0058059011103148,0.0129955179970561,-0.002653887860245,-0.0020257931141237,0.006458734562193,0.0198587825937502,-0.0121691164558091,0.0040603783362952,0.0141333714002576,0.0126742867603194,-0.0077137210960636,-0.0055461377774376,1013.262951006588
1.772215269086358,1.0104140870153184,0.0031025443113314,0.0067708041506684,-0.0022632185393722,0.0043753237781683,0.0013457707582765,0.0002927167492792,0.0035022041107881,0.0114002068012666,0.008049473678034,0.0070685557659765,0.0267636424659888,0.0073413930399446,1013.246351622419
1.7822277847309136,0.977989338585072,-0.0030897491340946,0.0021530897498765,0.0024070056036374,0.0110705149743685,-0.0040171563424226,-0.0152028224052015,-0.0135325369878743,0.0177214771455405,-0.011004113327524,0.0239049364325898,0.0018768016485108,-0.0007550110816234,1013.2401761754214
1.7922403003754694,1.000244717878344,-0.0165029630115791,-0.0130439406234268,0.0005862104105,0.0083339001087149,-0.0098607771878712,-0.0098200228021081,0.0021236975198363,0.0100576848613581,-0.0057634605636774,0.0115322207127847,0.0032742015536574,0.0092075731653306,1013.2333054891576
1.802252816020025,0.9968508499945372,-0.0223806427716817,0.0147666595997402,0.0053226085303033,0.0091170172335388,0.0106868200546402,-0.0016955068672565,0.003785558240466,0.0012161422045449,0.0063050182859542,-0.0065302574742387,0.0014085630196574,-0.0147865427776293,1013.2362061354216
1.8122653316645807,1.0104600003803643,-0.0133156624462748,0.0185648196056846,0.0102944392731987,0.0054857015719824,0.0084705680559295,0.0208395359146819,-0.0079579486204896,0.0049317505679074,-0.0140375621037234,0.012460272232787,0.0009102382432606,-0.0192354428251451,1013.2508217074914
1.8222778473091368,0.9948170049188636,0.0015570942447868,0.0050948230558466,-0.0041589115809502,-0.012068485501905,-0.0015438603108996,0.0142448032874876,0.0044314115404214,0.0072300576536548,0.0032402144823153,0.0019617763974799,0.0155819852757728,-0.0090837433949174,1013.2476371800544
1.832290362953692,1.0132776552128544,0.0009362498798734,0.0107197313933709,-0.0051139668626171,0.0040011108783945,0.0084919497802333,-0.0079799822740131,0.0065321349268016,0.0148818528361619,-0.0033515961971199,0.0116898617302974,0.0004241866394997,0.0034847529860435,1013.2449384350076
1.842302878598248,1.007266240257204,-0.0033096306936408,0.0089692300536103,-0.0103371921889902,0.0004030474358613,-0.0094678474029035,-0.016997916885129,-0.0047599885527906,-0.002795870935418,-0.0116446508635253,0.0016383328611788,-0.0146662825022439,-0.0096069457514011,1013.2412356337812
1.8523153942428037,0.999883784375911,0.0090945442744393,-0.0062764245094108,-0.0140690377338674,0.0044534467147069,0.0228034845402881,-0.0109881591897494,0.0048269117688791,-0.0190106528226595,0.0061119117734225,-0.0121097054645392,-0.0064062672885078,-0.0114476274815555,1013.239690810437
1.8623279098873595,0.990527946388048,0.0028667333517952,-0.0030724977145916,0.0023422310178347,0.0083423653280219,0.0042817879841767,-3.92741214173877e-05,-0.0061622746225563,-0.0122975350792645,0.0030789217750403,0.0074328804459947,0.0051861779861415,0.013348428213699,1013.2473065764352
1.872340425531915,0.9980201814027698,-0.0105943401680101,-0.0127302138201948,-0.0002309500106859,0.0152300143149966,0.0135419593751301,-0.0097262879980981,0.0089030648784299,0.0068335940989462,-0.0158910674045223,0.0003808203686684,0.0103481735569294,-0.0057760273195525,1013.2475082654752
1.8823529411764703,0.9856542957080936,-0.0025260220064447,-0.0067109610428925,0.0066779297682957,0.0017016487572989,0.0048603127726102,-0.0174551394724497,0.0003675632873974,0.0043959722392877,-0.0150467158551742,0.0082164262692146,-0.0064755775169881,0.0153571815308611,1013.2633112334028
1.8923654568210264,1.0033856264991636,-0.0125863177390701,0.0121234718584861,-0.0079333709500039,-0.0029987246914229,-0.0218152329410153,-0.0181257332345942,0.0127986589013783,-0.0078424078379875,0.0148402434224217,-0.0162304942479384,0.0048499738525544,0.0042726203119408,1013.2432123620036
1.902377972465582,0.994959114715724,-0.0042589637790789,0.0085862406525828,-0.0029652309211079,-0.0101614636340149,-0.0008566131455417,-0.0179025628558393,0.0086074813391054,-0.0020905834416545,0.0071506162040804,-0.0145145264137155,0.0038188628477961,0.0050129448604311,1013.264248458752
1.9123904881101377,0.9843756035917351,0.0068618620959603,-0.0031783813080719,0.0064874949972801,0.0010047174408747,-0.0023415667377466,-0.0152181382234144,-0.0014966432687617,0.0122748307232243,0.0055869850288763,-0.0099787676615668,0.0018449068991883,-0.0206592203432295,1013.2591119984208
1.9224030037546933,1.0195330884823162,-0.0079165074516871,-0.0104619692575331,0.0126485331624578,-0.0112232549533001,0.0077431285533333,-0.0047725655655656,0.0152385036108871,-0.0006303924079963,0.009068750126518,0.0025006080322444,-0.0142913235591718,0.003914308573399,1013.2538724915628
1.9324155193992487,0.9775633093548832,0.0206048909240087,-0.0098924983434032,-0.0088253803821421,0.0018011291187102,-0.005610381569313,-0.0201901871511175,0.0099362862292331,0.0001393124324598,-0.0067278143584361,-0.0135443320984574,-0.0067945499793712,-0.0082131791250994,1013.2445029207212
1.9424280350438048,0.9994629718831896,0.014098019687917,0.015460851053528,0.0075375041208925,-0.0030586005494423,0.0057892460287488,0.0071664675376895,0.005938451913142,0.0019310594512638,-0.0133723754172175,0.0115244909696653,0.0077765681704667,-0.0122291753547439,1013.2538294217904
1.9524405506883604,1.0046103383090728,0.0068353800877058,0.0018538271206776,-0.0042747348997447,0.0055246945107266,0.010107577422144,-0.0020374719435119,0.0037355686163832,0.0001857134383665,-0.002702817256247,-0.0042475352126551,-0.0007995274103135,0.0039896402911525,1013.2547579418654
1.9624530663329165,0.9835255153956882,0.0130833360493786,0.0031741367542535,-0.0074437413608846,0.0020326591059781,0.0157521177574105,0.0007243672838338,0.0099241730165745,-0.0141132523125853,-0.0187374802774609,-0.0069701535876104,-0.0092989479356036,-0.0012036078377172,1013.2666278954324
1.972465581977472,0.9964331337205704,-0.0184522575646682,-0.0058054516967057,0.0149946758317425,-0.0143502185658825,0.0089712935835728,-0.0004961913862675,0.0070589632271636,-0.0049530084110802,-0.0045113294953095,-0.0098164406223006,0.0191243131060263,0.0089190098365879,1013.2384024622304
1.9824780976220275,0.9939261974163176,-0.0020018872683166,-0.0135038866615411,-0.0175955010119521,-0.0149909098198374,-0.0114363742047389,-0.0005853214563658,-0.0139967689739625,0.0036110801180329,0.005081510008013,0.006577383630131,0.0213628547286323,0.0045033636774219,1013.277194148764
1.9924906132665836,1.0054640906582608,0.0008456491359405,-0.0074262614470244,-0.0034110203222734,0.004011846194463,0.0139634012139305,0.0025587314826885,0.0003400008537449,-0.0181893454269452,0.0110175240215097,-0.0148093014496516,0.0023382069093073,0.0029527419809569,1013.243203764956
2.002503128911139,1.0109979677241827,0.002985442914988,-0.0127147482739235,0.0035695629387325,0.0039559884582058,0.0112472468492072,-0.0092985628250615,0.0086917614871166,-0.0002601890449755,0.011936196358228,0.0090761629525195,0.005875545425723,0.0133475923927922,1013.2329087669884
2.012515644555694,1.0069585351465888,-0.0044915031670997,0.0073443256249357,0.0202755252372344,0.0074974691282138,-0.0017458309821679,-0.0118448176607962,-0.0034334856488171,-0.0181207298038679,0.0072338880417254,0.0037888547241064,0.0071316272036012,0.0034403156432804,1013.2461238119982
2.0225281602002503,1.0145132533611418,-0.0137122040015882,-0.0084160811536776,-0.0112162951955544,-0.0028008921380053,0.0064736173623827,-0.0014979270412379,0.0001613450911727,-0.0014009460946257,0.0155564147802999,-0.0126570564671276,-2.9095145305811866e-05,-0.002898845618557,1013.2440606354292
2.032540675844806,0.9946022525337824,0.0063547087876797,-0.0102571989857748,0.0159420493702284,-0.0038575899585946,0.0112013797897607,-0.0146370330436114,0.0008530866164548,-0.0009306323996795,-0.0182798165498106,0.0063446838471602,0.0035702314696061,-0.0144978304600579,1013.249552309638
2.042553191489361,0.9994254109643133,0.0156792241026662,-0.0139586043628409,0.0107258824815019,-0.0068774896940239,0.0108835187109504,0.0027708292463919,-0.010495960658278,0.014973494967514,-0.0123499299867781,0.0144361487121664,0.004103885776629,0.0029058794517147,1013.2370220844628
2.0525657071339176,1.008219974867169,0.0181688807150001,0.0062569176727952,0.0083491151881299,-0.0116719749998618,-0.0023098033894774,-0.0009821105816024,0.0077043522615767,-0.0068268745740316,-0.010977923931918,-0.0119894140841272,-0.0153134085902228,0.004175927656133,1013.2489037938748
