Timestamp,Acc x (m/s^2),Acc y (m/s^2),Acc z (m/s^2),Gyro x (rad/s),Gyro y (rad/s),Gyro z (rad/s),Beccheggio/Pitch (rad/s),Rollio/Roll (rad/s),Imbardata/Yaw (rad/s),Mag x (microTesla),Mag y (microTesla),Mag z (microTesla),Altitudine (m),Pressione (milliBar)
0.0,2.221826241667648,0.0292736442288588,-0.072881808678583,-0.6909246722388773,0.109591576845101,-0.5952468040668356,-0.0578922674956427,0.6814780842244027,-0.4473400653415638,-0.8782574662491778,-0.060674468446692,0.279150619838759,-0.1250465172026958,1013.7234241672346
0.0100125156445556,0.4997365201906614,-0.7129784767368254,-1.1419085401547413,0.3829668089565213,-0.5636851190085609,0.0231670359206659,0.2004700758988508,0.5656079967478228,0.6973887403860373,0.4724049875985179,-0.3690015435171025,0.4349854879532448,-0.287391438596481,1013.4184329314868
0.0200250312891113,0.8323327563056371,-0.3207021204960043,0.7345025894989585,-0.3803971656566843,0.2554544239393831,-0.7502106227932187,0.3291666797351082,-0.5248423928756418,0.4857642198034151,-0.2776878915856669,-0.2533486435955255,-0.0233760728970479,-0.1544286937945657,1013.385011580853
0.030037546933667,-0.1023941367854242,-0.173216348599554,-0.7500042325847204,-0.4296620976383021,-0.6177869025439905,0.936970040836702,-0.2972521053950419,-0.1620936963921255,-0.5147548766064185,-0.5224220849837841,0.9207378883127804,0.769844420771114,-0.0451138462110011,1013.2169481697612
0.0400500625782227,1.039385851354,0.1646930451595856,-0.5410763385138881,0.1022465113274769,-0.0206354011925089,0.889837981234427,-0.0651683524537222,0.1254394500836595,-0.3013129429183226,0.5069923067546547,-0.0257249334205944,0.3122310578291993,0.1754515041163474,1014.3346516708848
0.0500625782227784,1.407859220420974,0.321990740542357,1.5601053112627394,-0.065419673276992,1.023769577853891,0.2716764213358496,0.0080494544820824,-0.3822730706481389,-0.2243316168261999,0.5639738937313278,-0.2038122321901019,-0.0210689324834315,-0.1446652104703946,1013.3551131325708
0.0600750938673341,1.0745632199073487,0.4960586625962879,-0.6955818667406051,0.0733324315646133,0.1543839209743315,0.2976964942541066,0.1836836533914379,0.5600475026512032,-0.8017358113746847,-0.2789827275069113,-0.0943393135784245,0.6387964644998501,0.0195364556742272,1012.336822347984
0.0700876095118898,1.398800134518473,0.3414943173331055,-0.3026079059113801,-0.252471685380002,-0.1864122884752774,0.3225521317779631,0.6555285728248721,0.7167994889747795,-0.2670229830115282,0.0784247412603953,-0.3344169847850595,0.0286190254434786,0.4633646899871174,1013.4690779121654
0.0801001251564455,0.2997874038055322,-0.3658393075468516,0.7092488912955253,0.0612088187108009,0.394875082982192,0.3834241557571688,0.1338139565090398,0.4758936706619288,0.2591851422617367,-0.3281702574401038,0.5788511290907937,0.1909928494668802,-0.2536245460738343,1012.4304236749348
0.0901126408010012,0.5443559006507764,0.6963341638903408,0.2495267824147513,-0.1606184842129489,-0.0523431639013054,0.3183515903849581,0.4437441862722884,0.4264367947143609,-0.3541815739518702,0.4233458379916667,0.6064288766677072,0.3089157515403045,-1.0117250870850902,1013.1212255307814
0.1001251564455569,1.163463483828331,0.3685722335545417,-0.2086974447940701,-0.2570437011728414,0.0776736227024413,-0.4143392295332943,-0.0769669590904553,-0.4431966463509786,-0.1452667935854823,0.1225702091201154,0.5713703315820131,0.2827641114772694,-0.0400616854704646,1012.9546816400148
0.1101376720901126,0.6904806170766717,-0.5071343992033017,-0.2184108178832046,0.1403938963333051,0.2843928878377732,0.0040674012794948,0.5382438248071648,-0.036694636117031,-0.250998219805924,-0.1572798883300767,-0.4328074925920943,0.2507832700927908,-0.3064105876004789,1012.8982085947076
0.1201501877346683,1.2969976351032155,0.100468657700077,-0.0407265458842267,-0.4130529563470794,-0.4172393924926146,0.2815689802682949,0.1340835714220128,0.1286308900256175,-0.6676478716330592,0.0069772207371143,0.0036288656290148,0.4235328486871184,0.0003535842709745,1013.3209598437616
0.130162703379224,0.9882838322427574,0.2835155727497728,-0.6066459587122998,0.1007990947240002,-0.0513306275962671,0.648549411195,-0.2873323044978894,0.2771181373435903,-1.1563769725092743,0.4310723070596499,0.3571513454250798,0.2000153642988895,-0.2949785033014717,1012.8959950334172
0.1401752190237797,0.8733770389288211,-0.3236755165713438,-1.31107477976313,1.4332326021966983,-0.0114632643956024,-0.0917202979637988,0.2972990057716294,0.0745768595374283,-0.3838913786110696,-0.1944930981416185,0.5511850979049346,-0.5467078732472371,-0.2976866054413669,1014.1485588021612
0.1501877346683354,1.133050439690937,-0.1681708071540148,1.7863149384067258,-0.3629307869671587,-0.1717418488731987,0.8732515614023676,-0.1847534493028655,-0.5022635949446139,-0.6221901771195654,0.0808940126734306,0.5045332511989697,-0.0013840178957016,-0.3034687169700014,1013.2581981944572
0.1602002503128911,1.0823168112992072,0.3335739311419483,-0.1631888542059466,-0.3554677747449825,-0.9552661126460218,0.1583114400018632,0.9592712869319256,0.6217440378812474,-0.023239126377506,0.0637360600765276,-0.2270597485321505,-0.5500554555257349,-0.0778457933263831,1012.8739717325864
0.1702127659574468,1.8643165491705256,-0.5164969697421251,-0.0052048032439509,0.3100272365662445,-0.4936790184180618,-0.4861805302913288,0.1809694504138124,-0.0536942363184701,0.4824680280254066,-0.7227567298824116,0.271582387671628,-0.0723154167231337,0.8781358600457102,1012.8384481299375
0.1802252816020025,1.0599245301730496,0.106180785573682,-0.1736908040233291,-0.4181117336776265,-0.1026035221602402,-1.221169967403472,0.4586836412560079,-0.2667475350455384,-0.2044075085363536,-0.6570746174757179,0.984082159664212,0.1271023136635617,-0.6723721883537672,1013.5548756497408
0.1902377972465582,0.5645273784185048,0.1816069150745076,0.7304867871890554,0.58171866671189,-0.3799609223908637,0.229959421763422,-0.2606924391492617,-0.5795157622602578,-0.3978909555767961,0.2546196506226976,-0.7613466755848877,-0.2207594663855226,-0.8580923834437605,1013.6882661987004
0.2002503128911139,0.7188188457815896,0.3201897983751822,-0.2758634225742923,0.1794388055849583,-0.2098502909481516,0.2820351026523981,0.6748038557699346,0.3460843660381347,0.2686868926300272,0.096569012235874,-0.0750717632452182,0.342870999364568,-0.8131337154534459,1012.891837231124
0.2102628285356696,0.9707651454375976,0.7109325506552292,0.3970070045804718,0.1531805560674535,-0.7353681608875251,0.5932619289559086,1.1916735161904706,0.4587036434450696,-0.5213241122878254,0.2835736053729467,0.1707863358485654,0.1444082972734084,0.2280270760065556,1014.1657830988544
0.2202753441802253,1.15203314703612,0.3722942756086574,-0.3718235235780308,-0.0422714151639161,1.0772271693942768,-0.7026114589656162,0.0953010920309155,-0.5108114197576651,-0.669602181257891,-0.2518852028880691,-0.4994019619003981,0.3824500104729506,-0.0528833525072195,1013.3898014828992
0.2302878598247809,0.5417504794573222,-0.6328071244235117,0.1432388363491632,-0.0061008670171647,0.8127496284806696,0.4253028489951003,1.1452436413067928,0.4123113607288276,-0.2317821811965627,-0.2785805410015984,0.1373975069672098,0.2502731116946212,-0.0298737879618699,1012.3890176873524
0.2403003754693367,0.2141486337888328,0.2196181232718596,0.0877741117078561,1.0743888341727124,-0.085755930432093,0.385065251598934,0.605197197396321,0.8931322226350434,0.7734012782944164,0.7331452035826864,0.899163551545847,-0.0561634043981706,0.0079127660289008,1012.821134885244
0.2503128911138924,1.1583180085766576,0.5797149990883922,0.0186970562985816,0.9790312478196864,-0.0961165737830963,0.1995153342047994,-0.1880770380027139,0.0875127043766302,-0.0801550408781969,-0.0595311514609293,0.1347392665848653,0.0612935964056921,-0.1330728979101614,1013.2401642960752
0.260325406758448,1.2833954831585292,1.3486185047967203,-0.1280249053782373,-0.3951597874404965,0.3000395635037767,-0.3263855132758257,-0.4879923569244493,0.603122117036134,-0.0453547578669218,-0.0304357299315456,-0.0267869560404479,0.0957535438094111,-0.0200031148529324,1012.3964292362268
0.2703379224030037,1.8865712387251456,1.398397236034146,0.2198458979264155,0.0568782670196278,-0.3897181502095583,0.0844988883836958,-0.7596415901055639,-0.9249120189834096,-0.4813849160637328,-0.5630932612200957,0.3502446676919682,0.5218750655570626,-0.7280587886149735,1013.2308910529316
0.2803504380475594,1.668588724003962,0.1591555105352499,-0.1278687788109911,-0.1386156980019922,0.3520991786036762,-0.1052237589198248,-0.1219717363084978,0.9316431781009096,-0.6622320947421633,-0.2565327393308867,0.2056739804048094,1.427754497189294,0.5715822425609338,1013.3941907002924
0.2903629536921152,1.0432661975807929,-0.3548505525441226,0.0790889501331884,0.1040630525876721,-0.3094354020046243,0.2150788416559712,0.294847640760204,-0.5130185210221296,0.4260593455566156,-0.1276377503096681,-3.562425146558664e-05,0.3006606771709305,0.4574286512853424,1012.8766436237584
0.3003754693366708,1.6727569876551855,-0.2960880432396361,-0.554463009271251,0.8400220323127836,-0.0924731308184343,0.3651405061163423,-0.0632974878041539,0.0109629003815305,-0.1831720612905681,-0.3960814065080581,0.1205272427854247,0.0492676832059302,0.3708042769046701,1013.4366808713048
0.3103879849812265,1.1828229428257968,0.184213960671125,-0.4219047585456264,-0.9567046579414556,-0.3016608858829271,0.1251949333956198,0.8377164676327853,0.0326295156070194,-0.2315232736881784,-0.689210314333393,0.4165668956101501,-0.3077468098579473,0.8096893947907219,1013.3159479569426
0.3204005006257822,1.860662192040217,-0.0919455933551256,0.1913477048985587,0.0541679692726805,0.3664051501654143,-0.1819129777142275,-0.2088223786863112,-0.2731024456867694,0.0177357394807442,-0.1257487376834007,1.3996718362985725,0.5149054892771676,-0.073387378838732,1013.808259151654
0.3304130162703379,1.1087047596590054,0.2204084644906251,0.0841717728054805,0.0085301909252036,0.5023503996663304,-0.7018562555969946,-0.9363459120715732,0.2562415317198005,0.5514638084381098,0.0389931789607673,-0.8256376772164918,0.4461811255970733,0.0951446158872127,1013.3122711977584
0.3404255319148936,0.2532323585813067,0.5527536783798432,0.7581155962822643,0.040826175932041,0.3321783629877348,0.9940100196169538,-0.3798787271385066,0.7966617159571082,-0.3194833761065675,0.1492678415575904,-0.5686061796794338,-0.7567379745106712,0.6268758113307438,1014.2147044957652
0.3504380475594493,1.424369538299564,0.1566713933390791,-0.2939700329269189,-0.231769582630602,-0.2645361535124211,-0.3268492735265141,0.2017185652869725,-0.3743952483860243,-0.5693127966569925,-0.20441267152483,0.0781074262892363,0.4139076851013368,0.1199045488934159,1013.4755709291068
0.360450563204005,1.4129159066363692,0.379817223088339,-0.1666932080674945,0.4499200640561855,-0.0570045321997578,0.4652819140749524,0.3359199907883755,0.0748471288435107,0.4088662394922702,0.2765786243131706,-0.1186287269381324,0.023853606294233,-0.5896618553166897,1012.933226287132
0.3704630788485607,0.3762194938641348,0.1429558430693034,0.1557458428484556,0.3325107844755316,0.2893086277211644,0.099542502250658,0.0888757815429101,-0.3903175362621266,-0.0394138623255297,-0.1127567870537834,-0.0016433815845346,0.1230666195421665,0.4593066154718709,1013.407626849532
0.3804755944931164,1.5472895611092872,-0.4911182847644448,0.5099098810961368,0.1866034492848995,-0.5694095817725489,-0.4104066510659687,0.227634069437408,0.1961963826621984,-0.0954512215385575,0.2814792671853793,0.5399764477580693,0.2355237876669608,0.1000200109178191,1013.6416277642618
0.3904881101376721,0.7262497088869602,-0.4977919989434494,0.8249971636309334,1.408447091778334,-0.0753346026991983,-0.5253443558585156,0.6063814313624178,-0.2111383065182028,-0.5392344247382828,-0.2111485763038341,0.2813458238124648,-0.1769890695314962,-0.5554790079902464,1012.7676190807834
0.4005006257822278,0.8961005227628572,0.0775476646977958,1.0156350089779569,-0.2201984733810925,0.0945253343798684,-0.1775811361849619,-0.5371402180758638,-0.4984298041625589,0.5746491554321124,0.3755800724516813,-0.3909273123721092,-0.0387659732487743,-0.4048184755742566,1013.680086527352
0.4105131414267834,1.496516690006968,0.6672768123229784,-0.1375799312822034,0.2590406581578259,0.0878091256656525,-0.7828837403516911,0.4363324613278659,-0.2375292655788971,0.1488619703287403,0.1311830453007692,0.5350801277153061,-0.0192351428292839,-0.0422156090343008,1013.1900951582722
0.4205256570713392,1.2462862645062422,-0.110717060342372,-0.0101488226676319,-0.8523015187882272,-0.022139154774958,0.1985433949800111,-0.3226375007309124,-0.0560481048104925,0.0342233198305008,0.538043165622744,0.9294647651692276,0.5161999335661303,-0.0491568375418283,1013.3701973577088
0.4305381727158949,0.3843238534630294,-0.8059578668750352,0.5113630148096785,-0.2639654538598039,-0.1236330990786712,-0.1703787423123645,0.5553776407189472,0.645743384285919,0.9010704895860872,0.0084356129639643,-0.542380067310533,0.1347592215271779,0.674178194827397,1012.8189444453036
0.4405506883604506,0.9543271379609582,0.0794255664051232,0.1921246820485724,0.1455321443172253,-0.3049099409721264,0.6013760330298926,-0.1674823627122627,0.2398372387084559,0.5731189247687126,0.0986126396217324,-0.3058954439394281,0.2093110318454858,-0.5002072306219879,1013.0543646419172
0.4505632040050062,1.727669180199613,-0.7607233244439365,-0.0829568983302845,0.2764709018255704,0.4518849894879377,0.9291261824238596,0.5401599082222635,-0.2150235931714337,-0.5553910048898523,-0.1383030353727717,-0.0613317368676025,0.3777501318033119,-0.3711437785154989,1012.9887871839898
0.4605757196495619,1.0753933438776513,0.7940780678364093,-0.4433284191861035,0.4727339430796913,0.5423627909095036,-0.0890194157759705,0.1890270707201944,0.6216225093952681,-0.7689558936455337,0.1288549950959432,0.219247390634873,-0.0039036664801132,-0.0057980709852314,1013.6640898748238
0.4705882352941176,1.2343588132954006,2.1209174523691683,-0.2889727828632922,0.496384614027929,-0.5320766753505991,-0.1345332365264229,0.1723372644474732,-0.1681428904410202,0.2796727140967869,-0.0115396911841196,0.0787860288899866,-0.316045246011658,-0.4774767913244275,1013.3424002874624
0.4806007509386734,0.8219231791557152,-0.1475233986648058,0.5298541901935186,-0.8009549255925686,0.5325679687448052,-1.0735359003572835,0.876884831084529,0.5268902489333325,0.4949620554895179,-1.0336410768909785,-0.1598634178905157,0.587365215998149,-0.6991848948169925,1012.1807551303176
0.490613266583229,0.7672581468869791,0.2462845611301975,0.2863811627248155,0.0955113213233568,0.7395828403488898,0.1245172136636835,-0.7444585838737406,-0.3903188107002353,-0.7456888757698988,0.0070174732516778,0.0063013743414182,-0.3878921133675013,-0.8992983255365204,1013.0274084092678
0.5006257822277848,0.3103993770722794,-0.1521595662325812,0.4165550026429881,-0.3490098730270324,1.0736115848776242,-0.9383340953535696,-0.9074349899483604,-0.0481342322313438,0.1678472487022146,-0.1515103146596164,-0.0439605859060434,1.058533956268659,-0.2059361289333686,1013.2065813794592
0.5106382978723404,1.8945822275038209,0.4129530838762452,-0.6757777545640263,-0.5167077983132234,-0.5431018366798962,-0.0719106953262144,0.919373563482145,1.1137449059370468,-0.2929740152823779,-0.111767523933256,-0.2117752021621578,0.5704554145074582,0.8116888580965086,1013.8680291603804
0.5206508135168961,0.0066604728684813,-0.1706941220273539,-1.3777554808534649,-0.8443369634934327,0.8175206568668055,-0.2527781283395462,0.258356636507863,0.9705379504033128,0.6705115280743605,-1.2069197817763366,0.6095564573191129,0.516544989938902,0.3533669318973895,1012.880992158524
0.5306633291614519,0.7431026116355928,0.3941887078233704,0.7493468709655381,-0.350133693405512,0.63213670143085,0.0552186533712903,0.552935541568415,-0.2966368715739935,0.0605468903494909,-0.6791614161756758,0.0833041201647154,0.3706864914083848,0.1320715602124398,1013.6724802357428
0.5406758448060075,-0.0550897033333606,0.8836468447902742,0.2374246518899096,-0.3992439490512275,-0.0778654264183479,0.8186174970366978,0.4388839026092803,0.0076007206471975,0.3859370483741344,-0.4705500709111443,0.4171361808129089,-0.0200263772362936,-0.6587992762500883,1013.6811354075708
0.5506883604505632,1.638132734423487,0.3376628773336793,-0.3989316762710356,-0.6580886129846076,-0.3244691598698266,0.4608714919079403,0.327806845131347,1.038309086352321,0.7042189892206782,-0.3901241208511719,-0.0020380014561505,-0.2744931476328341,-0.2546081024413212,1013.7023819071936
0.5607008760951189,0.3484265525521054,0.9566590160390328,-0.2009585196947569,-0.3887787240082515,-0.2194134133157942,0.0422596123968854,0.3554763757123372,0.0207266539934578,-0.5482642982037479,-0.7917926847373025,-0.9159000036580752,0.1046043898714963,-0.3397269564224075,1013.4490331858568
0.5707133917396746,1.1847520528286806,0.5785805412377686,-0.8097620955107129,-0.8194318922797733,0.2830209163143719,0.0641939073770595,-0.7700065965209542,-0.5672720833005506,-0.6121193842942103,0.7929926571429237,-0.0776039855670734,-1.0603772741701605,0.5549121807695675,1013.8521731420632
0.5807259073842304,1.0231748737354671,-0.2444838984531959,-1.4567264077713713,-0.8068669583452193,-0.3910709166268904,-0.0991852822115638,-0.3347570217237273,0.2136365518763486,0.0341015222294316,-0.451023508556141,-0.6817595286323653,-0.0764290247171231,-0.2966010872732667,1012.8213660401268
0.590738423028786,0.1013944901964912,-0.1595635237831661,0.3777009778760554,-1.188806710344775,0.0248944667468129,0.4646421714622136,0.9632835555912976,-0.406053052654435,0.1439274891018043,-0.0137079095293526,0.1189302884357943,-0.9002174746272584,0.0540026621622639,1013.521924432024
0.6007509386733417,1.1818096097442587,0.5910727904375931,0.2077069151540595,-1.115637148882259,-0.9869568452402588,-0.6041887616268755,0.109518585298521,0.4542281878216803,-0.6668062634771438,0.2349880382082579,0.3804535904073419,0.4722221734989169,-0.0418960324352121,1012.9372006173847
0.6107634543178974,1.118514554810527,1.1125761708141872,0.3738299148326561,-0.2660595508197744,0.2375857799549648,0.2299464378119924,0.2119670682259414,-0.3729097336155422,-0.0861661572985765,-0.9063876242870216,-0.1998087524239924,-0.2429842966888659,0.1519611314451089,1013.3533972790168
0.6207759699624531,0.5605904553308677,-0.5348757987248571,0.2025112823312894,-1.108726676583347,-0.1860760067584341,-1.0630762803384477,-0.7880036277105867,-0.4904419494292779,0.2084110418569247,0.413241296482768,0.5678901850251646,0.3339460117951382,-0.0831347069143624,1013.183448210206
0.6307884856070087,1.3609969321102957,0.3704124586739429,0.4193514413414527,0.7327042222880552,-0.8588786734839007,-0.5194933166271106,0.2985197939346327,-1.0661103301418886,0.4015191966929539,0.0229543306197776,0.5305133806714881,0.9301391052087952,0.2063264217647466,1012.8237355851072
0.6408010012515645,0.996006915795408,-0.6731042637591321,-0.7732058621449708,1.020700546248261,-0.1162929314506022,-0.4381796141485359,-0.2886319310674734,0.1403537093289396,-0.0882645634567326,0.96692789677104,-0.5723456872518057,0.5216738775952252,-0.2487947703591596,1013.31593279014
0.6508135168961202,0.7932822928162695,0.0803161769291183,0.047590675005772,0.127196959859794,-0.0367875098708663,0.215949794233165,-0.9839472484572648,0.7447788037343334,-0.3172759152846937,-0.07529260123228,0.3970165432213259,1.1936846683023818,-0.545550706564783,1013.1491565176858
0.6608260325406758,0.6236775048967467,-0.4053569126946043,-0.1636843234686591,-0.7096980553944232,-0.5046986833897922,0.4368678869399585,0.7243418809422772,0.3805821883421675,-0.1759669646780874,-0.2215122547715602,-1.104116316344985,0.2481194819647136,-0.4718380069558853,1013.697821953299
0.6708385481852316,0.3929343681384231,0.2112113529202776,0.3405901866266634,0.1065636835309345,-0.14732596786255,0.1939797814305577,-0.6466917267124962,-0.5612737291966929,0.2854307032754374,-0.5395590261029992,0.3404722072301236,0.4408830619721031,-0.0765058183045575,1013.7878178954816
0.6808510638297872,0.3963874681520009,-0.6178601655035637,-0.5533389154139828,-0.3241865817635098,0.4797970396267256,0.2396127904050086,0.301819855429693,-0.1424040208680711,0.4618110677324586,0.9636812422464668,0.8139294943982626,-0.99664551306244,-0.4379314835903402,1012.9345503625416
0.690863579474343,-0.0116745617643365,0.263415219792095,0.0337847015733416,-0.0199283135517277,0.0537418564992884,0.8211619752832603,-0.0485608522201429,0.4575233333093091,1.031404379041073,0.1027593866434084,0.5333327208882801,-0.3079383828930741,-0.0604106227949397,1013.297832328588
0.7008760951188986,0.4188437006242186,-0.725867770743639,-0.8476468267959046,-0.7290347293677693,-0.342509072388608,-0.4280859456626394,-0.0888183892518235,0.2540801055207605,0.1229017269251057,0.5562103139698763,0.344581026573844,-0.0885923487194599,-0.173399739351072,1014.3202013091432
0.7108886107634543,1.2396715433078778,0.1591973356016046,0.4620422124809167,-0.0050043987208142,-0.2622102055958049,-0.005761927679234,-0.017779958323418,0.8020526730091906,0.3543110874738548,-0.0656118227132745,-0.0497023652047567,0.182220684055005,-0.3540638919274241,1013.2105048223848
0.7209011264080101,1.148199217578985,-0.477905092021492,0.6424619551205449,0.6488929693377218,0.3334636274705339,0.3061751271605226,-1.0416199919797342,-0.4486500801856078,0.3346100284988421,-1.161650853059966,-0.0316558575981659,0.4282759125184171,-1.024511810833121,1013.9136374366424
0.7309136420525657,1.423994672371561,-0.5856196112142195,0.0674821883278599,-0.1290024367164877,0.0164126975309489,0.3947564663389717,-0.0401012296644184,-0.1189490074362218,-0.0924369973062651,-0.1426849826484617,0.0291081144365198,1.074835575337735,1.19145017044042,1013.4892898338344
0.7409261576971214,0.2431937340892677,-0.6421466730605894,0.0282340800635466,0.4283496224759765,-0.253360941418938,0.2526708232788754,-0.2028314504889159,0.2326566868988364,0.5708199115009983,0.6195501824564436,-0.5819639581855751,-0.2755232277188864,-0.212357643155532,1012.992519512488
0.7509386733416771,0.876522398140726,-0.2498732461585525,0.0562160047435268,-0.2500763402604183,-0.1200870068743341,-0.1425988167450588,-0.0303691241970165,0.8458768284811973,0.3368399257396851,0.8070490582800814,-0.0320774575359507,-0.6681866128006381,-0.0970778251765083,1013.3999685748864
0.7609511889862328,0.3418575645395406,-0.0647012022950484,0.498425144245631,-0.0160087515031993,0.292869021000876,0.0481996007489968,-0.0577036214313829,0.2814282419735409,0.3442517419895503,0.005342769678577,-0.5203296847168514,-0.5296737283563108,-0.764195555248358,1013.6843299461104
0.7709637046307886,0.672930996140813,0.1109902578342714,0.8511163706452151,0.9773875820008888,-0.894310623633897,0.4791750077886158,0.4627157857737168,0.9240792983031804,-0.3298231052764419,-0.2793795976607755,0.5422581600398306,-0.2467727809907144,0.2346282164604413,1012.9408849885856
0.7809762202753442,1.005644479352138,0.0250375383396545,-0.3577238606377478,-0.1546878150588603,0.254457237675549,0.0041951585328131,-0.7189644764486107,0.1703154432314603,-0.186889463885519,-0.2360527601900738,0.0682201108606645,-0.5851210279855826,0.5752266433561886,1012.4707642621096
0.7909887359198999,0.5102495269967368,-0.3899988238167701,-0.1648983991922793,0.1051379091961399,0.0002801405872484,-0.3017718499308901,0.6731229803423155,0.3008687663753948,-0.148227574510118,-0.681192603147938,0.1475849018569404,-0.3335029710435764,0.4048295549431931,1012.3195283951316
0.8010012515644556,0.67972396662134,0.7077801448945497,0.4438076937408216,0.087697426958541,-0.3239765384316572,-0.3124217094631891,-0.4465608495603128,1.123324780612918,0.1508004340277629,-0.0981036791497895,0.2824917531873146,0.152129030869785,-0.3811254246150493,1013.130867986592
0.8110137672090113,1.2689993879607864,0.3509906679711762,-0.7990323208714036,1.0411540117624138,-0.2973464870307438,0.2004701077850211,-0.221096072045352,1.4306327967379806,0.082505132195041,0.7474495258951238,-0.4283746506707298,0.0319331122875209,0.7907409246345344,1013.127586277609
0.8210262828535669,1.7215718647559308,0.2082255676435679,0.174237356769799,-0.226465395999011,0.6289186226481402,-0.1958775006464898,0.0800524484166482,0.1292049791498382,-0.1001205617901054,-0.5469439683906648,0.2260092903828347,-0.3760331256722458,-0.3206062973293005,1013.9292970680584
0.8310387984981227,1.493439449999252,0.4970757341517538,-0.1689194481778042,-0.0816917876587138,-0.2499631912574287,-0.096439975549475,-1.224403946184117,-0.9031309601271728,-0.0444764519987344,-0.2994742130115264,-0.0845939269618652,0.4622232383751107,-0.7347798787114235,1012.9313010921592
0.8410513141426784,0.3772491265819214,-0.9592190093049088,0.3023739092311359,0.6153368868396316,0.3727295820781748,0.3485515475240945,-1.4444054393755352,-0.1940688988115695,-0.2409819675500448,1.3503825783241028,-0.4752781791759699,-0.2564354616955922,0.2079444718672259,1013.6613854810964
0.851063829787234,0.8115901047944624,-0.616915623386924,0.3370797893555903,0.2050408224170225,-0.2446577173316182,-0.5245398076304588,0.3672588016118959,-0.3153598760087052,0.2849751064179369,-0.3347925248608666,-0.0949527415683157,0.5394365446403944,-0.5926560445612086,1013.5974806587172
0.8610763454317898,0.9501198404434906,0.4641828027604074,0.4997436952410155,0.1975521796168295,-0.5628283366198741,-0.5925442694608712,-0.1244405489166565,0.4523937616256761,0.4482996482040224,0.8233817166346669,0.415975663747771,-0.5722960801424541,0.3303413914633902,1012.426914782864
0.8710888610763454,1.105034949386844,0.4403767739345028,-0.3391437962924194,-0.1029461250774789,-0.344529036419485,-0.4650841539726014,0.0527867247924815,0.0746783346052576,-0.0162220010084811,0.5521842207952053,0.0535704236567541,-0.2215689450749422,-0.2360016473266699,1013.419060755159
0.8811013767209012,1.0619221680575233,-0.2193422917322116,-0.0385081430499327,-0.0445843286668209,-0.4888453345799695,0.5769166394823362,0.1236723806874302,-0.1175810798122248,-0.3556892815111764,-0.2486160272882161,0.158077005532616,0.1976483427764135,0.2452085138693983,1013.3145737308562
0.8911138923654568,1.5792871038177756,0.7350756444588287,0.5988133515836844,-0.4632656253490252,0.4086861635919757,0.1901672208549943,0.1485581234176302,-0.5187001256447522,0.1516034273551413,-0.0347660667679763,0.1192181697737849,-0.0294732026152751,0.7724076269594107,1013.023397413856
0.9011264080100124,0.9118473740135602,0.3932449174403063,-0.3514633208748852,0.149822334510472,-0.2743345252605981,-0.0954898110991548,-0.4933252284395958,-0.9444225095497092,-0.3088584500418064,-0.7642320253315279,0.407595281506008,0.157416807330143,-0.8498754465719706,1013.7259225461966
0.9111389236545684,1.5495626000335538,-0.3675489197645985,-0.115433270318136,0.1172350417150579,0.0082967131386518,0.185764471833195,0.3243506312610081,0.2950768048632017,0.3419256019856225,0.2404293266908591,0.3087919250712973,-0.1520946630906539,0.1335947761989943,1014.1273557167486
0.921151439299124,0.3290000706318318,0.5247504095656688,-1.190902732158812,-0.2648537961804737,-0.3020355212477275,0.2120515524745656,-0.0177635889524355,-0.3090541015635666,-0.103710921272823,0.1746804679095106,0.2624216628140488,-0.231998153402437,-0.2054438611033444,1013.3127360706628
0.9311639549436797,0.4462362364228884,-0.5208224112775421,-0.3742656791837805,-0.3900434876007346,0.0027601841849589,0.8252869990244146,0.4168561089453153,-0.6609624953863797,-0.7115155529991289,0.0999656067639402,-0.4927319857021342,-0.9338112831901884,-0.3057985991298292,1013.4878459246082
0.9411764705882352,0.6422449844509444,1.3547116037343965,0.0994487529180525,-0.2795622366645111,0.002400867512907,-0.6298901895406218,0.0508877521573033,0.0113941227846307,0.3867409058341364,-1.1216810740424794,-0.2683099305540382,-0.079397479664244,0.6981538082671926,1014.3114427996248
0.951188986232791,0.6941654813000768,0.0758847722749432,0.4412277933616929,0.1435154684463304,-0.4819962056832857,-0.1783584867132724,-0.033163497150118,-0.8400774120230167,0.1392290422733769,-0.722803666203971,-0.1644727018936908,0.4254838859610569,-0.5810638613917014,1013.6932623962684
0.9612015018773468,1.5544883794473852,0.5267718830352685,-0.8219913301862393,0.502939921156958,0.4914231880558517,0.1546938269905613,-0.2391748074869391,0.8972678628363333,-1.0021564884196748,-0.9724676290002284,0.5122612959711741,-0.7446647995288396,0.2808753055014857,1013.7494758266284
0.9712140175219024,1.5250525058161308,0.0547537088666494,0.8490665175371304,-0.3887553971140925,1.0337573995145095,-0.0345071651571695,-0.0511264504547145,0.839112722959015,-0.9264607514239542,0.2436978598610194,0.7049421107378789,0.5718343915043002,0.4970764772948347,1013.7095251721204
0.981226533166458,0.8687177187205894,0.552480835224303,0.2372630893204195,-0.4922063711135554,0.4523563669348966,-1.049112746665113,-0.224296630755232,-0.9766067221790146,0.1002028401722161,0.3163681782740318,0.7386669871436844,-0.4701867504533046,-0.6877167727409583,1014.3032675905094
0.9912390488110138,0.5624828296719759,-0.4103543000911663,0.0797662558648557,-0.3097846837969013,0.3681199095677158,0.6576564486015138,-0.0937674611167782,-0.31026682893766,-1.1497693508123092,-0.218595628617997,-0.3359891755897988,-0.1552689864962081,0.3004885910059749,1013.4735991261128
1.0012515644555695,0.7896594363387075,0.6621639776766636,0.6764852478195337,0.4354604465560165,-0.1797663552715769,-0.5091871060334714,-0.3621966049553224,0.8738420657709965,-0.4001558651428613,0.6755870379968597,-0.1368804540336042,0.1600043196781421,-0.3771430429476031,1013.6707213707352
1.0112640801001251,-0.434505814052289,-0.036359107467851,-0.6235196421255612,-0.548148089031483,-0.0360218919517831,-0.6065131571841981,-0.4660954784407827,-0.8625977252029887,0.5304670942946099,0.0494056939343221,-0.8082847814563429,0.0468614834210318,0.623692895878489,1013.3836882750117
1.0212765957446808,0.7029626637855715,0.2036862875444447,-0.2827556577163961,-1.5363864249403367,-0.3349282931678704,0.139595711266626,0.3090582324131652,-0.1816739404633741,-0.1819510219101344,-0.0744822635052025,-0.3234416290126023,-0.1376523291507098,0.0216894741114418,1013.1680826540736
1.0312891113892366,0.9506715988721356,0.9247704682503648,-0.8112330732467126,-0.0750034953048179,0.1777735897430851,0.2876408180241011,-0.1323868401463202,0.090245144800633,0.1368474684550418,-0.1876345014339304,0.3006658397186871,0.4723625715827148,-0.0796830421239311,1012.5084347676666
1.0413016270337925,0.4892352477940838,0.5348911430747209,-0.3512269683381565,-0.2832290693054142,0.1326630366730029,-0.0599753748592737,-0.2101669728770782,-0.1954462184692624,-0.4362237756277283,-0.7731453719144823,0.0820336553474831,0.7566462596467616,-0.2863936065178066,1013.4452562104724
1.051314142678348,2.091157243649881,0.2590211494894268,-0.8183971728990708,-0.1750034318879446,0.9704778960673596,-0.3594810999526935,0.2026460353528399,0.3597540340306884,-0.1062043537045748,-0.4874765930242068,-0.5394184794241426,-0.594521626704614,1.0044806815011331,1013.1255411899984
1.0613266583229035,1.2473324357691178,-0.0637451624299685,-0.318517256004846,-0.3345209998544189,0.1026416580234519,0.1161137339001365,-0.4611752522275367,0.792390446342734,-0.2054002589768591,-0.2541031559637077,-0.1302495494052438,0.0830443690189731,-0.353636379611733,1013.439172206507
1.0713391739674594,1.6905312076523256,0.0789792336496739,-0.9629030657433552,0.6327826001755273,-0.4143056283133648,0.0423286186582154,-0.904002221837046,-0.0725272522446615,-0.3926581683682702,0.5028143245107262,0.3771928048148444,0.0342797880511467,0.118604674435519,1013.7173152128936
1.081351689612015,0.7065343144752073,0.6228038921629188,-0.7550150502571852,0.6955710765130034,0.5245915147786678,-0.048595562465207,0.8119907565874676,0.0120825730524629,-0.2033905213859627,0.1364257344001187,0.8132974678815139,0.616933324570697,-0.3594824381382638,1012.181347276097
1.0913642052565709,1.1960281412427165,-0.3933629403176982,0.588197689916398,0.591085039141924,0.8953113942121608,-0.4676078186859016,-0.1313606763207004,0.0008928584750819,-0.8329755854978448,-0.4897471668331113,-0.2791257412500771,-0.5436124702470568,0.4511378122426449,1013.3887041747096
1.1013767209011265,0.8485025777329428,-0.6968258098437485,-0.3446887186274183,-0.2323357138636785,0.172566633874186,-0.0474711706592793,0.246592919949541,-0.0971182887660246,-0.0086089887079447,-0.6758907649634331,-0.0041150187828276,-0.3915720612594848,-0.4339608789305331,1012.9362670423696
1.111389236545682,0.700810314186719,-0.0139128600856586,-1.038956123193289,-0.2096642021035886,0.5522813251311438,-0.0723443193348761,0.641405806402101,-0.1359431219193831,0.4407240229093079,0.1520198563120083,0.3687072640289543,0.2108168172402973,0.1382107548051642,1012.9583893173368
1.1214017521902375,0.4969370594416065,-0.5596915191237978,-0.042530997639663,-0.6799479417904932,0.3928595471918394,-0.3423169385590727,0.0530473807216587,-0.0222918244983538,-0.7016339397301146,0.1856887981084808,-0.989178767285534,0.6364868474262351,0.1057082172087157,1013.0343507367892
1.1314142678347936,0.9572683316766654,0.0721148800028898,-0.1205819629393325,0.487654554479391,0.061761084340735,-0.018058642438538,0.3736623083095762,-0.2774483291415138,0.3146150659839919,0.6386037651716951,-0.8295461301947569,0.4255752784479359,-0.8137302192975998,1012.9699042398996
1.1414267834793492,1.3154443294637737,-0.1330570655816246,-0.3256866719467773,-0.5737361200930587,0.0063091931527567,-0.5107011029174868,0.4452597443066105,-0.3000616510505672,0.0401456541088526,-0.316519041596857,0.2458315783575818,-0.0624318910971116,-0.0257023893103703,1013.7753336192168
1.1514392991239049,1.0758701377198483,0.503345668772768,-1.0726230646412385,-0.4556199409090524,-0.0160591116745489,0.1115301076353246,0.109224971946227,-1.1740984662738148,-0.9007354662852204,-0.1411376740357829,-0.1045080280192808,0.8707148541868711,0.087644170325784,1014.1663156755268
1.1614518147684607,0.8576952531949114,-0.1443673874939575,-0.186922950982592,-0.6771880639972868,0.165419785723013,-0.5101956908160014,0.2598914708041888,0.6883431955173966,-0.7319233776919287,0.6998821597869344,0.4211366562217639,-0.7849681135913876,0.2752985348791447,1013.2683455145898
1.1714643304130163,0.8683209755753913,0.2195674870343182,0.486785748254414,-0.2746123821920825,-0.2763381290191691,-0.6017312008814137,-0.1117634936179594,-0.1868286744654371,0.3287998589388414,0.2814786940409594,0.5637625213962835,0.0923347957585557,0.5550786622317664,1013.3105131096528
1.181476846057572,0.8427487593413177,0.7420958656609205,0.387814664263909,-0.3024448004495036,-0.2582066527365223,-0.1530849608045135,1.1926068651239636,-0.6955178513840389,-0.4057659545642857,-0.1836019618609536,-0.679146492905465,-0.7653928544018368,-0.555322197702866,1013.2821493123996
1.1914893617021276,1.5446690012953934,0.1778232240660563,1.3017289437887063,0.6679556656411456,0.2396872325236202,0.4050243554960201,0.5953619357559008,-0.1536631412655965,-0.5218731967045299,-0.4875204164574682,0.2395294814376445,0.0279422905368581,0.4088492481810855,1013.7908691772988
1.2015018773466837,1.0092829111993502,0.1146363103690783,0.6495320370231277,0.7730498019960215,0.1526279925021639,-0.1784452193854917,-0.4872557171954877,-0.632001004481457,-0.1429488278093763,-0.4087032245348729,-0.0586743508499338,0.6142861955860356,0.5109813380687153,1012.5970529266486
1.211514392991239,1.2695816357899254,-0.2419597915180776,0.2523772866831791,-0.1219184087972374,0.8976667451630821,-0.6644613231300079,-0.2685626901288092,0.236029449890578,-0.3294274270311545,-0.2241796617313838,-0.855167216215964,0.0853874400503237,-0.0707493123459603,1012.8337127660906
1.2215269086357947,1.1412195345615153,0.3161686486932391,1.2052165373774646,0.1296742707334353,0.53182835244035,-0.2262336839142676,0.5593583618075256,-0.1269474950044967,-0.1694014846851977,0.6325121825044904,0.1164581785660069,-1.0989372695257689,-0.3054416396903142,1013.3957222593832
1.2315394242803506,0.936868205976119,-0.2604169704075283,0.2083969723793003,0.413516660807219,0.3376335801855495,0.4847735251863416,0.216296773127208,-0.191190332757483,0.4522814374967194,-0.171150342505629,0.2094642059192556,-0.1872101439516717,-0.5418879961053227,1012.8415101303256
1.2415519399249062,1.9952826382429756,-0.1212863705124387,-0.1655293343741259,0.5819974491643775,0.6291144101180798,0.1249570732054792,-0.1098008038935111,0.4398008819185925,0.1650027130620175,-0.2887303835388919,0.5776252224226505,-0.4518587552072131,0.8579284082870957,1014.1516094044327
1.2515644555694618,0.6509961845858043,-1.0016622185253183,0.391803280906828,-0.6035077139060833,-0.4753499147529973,0.8820469662572168,0.2329961645371545,-0.4253243865228617,0.6010286366357256,0.1551039230118028,0.2879680310237444,-0.2011482543942933,-0.1910415071282162,1013.7556011523528
1.2615769712140177,0.049995630120588,-0.0474058281301379,-0.4348466359562759,0.0240928280349071,-0.0235949746729303,-0.3958330105945115,0.5003365215998128,0.4941889595376639,0.0415849171947672,-0.656400995395502,0.1994722483863021,0.2669815580184352,-0.1168801985537177,1012.9314870427916
1.271589486858573,1.0289783364594394,0.0677420739806755,-0.0083623938734877,0.3608299077623473,0.708627823089945,0.2232139354818237,-0.0573054021239333,-0.0760561044631418,-0.2543286389349987,0.203511348082563,0.2274621982860739,-1.2643093192149657,0.8613965040109651,1012.6985349241908
1.281602002503129,0.0197501526395685,1.3850120748920836,0.1927669387368162,-0.51763497512779,1.1214016574221453,-0.2146949197270325,0.0767390953484748,0.4880364325819312,0.2353949286554012,0.4131602832339826,-0.7969911571576379,0.7247634872851941,0.302969710032189,1013.1103931561328
1.2916145181476846,1.262978485588503,-0.4030803285786799,-0.4276680410600711,0.1232734794655164,-0.39666668143245,0.7424890832587979,-0.2059107539175839,-0.0185714553373623,0.2198957870559637,0.0725456410152759,-0.2481229951381723,-0.366966629389188,-0.2597928966693909,1013.7392242256058
1.3016270337922404,0.695645126327503,-0.0302161972243344,0.3115612947455431,-0.5516418223749506,0.5762174288017857,0.1784120358914754,1.199698062747624,0.5622086171473223,-0.270446233556973,0.1091541732562526,0.3868718937294538,0.1305794206183093,0.1492277903917443,1012.7334470721518
1.311639549436796,0.3605640298609586,-0.3283929664430974,0.048871096812533,0.4822643600119901,0.3957887566323781,-0.4602227386723423,0.3543668813400569,-0.1987963959262124,-0.2393623650291156,0.1911596249951403,0.4321880091040789,0.12878448316858,0.2951397462982584,1013.2344439059948
1.3216520650813517,1.0843496827704189,-0.0548410478765603,0.2856997008709365,0.689363359730825,0.4310809323968617,0.4691343843637091,0.3811723199578944,-1.0232360725650482,-0.0628024717448419,0.5050693104440395,0.2457032301558855,0.3175265666673941,-0.5491035161764274,1013.1530371314208
1.331664580725907,1.1035084599160585,0.2980748421550591,-0.1236269667217165,-0.0747933616430098,0.3566358274303549,-0.069009710538661,0.0681485696791539,-0.004862801692267,0.8223785424883977,-0.4217975597008486,0.3369500306434497,-0.274421002591637,-0.2750617817886208,1013.7321705714564
1.3416770963704632,1.2624612739126029,-0.7295273128946799,0.091458958027781,-0.0402379773806987,0.667584186437282,0.0184879804172956,-0.2456837220357653,-0.2719265842745679,-0.639083117418857,0.0072197363363311,-0.7721065335925673,-0.0608563512589957,0.1323082252589714,1013.0734435851924
1.3516896120150188,0.7432234755557433,-0.1396035834092913,-0.3626441382348282,0.0703321189504646,0.1364885356957261,1.2020932577137535,0.1281832912805046,0.2417192636590374,-1.135313634498964,-1.0276479120448982,0.7917385238872131,-0.5936970127519976,-0.5321528762970982,1012.9922576626508
1.3617021276595744,0.6567084855717495,-0.4486346570951026,-0.4965726633024354,-0.0388308627199134,0.7909697840474114,-0.0495685017203786,0.2396774576109202,-0.7947258169558848,0.5655974272247876,0.1921370369906332,0.5777985026386492,0.8359194488641052,0.0614099973046,1012.4973050989548
1.3717146433041305,0.877617025016679,-1.20723962022515,-0.4200260433693733,0.0288775972459635,-0.3603594999718625,0.3429835242502754,-0.1288547875778192,0.6200718158681864,0.1509895806993945,-0.1175110570767845,-0.3594433507636076,0.4877550894639046,-0.511943895580965,1013.168120423612
1.381727158948686,0.7160703964216053,-0.3916292182116229,-0.2955888585756649,-0.4922420850396948,0.115780883970326,0.0172582635104397,0.4942075569390016,0.9047282745656584,-0.0058748361337553,0.3174932323706871,-1.5253062280216465,0.0344520172751296,-0.2934791786028699,1013.2992579146054
1.3917396745932415,0.598212427083997,-0.5511795434387675,0.0398645313566699,-0.1162053749245825,-0.313033497978087,-0.188375782139858,0.5753768560083204,-0.119404621536538,0.0570464314385638,0.1681819856157391,-0.2999395437127606,0.6969468063852705,-0.5193575228995462,1012.923054000822
1.4017521902377972,1.0904334263523818,-0.1447780008576054,-0.5687096715518127,0.1076593254929258,-0.0759929652267773,-0.7072301683537691,0.6107574262661365,-0.2752737311154603,-0.2370741245063749,0.0424279601382832,-0.471288663113154,-0.6939135777891977,-0.0923320849848548,1013.8158626926744
1.411764705882353,0.4957600542643525,1.0574250578526645,0.5766937182823798,0.4090094049162337,-0.3036455486630162,-0.0892159215652372,1.198001922714931,9.485332329235728e-05,-0.6327772429002818,0.2944475319071505,0.5671101214692507,-0.1673849967059633,-0.2752039156287918,1014.1240597000756
1.4217772215269089,1.4091767971461928,1.1901728954810666,-0.3147398526887737,-0.1830135480698556,0.2334606313632414,0.2248155011957055,-0.0549298837582702,-0.1782463706717946,0.1580009477347104,-0.3035180338090869,-0.6852009551647977,-0.8285593960890204,-0.6500875998732499,1012.93209867154
1.4317897371714643,1.4275234317925756,-0.7354526904858929,0.319015308338291,-0.4229599539515071,-0.5430521805267214,0.3848309419860315,0.0565516282714938,-0.2888142820959669,0.3878108461297875,-0.0961235290177476,-0.2813828866912504,0.1341718167066554,-0.8339320230197932,1012.7499764546634
1.44180225281602,0.8706135406908946,0.2406682153845568,0.059874650976723,-0.2512606031493939,-0.091305596611957,0.433808593551382,-0.0107879488523097,-0.2620995982763588,-0.2691042611222071,0.679945739476929,-0.5624690685520201,-0.339698833903089,-0.8048992651123169,1013.438957347336
1.4518147684605758,1.492143061646609,0.7833812312940225,-0.7251247001436568,-0.4910038365942131,0.7232580404187594,-0.4536622978402816,0.2165971878284904,-0.8540382132004708,0.2691539661157142,0.2227479252982183,-0.1017009437258767,0.145077018985467,0.5325221002649819,1013.5110944041172
1.4618272841051314,0.7065190061525948,-0.1884008973820352,0.2479040167813246,-0.5873758825872331,-0.4446136264849975,0.4951174188917807,1.1498269389045508,-0.3444879515009952,0.2760466099810085,-0.1033860940138341,0.1431721729879219,0.3039844549906713,-0.3527194638241478,1013.778130247768
1.471839799749687,0.5849222521122812,-0.5748993234095993,-0.555717197069063,0.3406565973531294,0.413513681491985,-0.8461645168012828,0.3446924995574091,0.7004852016216117,-0.964175386011544,0.934547479646957,-0.1327038212945017,0.5515750702815234,0.0695690260261731,1012.9440262553076
1.481852315394243,0.9296191326675722,0.3547248406119172,0.5248009604212812,1.9368637296417208,0.3821200981593933,0.0819410793633183,-0.5352788835951008,0.3106746392078439,0.3466190279059525,0.0180613666634725,-0.573461397527023,-0.52367031419477,-0.235572130833654,1012.648142730302
1.4918648310387983,0.9092954306922189,0.1100785122652955,-0.1978681038844829,-0.4494077904887946,-0.5060847676209118,0.1009737815067371,0.0617054689889473,-0.0119822908063827,0.4119327387570614,0.4614254438542417,0.0676443058722266,-0.4165324782326625,0.3514271564795113,1012.7571620671048
1.5018773466833542,1.3582839364621182,0.1130460763910256,-0.5226357800598472,0.9008349848229038,0.4087776103514486,0.7645092920937291,0.3393868786615535,0.0131515929655195,0.0854041184876355,0.3659086280296006,-0.4439674047817765,-0.6191537727639304,0.3057868305223585,1014.1193546726606
1.51188986232791,1.408675690939151,-0.4056755158061317,-0.4628840061473279,-0.4357605950206769,-0.5228223643414719,0.2560748838413804,-0.4423645451801223,0.0785128617240761,-1.057836432077382,0.3268039922182347,0.1051074981708773,0.7543968489154241,0.5570144060362469,1013.8295205877748
1.5219023779724656,1.373306631138624,-0.147195740230909,1.0340015726134513,0.4842055043438142,0.103968672557191,-1.3386763827053525,-0.6769195680772748,-0.1094849031477411,0.4254047173353495,0.1602248953904795,-0.836316336246256,-0.6350646342410804,0.0756324946993539,1013.5451278382482
1.5319148936170213,0.9692897142265232,0.0287072356898674,0.1297274605335759,0.0109809768150176,0.2941214176648947,-0.2493694908966441,0.3263298864962807,0.4046842315630576,-1.641022768668755,0.2605570809886388,-0.6791371613848542,-0.1436680395794615,-0.3558422348703989,1013.6759049678484
1.5419274092615771,0.5419001990911907,0.2685294235165277,-0.3252095983073888,0.2013181553592407,-0.5817491045438938,0.4896992187546133,-0.1035355229561442,-0.7325926582442207,-0.0163991849257058,0.2191154555947164,0.2220582575153588,0.0159975206768559,0.9306850918906404,1013.139302206088
1.5519399249061328,1.7786503223095362,0.2677856596168081,1.0204875501965602,-0.2368585824008444,0.5688265650699764,-0.6405939299373169,-0.1694162709052518,0.8852592750303915,-0.200371789798547,-0.1656043989257722,0.114256804877722,-1.2769886503830523,0.3743177554757877,1013.826910255248
1.5619524405506884,1.0136654950901287,-0.1205143252270897,-1.1188661081860094,-0.5722029858254419,0.377721466447908,0.3668677369475702,0.0382936978953324,0.3547347205886479,1.1234665605147025,0.4022518494189278,-0.1569568544750076,-0.4665144888478609,0.1873684739892151,1012.5853305051052
1.571964956195244,1.024698178045632,-0.575902629725559,-0.3655858889168989,0.377815810341696,0.2529497685028938,-0.0246479360520017,0.0846513952022721,0.8351228643861198,0.5090626309400793,0.6159558033457091,0.4678137131318762,-0.4236915702925081,-0.3988040594172038,1013.1248288666328
1.5819774718398,0.5397597451062748,-0.2273785458819038,0.8917799391538368,0.5429422821118061,-0.1786126361130568,0.1398250496727869,0.3676223385031157,0.1527792562758685,0.3307292513155602,0.0937924407204141,-0.262712201153929,-0.5949412030079596,-0.9038330838354746,1013.6724888094816
1.5919899874843555,1.6817636303041863,-0.0680507764230679,0.5840032236175088,0.7112947194573568,0.4100848685545708,1.0080501748283082,-0.2632067860372551,-0.513023264553789,-0.8686652358171288,0.0563356621443037,-0.4072955132177172,-0.4977764068586579,0.2861438856209781,1013.2603059556776
1.6020025031289111,1.7221929530681597,-0.9073416445907816,-0.7085818180917208,-0.3853445403786718,-0.3139194936743202,0.8502522127144366,0.4380530205246637,-0.0486511200914052,-0.260742791973119,-1.0789146747676546,-1.0063522029878114,0.5086277083580601,-0.1992138859676175,1013.6493568728672
1.612015018773467,1.5579351532985923,-0.6260407065410704,-0.1521514320834587,0.560742308311723,0.8783498659463318,-0.4955216460025813,-0.4658108696256459,0.1428526627319132,-0.3972013392940007,-0.556000267506246,0.1488063163840003,0.2543889314667374,-0.4533202061594546,1013.350997452574
1.6220275344180226,1.528071941419614,-0.1349145026843745,-0.3539684566741798,-0.1839726175555982,0.8346525090260702,-0.2908288869972691,-0.6585708369035634,-0.0772054481618503,0.5262385436071818,0.2600504103194618,-0.5755820034586194,-0.1758474097737483,0.0328538870239966,1013.1492661125628
1.6320400500625782,1.0474040287633362,-0.3661068995721771,-0.0278451647642009,0.3375274113776688,0.5074426993606312,-0.4178789041760755,-0.099312863005854,-0.186728991712864,0.7106252582364098,0.6083094603588085,-0.2550113067721248,0.5438865889791412,0.7906065077413297,1012.958593928387
1.642052565707134,0.607283521606451,0.2333952915246808,0.5748935634590421,-0.1221355483918904,-0.0249685366636689,0.0418844896784808,0.0893443304026303,0.1975282794743652,-0.2105657360464611,-0.5386321812679596,0.9953871378190444,-0.6513283556253235,1.1279183727097672e-05,1013.7406794290368
1.6520650813516895,0.7083837177215757,0.505688635891164,0.1272398528033654,-0.3130252265512774,-0.4720887882156772,0.9327983422510626,0.355373621620159,0.1701712124840231,0.4877690259398252,-0.6483104836800263,-0.564786323415772,-0.4401560696785431,1.0394449140865174,1013.0303667690956
1.6620775969962454,1.4271056299472007,0.218984094880395,0.1451729105065549,0.4418237429239642,0.3629889601915099,0.4632767173874402,-0.6714065891703981,-0.3329193253268401,0.362719405418151,0.4119109895471045,-0.2014785489656635,-0.176886633343028,-0.3934282045758795,1012.967948356826
1.672090112640801,0.1591894089421304,0.0539638071487186,0.1678026795342429,-0.0678269809603251,-0.0117841730701494,0.0541206642673167,-0.0297067709696986,0.1213535990488244,0.620901833159212,0.4329242142769868,-0.4865206382658422,0.8111489555028657,-0.342106506125174,1013.1739583552328
1.6821026282853568,1.2888488854333344,0.8198785871959379,-0.1399102731474082,-0.5525138568218039,-0.227235690707388,-0.8293191734835358,-0.4395549383701986,-0.3216286071258977,-0.0003690880312555,-0.0948067877014663,0.2298286453355746,-1.2719122956248052,0.3675096782130153,1013.1419197143388
1.6921151439299125,1.4211775098016326,-0.1571451630339519,0.0744646164038984,0.2032692133571036,0.2466046150022395,-0.1991856848950273,0.1705890400830636,0.5064802312836093,0.7042936104228757,-0.3686104644685762,-0.0911311076005464,-0.2709731898739481,0.613058481531114,1013.5786604681292
1.702127659574468,0.9875503847009623,-0.7896546437883696,-1.1405755015283927,1.0568832799800858,-0.4429664055414771,-0.3794858626493818,0.4370568303545367,-0.2406329431008356,-0.2190692873764586,-0.374901820125919,-0.3139986941237456,-0.3352620681996142,-0.3134722199028588,1013.6563547404372
1.7121401752190235,0.7458449265874031,-0.2272249196270374,0.5791982801326366,0.2558887975935822,-0.1685869752818564,-0.3407883090781974,0.372225192676789,0.1963474529963681,0.9502649006493086,-0.5419980383787589,-0.7828049005516096,-0.1980599166238071,-0.1144661584975382,1013.2683338228288
1.7221526908635796,1.43996385351967,0.575282126732618,0.5866616085670487,0.3477794345770797,-1.2021784614313271,-0.6166365707882708,0.4642585312202743,0.6627239743290664,-0.4840000712334723,-0.3757880841122409,-0.48633298524683,-0.4751644596729394,0.506748636780216,1012.7240448790334
1.7321652065081352,1.6016275657398773,0.747948813683308,-0.1327942094301254,-0.6291832458406098,-0.1462154676762928,-0.4643766313146475,0.7847025901484088,0.6258059565103153,0.2024786669614026,0.4097216128630981,-0.6971962309319587,-1.183656108951107,0.4355550492866596,1012.7788220987582
1.7421777221526908,0.3009028768916437,-0.2338788217398517,-0.2553413076983128,-0.623346072280449,0.1092372468799258,-0.4354056103319207,0.1074118753029688,0.1913088069320042,0.2574257340843284,-0.6410336990140183,0.2410973896131943,-0.8720476670656999,-0.1333654069299984,1012.3798729197248
1.7521902377972467,0.1420249384141914,-0.2489158524966268,-0.6321019122147455,-0.1407629250031908,-1.2858686606617775,-0.2298083443018568,-0.2711946464366128,0.1300317897798307,-0.2851621083175196,0.29940239850716,-0.6297524363883309,-0.2695912128637779,0.3907343969678082,1013.2481580980468
1.7622027534418023,1.2343352379252062,-0.0453978635098686,0.1237410189257054,-0.1276585997376436,-0.7551155031141948,-0.1598166150069672,-0.3624602291741981,-0.8669452170467129,0.0406003136059154,0.8230120867595903,0.0786497048566106,-0.9125048811498372,-0.6879058284179331,1012.8524431993492
1.772215269086358,1.3112286803471842,0.4097919092097439,-0.0842116364429549,0.2922989541598117,0.5945899877455193,0.2395428386715907,-0.324768757968588,-0.0537832610444264,-0.5702747451953574,-0.084021438526004,0.5597711225142625,0.0860200884972502,0.0568928267833606,1013.5509792557036
1.7822277847309136,0.5667690580833049,0.186727976728011,0.2398810086569096,0.3236562303367453,-0.8003380972786935,0.1970703366792725,0.0635962204441835,0.8128569740033262,-0.176218342314977,0.6393042101878234,-0.277552659215486,0.5615379479394839,-0.2831273659897139,1013.3902378958384
1.7922403003754694,0.5991223007714437,0.7659010164128416,-0.7004217243943345,0.3558225346769799,-0.3896495601963782,0.1517409061822979,-0.849082170019217,0.2265317450184653,0.1841715245219121,0.1878416852605795,0.459525871393039,-0.0392550694230384,-0.0971115135298383,1012.9936103487748
1.802252816020025,0.6130246370564114,-0.9803075107014388,-0.0718435605290738,-0.8971433726136028,-0.3588697942960955,-0.077306826128097,-0.4968307349397358,0.4869044440570794,-0.3144153113336995,0.4103112344961889,0.7656264823480192,1.2090667623983704,0.270377849311236,1013.1946217092536
1.8122653316645807,0.6174350206199728,0.3551515081500157,-0.3389705097067675,-0.692362856605246,-0.0293481644863193,0.1170804011559232,0.3382619394144132,-0.9830901100608944,0.8333075200792506,0.2443928680317086,-0.2527277013965054,0.0048237781889372,-0.2609613617040786,1012.4066384919512
1.8222778473091368,1.5765839555393022,-0.2208524247486883,0.482401381404698,0.426216728280953,0.287345920169929,0.9883336804978862,0.5025545502925493,0.3476535343791172,0.1421152966207423,-0.3346745416603591,-0.0605793490434905,0.1757957144186856,0.029914317298711,1012.419055689132
1.832290362953692,0.4735738258376709,0.5914688841110596,0.5202995811128386,-0.2308166413268417,-0.1802384891585648,0.0090676247619075,-0.5422185509018652,0.2266001967688848,-0.2682536819203142,1.0282795833620255,-0.1271541287375898,0.0966791545981828,-0.3441434908924109,1012.1934019260058
1.842302878598248,0.5871672025310177,-0.8830542709822122,-0.5826429100256973,-0.6680127993888318,-0.2899261673024663,-0.4263112858902189,0.1637855393733079,-0.0456834033853161,-0.1067741529649548,-0.1360161182590482,0.428153492310734,-0.3449954642254002,0.467789475343993,1013.1422286652175
1.8523153942428037,1.1872257463045837,0.4245659248800899,-0.2771554208823383,0.3652242326436164,-0.1739537321377313,-0.3362272170138864,-0.5688327051408945,-1.2505060332219862,0.2330823905793368,0.1161406542140722,-0.0765327255714806,0.2105693847941447,-0.6546251887234342,1012.797025895228
1.8623279098873595,0.3925394429536554,-0.0659813773913942,0.541730523376034,-0.5827588544835145,0.1379301576455604,0.244131194999763,-1.1923036652709695,-0.3459100552587687,-1.094873693603143,0.2621231162242702,-0.1068734624973501,0.4833542717782684,-0.2720720424229955,1014.174637775906
1.872340425531915,-0.1950749049659388,0.0334713302761953,-0.6783021846840389,-0.4647802212106111,-0.010554130032007,0.4504675497136717,-0.33064549965174,-0.1293226373140925,-0.2472264566277458,0.1178460852165644,0.0109154686261061,0.2357605048356439,0.2658200163371408,1013.680263306774
1.8823529411764703,1.1073148528253065,-0.3817609641168494,0.2570612097875953,-0.4289247232521646,-0.1904087888251921,-0.8605105889721673,1.0168900648940478,-0.0716448974395317,-0.2895884363866878,-0.2128811719442448,-0.1481354861303312,0.0312157295566801,-0.5015635660293175,1012.6939973568266
1.8923654568210264,1.00073705600451,-0.2110397779881578,-0.1766225544868103,0.2407290103942612,0.0880699877424201,0.4227044942275954,0.005034665062648,-0.8249793128388859,0.0695573519736214,-0.5559883123680823,-0.4145383379218278,0.2678276240931913,0.6959397786778406,1012.5649092652895
1.902377972465582,1.4410979789299392,0.8336096271438838,-0.2382270182301208,0.5156473786404419,-0.2967916012606627,-0.2742848927556515,-0.1674489308489398,0.1264606698305025,-0.082117343203231,-0.2654681386686552,-0.4367589500952176,0.8531645877087237,0.509836767144698,1014.0829666297844
1.9123904881101377,0.4884918016204713,-1.0059701397817673,0.1318842086294462,-0.5580748919077,0.2530495222742293,0.0695292000881784,0.0079215531467732,0.2235429479673151,-0.6018178723117856,1.2817069115301465,0.3378048410816947,-0.3460176238931269,0.4532295014583257,1013.122759676426
1.9224030037546933,0.7706303800108714,-0.4198352475506189,0.4198413331859257,0.0298297221860262,0.7931313927039257,-0.4792518522968945,0.3780148711624082,0.2349181278499034,-0.4539938505228288,-0.3846604289473412,-0.8812416896146628,-0.6525751378245623,0.4889154162659707,1013.9673533522896
1.9324155193992487,1.2209187887355748,0.6133788055962488,-0.1455006777888205,0.0580420653393489,-0.108383917354301,-0.1785724674100433,-0.2354862223660614,0.2755876816635476,-0.1559086806812689,-0.7342605180122217,-0.1052810221688338,0.3316846097810665,-0.2053873933690978,1013.1575249548868
1.9424280350438048,0.4889368487828803,0.8371064038528268,0.7080443965478228,-0.5156556111239268,0.2341953229958948,0.3603503631046975,0.1313080789530221,0.4458948181369308,-0.5951883028552911,-0.2501293724517496,-0.3230453834102148,0.0586077604240362,-0.3496803010994919,1013.971472850022
1.9524405506883604,1.1828842469089136,0.6722743833888734,0.5738170248337665,0.2068875791109147,-0.8799528945632058,-0.4282382818051459,0.033542020392301,-0.1235123999260628,-0.2835790189018169,-0.6271517346219196,0.427722949992977,0.0679661227703875,-0.2655712690052939,1012.7655775617968
1.9624530663329165,1.354839369586685,0.2182646136521004,-0.2810266442878477,0.625694533837779,0.3090387029811788,0.8018377836079308,0.5012153854288603,0.4712783988032168,-0.9002256132825014,-0.4426031949076783,0.6737072377734368,-0.8390933281756557,0.2226798928591317,1013.6953425924106
1.972465581977472,1.104204568819995,-0.206153855809873,-0.4711081744051812,0.0313406488474487,-0.316777309379913,-0.1682212077952208,-0.3915618389135102,0.3723224488905808,-0.6217920944742027,0.7775022167416564,0.3605705651805621,-0.508319707490245,0.3854673828830887,1012.8817770951983
1.9824780976220275,1.2944969375147164,-0.9127654984664704,-0.0562541207072878,0.0943193442341723,0.8614593165175645,0.5003766725036185,-0.0253545553863037,0.1811967588812235,0.7110823142339932,-0.0293329617647572,-0.0143403612198302,-0.3739548982589223,-0.0573701627893122,1013.4887958718136
1.9924906132665836,1.2351861893099096,0.1021605749466341,0.7764027177268297,1.1039214482343924,0.2705447975308325,0.563177231450817,-0.3949038745004424,-0.3533741810181915,-0.7080977754895941,-0.6800009421908847,0.5431986434948864,-0.5274059534242511,-0.7934921886482441,1013.1435441962972
2.002503128911139,1.4757085379436106,-0.0050858875504632,0.1527134508303263,0.3560783888709938,-0.7290669387960227,0.5457184617455714,-0.3040255062024687,-0.0037498246233838,-0.4440880518138167,-0.1031924482801241,-0.3600652458803854,-0.4744799257824695,-0.7011945693069176,1013.0137296865038
2.012515644555694,0.7264971852664746,0.6729125140838177,0.2057578367201428,-0.0115766003633186,0.0508939688360836,0.6238580125208248,-0.3099523380246519,-0.0468449144792417,-1.1166398642411015,-0.151795606208644,0.041628860652378,-0.1584498710061182,-0.1900428077293009,1012.6289783222448
2.0225281602002503,1.1917106970458216,0.4379043095784654,0.7200089287540212,-0.7566521855511547,-1.342201753137264,0.0220809532937084,-0.5903999982072876,0.1722659909104041,1.5952327403430284,0.3710840119993418,-0.5826879245150776,-0.5615332864565407,-0.36746650822256,1013.229272946258
2.032540675844806,1.7577660939397382,-0.940360973225834,0.5535244915800586,0.2650346593492894,-0.2369116735288123,0.216264469515092,-0.6153245774764767,0.1332552122537871,-0.1189781647410173,0.0529156331377287,-0.0183858123712197,-0.3558981883978583,-0.2877922422156472,1012.6742586637864
2.042553191489361,1.4576329315025085,-0.7935726729530498,0.4076599371442306,0.2034079614826604,0.2690996865261441,-0.1513555642026297,0.4656014102157676,0.4115298493536891,-0.0501394348131141,0.3357530658434207,-0.9724862759054496,-0.2052261054361993,0.2518447090582181,1012.2762466813488
2.0525657071339176,0.9464777131003604,0.4055402437922911,0.0576021144813301,-0.0517803536014041,-0.0551108089606946,0.4070416684961292,0.6938024475233161,0.024148159141131,-0.050163384634182,-0.6849284732386851,-0.0039266040491217,0.4977127128999469,0.655872822002822,1014.308471039955
