Timestamp,Acc x (m/s^2),Acc y (m/s^2),Acc z (m/s^2),Gyro x (rad/s),Gyro y (rad/s),Gyro z (rad/s),Beccheggio/Pitch (rad/s),Rollio/Roll (rad/s),Imbardata/Yaw (rad/s),Mag x (microTesla),Mag y (microTesla),Mag z (microTesla),Altitudine (m),Pressione (milliBar)
0.0,1.0190244625537468,0.1837538872398885,0.0518066336424847,-0.0521011303031369,0.0842362385576563,0.0564970729859086,0.1836412265629521,0.0043803671507479,0.0980131637814306,-0.112082924682549,0.0979042279764604,0.0354633906946032,-0.0905657425682128,1013.2323201950398
0.0100125156445556,1.0334050819639673,-0.0774760666633803,0.0662152823743701,-0.0805783843323738,0.1306282853410863,0.0333484451273272,0.0733434317445881,0.1455333804548237,0.0078180301474665,-0.0211174190935111,0.0265354822173155,-0.0529986183033229,0.0617217510519064,1013.1726237963244
0.0200250312891113,1.049876105780725,-0.0815064466558175,0.1503422041907792,-0.1779115090237146,0.0004644966519511,-0.0946761830148248,-0.2375057185999151,-0.0879902560842353,0.0406039708510598,-0.1206070286947592,0.0169300650259382,0.1481828064396843,-0.0170078198024606,1013.2318435628688
0.030037546933667,0.8470130041702734,0.0964201556438876,-0.0763600104036556,-0.0472989856062786,-0.0721340340438478,-0.0696406529913628,0.0338402461448014,0.0295207054892561,0.0173115937296367,0.056235696554151,-0.0027464135189496,-0.1769175844854875,-0.0515196041844308,1013.4184739970336
0.0400500625782227,0.9024126389283657,0.071497182491115,-0.0226948476627279,0.0987988958717822,-0.0302815617997059,0.0139897594683106,-0.0160095098318526,0.106531265672038,0.0717523794012811,0.050849147034675,-0.2023445243392874,-0.0145214607993898,-0.0867886625343794,1013.25460578784
0.0500625782227784,0.8547392921773302,-0.3746727404478761,0.0798410228533193,-0.0141499200358471,0.1921575936295681,-0.0055983848816481,0.0019715938115378,-0.0242997930409142,0.0288876188653004,-0.0395405345533398,0.1224179208739566,0.1705027074080935,0.0532925634204432,1013.1005894979968
0.0600750938673341,1.107985039799014,0.0169308106079648,-0.0399129083149033,0.0189616890970824,-0.0029296981668415,0.1972031228916489,0.0221077458218334,-0.0240836158659028,0.092962353340867,0.0184842127093876,0.0592982232885228,-0.1001330859347075,0.0104803820285013,1013.4341816060362
0.0700876095118898,0.981353593541871,-0.0929176206533216,-0.0234454761430462,-0.0034844471446318,0.0200875503839587,-0.0799426932289014,-0.1862869541929413,-0.0013780488100847,-0.1218245835566491,0.078033108432214,-0.0597461727118716,0.0939226327226498,-0.0602809601191755,1013.3066069189156
0.0801001251564455,0.8642860856474881,0.0502423512172305,0.1153289636797673,-0.0401839749266891,0.1515786537979911,0.0354274593204797,-0.1952046750084659,-0.1427681473509739,0.0288715905966073,-0.0272657640329037,-0.1433772044736077,0.046716400872329,0.0294649920513004,1013.201553158186
0.0901126408010012,0.9710858644622866,-0.0080865550572379,0.1076135937441184,0.0338903596591254,0.0892664613456714,-0.0328760611878574,0.1051655533321498,-0.0402846853780227,0.0353455138703868,-0.0649594336496657,0.1389702353153721,-0.1042859592063623,-0.0309804384605894,1013.2470433701836
0.1001251564455569,0.8915284115829325,0.1727107720777916,-0.0087417067707183,0.0353701122106346,-0.2565152366087997,-0.0622216327769402,0.2584557210710801,-0.0054646540410837,0.0284623005676596,0.1613556567501979,-0.0780808695622543,0.0984148111060965,0.122752179502225,1013.2750043988076
0.1101376720901126,1.0639230606141594,0.1320299312847508,0.1940402063599545,-0.1790982398136966,0.0412950803102653,0.1606104646935752,0.057597289514408,-0.0580049825494766,0.1284342750463405,-0.0132329137011645,0.0378253881145729,0.17167005320064,-0.0293332750749948,1013.3665273359536
0.1201501877346683,0.9424255420458452,-0.0525111765716303,-0.0648616084861241,0.205472824315455,-0.2033906983195303,-0.126032523223609,-0.0067575597690115,-0.0960004440336126,0.0086334331795648,0.1591890992959216,-0.0410300077363298,0.0694945426708194,0.0386227179215398,1013.2434761608848
0.130162703379224,1.0996474149045334,0.082423379362049,-0.0288772289099829,-0.0738130102892019,0.0533739604573454,0.0920361171875004,-0.1153854731195116,-0.0751446494693141,-0.1198829795659031,0.0199014993185594,-0.0959408514754932,-0.0763727670053499,0.0168407100499457,1013.244198892692
0.1401752190237797,1.0246560759943628,0.0615499409572034,0.1238310394603196,-0.1090710597253245,-0.1018781921773855,-0.0791720007702896,0.08961439939849,0.1656960554513377,0.001132262855339,-0.2613788854017628,-0.0147420996609834,-0.0126025288442928,-0.0077415072825832,1013.48400668184
0.1501877346683354,0.914865986333646,-0.0128980539792636,-0.0203090164009444,0.1272378259022311,0.0341033660991168,0.0408644928508216,0.0928732068248319,0.0278208801569527,0.0365028034853173,0.1838992767647127,-0.0144143934088629,-0.0293518934392662,0.0631161845532935,1013.2631146472906
0.1602002503128911,1.0704803834364485,0.132559434015951,0.0235348299845512,-0.1128145968653908,0.0383809070993815,0.0731743738002732,-0.1234533908726175,-0.076417842732195,0.0712582050993483,0.0798619071413501,0.0888395750172484,0.0278829480880244,-0.1104960679728276,1013.051460629302
0.1702127659574468,1.1306544380341677,-0.0425848365150058,0.2169958649180894,0.0872367253289507,0.0088858735716588,0.0559813436355072,-0.1777757798067445,-0.0138132588266151,-0.0849936280424871,-0.0712817634974757,-0.1769767223888392,0.0772183115122904,0.0698111338171164,1013.3228790248196
0.1802252816020025,0.8899365001265906,-0.0599703748896461,-0.0076696698446141,-0.1324771872620428,0.0529365775952802,0.0386304047348498,0.0351836964265246,0.0836818225746367,-0.2059787141018391,0.1647882856640849,-0.0199672430364011,-0.1858038002597266,-0.1619065260225201,1013.225275006583
0.1902377972465582,0.7834769865232655,0.0421448734713799,0.0810364032938079,-0.0179796759734159,-0.1232791407909649,0.030374644326155,-0.2792662081038299,0.1505155317559224,-0.001504129643211,0.0085512098107593,-0.0735514819168853,-0.0668563041583282,-0.0885648551780657,1013.2178899255453
0.2002503128911139,0.943295046709412,0.0281104334832253,-0.0258124802174406,0.0481451337328113,-0.048405019888773,0.1071869529258658,-0.0009468063484203,0.0570521492992272,0.0040133931660033,0.1257860226233587,0.017407517808595,0.0941196730655095,-0.0903006956811615,1013.1563702885592
0.2102628285356696,0.8134754319281531,0.0959486214728783,-0.0323847738195069,0.135220356678203,0.0055665252928284,-0.0695067263524043,0.0400143991907124,0.1974640401920309,-0.0551446477567627,0.044237262082864,-0.0821342592878405,0.0114196223225616,-0.1195022155585195,1013.1362935486576
0.2202753441802253,1.0546021420144518,-0.1350717447240633,-0.1115762021149142,-0.119484551924875,-0.1081614582355966,-0.0496696136806183,0.0164115342815663,-0.1538406179166264,0.2068295612464802,0.0908197710010896,-0.0419844948563549,0.037138852597372,-0.0507657054415415,1013.1227840717164
0.2302878598247809,0.8371584948504778,-0.0489643686977036,-0.1041514135589826,-0.1190074153775944,0.2483665829214559,0.0821178564151257,-0.0600173193612543,-0.0700812129861281,0.0619141614973661,-0.2037939724321267,-0.0507855799500032,-0.1269749540668291,0.1428479006946818,1013.1943225336362
0.2403003754693367,1.1256498943240538,0.15080510970075,0.0166370634466537,-0.1156679951842453,0.1574978967331189,-0.0411607552136178,0.0550007439026021,-0.1539435048135116,-0.0156093691506767,-0.2915487687708175,-0.0643775955033877,0.1255520448689391,0.1116797919041662,1013.2845275936544
0.2503128911138924,0.9925055352044792,-0.3194096116718891,0.0742501593198942,0.058792874952951,-0.0257140723109375,-0.0127101648797262,0.0882970389022751,-0.1349888502299638,-0.1361476356166398,0.0128593073771472,0.1354824835380415,-0.0472813822596251,-0.0406833026627724,1013.266876503671
0.260325406758448,0.8927324441855777,0.1434985389083297,-0.1113874480614881,-0.0511373835093546,0.0704124506126623,0.0798066986070661,0.2416461459655006,-0.0541637786659118,-0.0600285703824949,-0.0339781383249958,-0.0228438765698864,0.1102244624045446,-0.1476620562621803,1013.331007141712
0.2703379224030037,0.9369902032336332,-0.0677824977419811,0.0223907506771575,0.1039018243546733,0.2451220037448336,-0.0380158316258383,-0.0479832046295535,-0.0026221242010766,0.1431865504648294,0.0134258463864133,0.0215150363750316,-0.0011931547336555,0.1611366894594585,1013.2965794103596
0.2803504380475594,1.206720824337561,-0.1352148689498768,-0.0357884495767487,0.1572074567083228,-0.1477718823033042,-0.1094813567192592,-0.052561883548531,0.0542772589568019,0.0623712165897904,-0.1682820543500591,-0.0499435219192336,0.0005796909707962,-0.3350482119904095,1013.189697631161
0.2903629536921152,0.8859356971701808,0.0371924653608418,0.0991997787308317,0.0386148341824571,-0.1067040346459253,-0.0823089113561835,0.0127029213586839,-0.1300785116531917,-0.0511361045666123,-0.0420804143646521,-0.0288169669921814,0.0130205257058453,0.0475315525170109,1013.3838120360848
0.3003754693366708,0.9770831553836866,0.0579237606237869,0.0177356651199778,-0.0343946766105121,0.0880252618038183,0.086103647279529,0.0046360655453457,-0.0055671586438586,-0.1195171778399117,0.0129058396650139,-0.1526155358832782,0.0366917832183229,-0.005934931544819,1013.3706322628422
0.3103879849812265,1.0725854366343284,-0.0446087393730978,-0.117600813056046,0.1056465178943661,-0.0414258311363421,-0.000315837456257,0.0951563107289544,0.1279135407763381,-0.0071760149583901,0.0503616132637033,0.0401581689946468,0.1186206012697299,0.203083129179229,1013.213159833106
0.3204005006257822,0.9546247554231472,0.0782968506292936,0.1147264509606219,-0.0690791665071005,-0.1988589478665375,0.0489383039226394,-0.1461530722016049,0.0302541502071436,0.0161824525822741,-0.0127245033798405,0.2202872144391128,-0.0522182897573267,0.1863282753677264,1013.3162117103166
0.3304130162703379,0.8799029850887775,-0.0704033664312193,-0.0041858194508391,-0.0067459571663617,-0.0156443352230712,-0.0369289036373012,-0.0171620800085462,0.1233131099710363,0.1245113471335528,0.0946562939286917,-0.0070074789932245,-0.1393078647679419,-0.0240117824222463,1013.260114812912
0.3404255319148936,1.029940081312936,-0.0517150404954007,0.078102625403161,0.0160440877060325,0.0484154928526217,-0.0932097009031503,0.0013405932241748,-0.0502230273709516,-0.0772973001737439,0.0560747322502528,0.1922516613844494,-0.0164057592239606,0.1492849054023651,1013.2957914377478
0.3504380475594493,0.8405304164149545,0.0517433720145228,0.0903413455332107,-0.1416693326103411,-0.1535954445544262,-0.1091745938234982,0.0446377107500072,-0.1830475530703818,-0.0275016162133614,0.0100828980068982,0.0603503382562314,0.0893431311231109,-0.0739249984704751,1013.3346145877292
0.360450563204005,0.8786358990127577,0.0444471703497279,0.099907241038469,0.0397891077671533,-0.1096363989577432,0.0279941224228555,0.1239784529247421,-0.0129582151646422,0.016723370616913,0.0337681498184209,-0.0459486880630589,-0.0159754534403282,0.0408777080226604,1013.2077796723056
0.3704630788485607,0.9710303966807916,0.0312352869996096,-0.1929653624776109,-0.1292110169638356,0.0112581491881682,-0.0509389529358972,-0.0197402193378242,-0.0127957898231899,-0.0176796328757088,-0.0380145389384125,-0.1152581401554902,-0.0137139567015338,-0.0286265073942874,1013.2226720103172
0.3804755944931164,0.925920686493689,0.0714492460005919,0.0281440001470219,0.0752166303159967,0.1201173764944013,-0.2859513134793881,0.0657416757387565,0.0111065363948037,-0.1125115655830161,-0.0691107627347096,-0.177149306854884,-0.0033099331607214,0.0279057476065593,1013.213811464501
0.3904881101376721,0.976210021328964,-0.016893207603223,0.14414372582822,-0.0316442387505866,0.0822840253299195,-0.0709906412542324,-0.0341406113438677,-0.1109497506265928,-0.0440780912675015,0.1422938252985996,0.0452151706049385,-0.0686613961067532,0.0403735241138279,1013.2849630225612
0.4005006257822278,1.0553477708504535,-0.1747691519234919,-0.1699623064433329,-0.0557209088786039,0.0603390825625299,-0.0449181306759441,-0.1009950029705208,0.0690255141925604,-0.1696631294295577,-0.1044152627569532,0.0147464035384857,0.0839083729155558,-0.073665948930445,1013.34041470989
0.4105131414267834,0.868865214962181,0.1503539030985297,-0.1283166056274597,-0.0767491418837031,0.0578886968046731,0.1960643851551379,0.079441460982958,0.0256721770480166,-0.0488972842519617,0.1584493847800436,-0.1250428374716064,-0.0129254858102205,-0.0173279051994648,1013.1393891394806
0.4205256570713392,1.0240280681934586,0.0675576780346262,0.0384015317503747,0.0941334266666854,-0.0106581968255717,0.2602766604504056,0.0623157081479825,0.0245365800960145,0.0628694952075413,0.1588267155610794,-0.0453189801077087,-0.0938322764387979,-0.0313922832734913,1013.3616757110856
0.4305381727158949,0.9193019309677894,0.0630874246453204,-0.0442678879094564,0.0326089894544145,-0.0590067823398038,-0.1216483926100064,-0.0364605873365337,-0.1042019447800766,0.1628142541817671,0.036885358880364,0.2731205974250589,0.0064009919952871,0.1381842521640125,1013.1277492635602
0.4405506883604506,1.1090800291938725,-0.1306014915654489,-0.0115934855433016,-0.2236407016060487,-0.0618761686637361,-0.0651496172721174,0.0445612287866893,0.0065011050281875,-0.0105538809840677,-0.0023768413529745,-0.2058676983903313,0.1541978064805103,-0.0804165120122476,1013.2129749941626
0.4505632040050062,1.111225708011176,0.0240268281856271,0.1119575463719481,-0.0607260704852884,-0.0832155666871233,0.0840278039589795,0.0534283847525955,0.0254780623793542,-0.1959891689013204,-0.0278800346761663,0.0527881023632072,-0.0556823698626097,0.0855656649820464,1013.2301963996229
0.4605757196495619,1.013759705233206,-0.1854650341789587,-0.1470917461169935,-0.1944311145434948,-0.0340944679187139,-0.1574861308187374,0.1144827408673418,0.0988369981367102,0.0073110246262132,-0.001516644073225,0.194028431885705,0.2018478957310006,-0.0100843267608196,1013.2709745103352
0.4705882352941176,0.910085076668878,-0.1483040544000867,0.0167655020824346,-0.2159322876147973,0.0143030207793983,0.0039607549673783,0.0456957693820826,0.0619372470826163,-0.1449558119547923,0.0236574990645706,-0.22952789977192,0.0485535553222867,0.2013088785797613,1013.1619559002733
0.4806007509386734,1.0958377650712543,0.1371190030329284,-0.0748563569960857,0.1366931952912831,0.136816841690705,-0.0186301720879642,-0.2757554990951207,0.0487346175958006,-0.1454017783308197,0.1014685107119944,-0.095435274102303,0.0374912565397648,-0.0033820763203469,1013.352479019617
0.490613266583229,0.814784457803869,0.0955041637514043,0.152979907636328,-0.1293821532384434,-0.0812912562246763,-0.0074241273709547,-0.0506587148972523,-0.1984294920873705,-0.1723510985202661,0.1034958304565703,-0.1849674284142833,-0.0308904700530313,0.030663319892682,1013.4576002644372
0.5006257822277848,0.9470794842780348,-0.0348194144643055,-0.0606002737858138,0.0643933480832728,-0.0087680621014429,0.0933074501893244,0.1368293987916568,-0.228866091175922,0.14115962108879,-0.0876643932957546,0.0270627767300074,-0.0075993372433433,-0.069054450932792,1013.3119043404448
0.5106382978723404,0.6274777086488972,0.0317095984719579,0.15287909555957,-0.1818299602702371,0.0046872108971853,0.1236304409218555,0.0670012268839816,-0.0625087959597252,0.1236069131955374,0.0007734791258878,-0.1413127530378836,0.1338963101672006,-0.0316040400207511,1013.3363110833776
0.5206508135168961,0.9316285871932452,-0.196456104450695,-0.1307778584277222,0.0580334862254133,0.0462178243325249,-0.101070556359856,-0.0952609079920237,0.0646027942123497,-0.0381349639540527,0.1768136592601735,-0.0680290500706218,-0.0047688516165061,0.2212209633774594,1013.3114406839828
0.5306633291614519,1.023164034688083,-0.1258215287304513,0.0040595746259226,0.0784528006619124,-0.0097858063929703,0.0527946060635467,0.0098261341589231,0.0560553887487669,0.097295891828593,0.2084475682596487,0.0270234964631783,-0.0291766638571292,-0.0473525492705357,1013.139780213248
0.5406758448060075,1.0045137605842804,0.0575022040543205,0.0504310550127696,-0.1063898627425289,0.0533637843530197,0.1765875316653691,-0.0248706651506211,-0.0348863165008122,-0.1462638987297531,0.1445380657014751,0.0391227363010843,0.075720885335457,-0.0049593604285365,1013.2578192636656
0.5506883604505632,1.0344519661381475,0.126214001602007,-0.0949477185608122,-0.1705060057982746,0.2274382911335202,-0.016411852117961,0.0877114785658093,-0.0432556631308801,-0.0997681385559536,-0.0091026738774287,-0.029110861337354,-0.0294066442588498,-0.1373329089181774,1013.199422253344
0.5607008760951189,0.9348402419394302,0.0546288878165848,-0.0740468097303684,-0.0001079305096533,-0.0199625716887215,0.1465022318060057,0.2332976447521221,-0.0456640610121933,-0.1080758429725642,-0.0433784931084845,-0.056739821245514,-0.0125480217873348,0.0281130305375845,1013.2686057761726
0.5707133917396746,0.9213891940222187,-0.0568887711565828,-0.0974906453884268,0.0552065851111935,0.1059542185610257,-0.2236644404706855,-0.0307757445416038,0.033847299528499,0.0234017744562716,-0.1159626073634112,0.0603744618621261,-0.0050469594050193,0.0040626132900552,1013.0857077918656
0.5807259073842304,0.6964209280721425,0.1271326717716005,0.0140489347766936,-0.1267817887175432,-0.1085659856580382,0.0376162891435627,-0.1077173148042005,0.1141337213505716,-0.0495687748107227,-0.1049643451226097,-0.0562046887870519,-0.0739508186997934,-0.1288480394597344,1013.4482575567216
0.590738423028786,0.9771801859837312,0.0083098172489242,0.0123549848659719,0.0336154820681374,0.0118260811401641,0.0466806054407274,-0.0474377358160576,-0.0621234628707807,0.0909008769053435,-0.08503960315971,0.0074192425286438,-0.0646427556421352,-0.0854996547407306,1013.1576210910162
0.6007509386733417,1.0479961922836187,0.0123818007840043,-0.0740736243730632,-0.2066623397418332,-0.1500713701248579,-0.1627613317595766,-0.0272278327364963,0.0726855902294092,-0.1960326773905257,0.0065333737678894,0.1628294291529409,0.004194190255586,0.1153683581974213,1013.1568310524876
0.6107634543178974,0.9711082878208632,0.026522815657043,-0.000498030312806,0.1252886125757971,0.1350411817154862,-0.0624871757337495,-0.117242296110744,0.0586660042647697,-0.0762446314133274,-0.1638025260160829,-0.1631551268294092,0.0026687223855939,0.0092596365108528,1013.3041153812378
0.6207759699624531,0.9812049281620588,-0.0936866960237213,0.0970900614965966,0.0454095342281284,-0.0553859307193251,-0.0312275887518953,0.0666919375512524,-0.0403102240929029,0.0303235519435924,0.0499675959188069,-0.0780592372661265,0.0070725866777422,-0.1799852612884461,1013.346357232835
0.6307884856070087,0.8667305714603848,-0.1926732501965651,-0.0597370708218988,0.1247517145692018,0.0201649271703259,0.1912526928939946,-0.0196393322496193,0.0623983673106697,0.1249663197714813,-0.1003616551316073,-0.0458951266197924,-0.045759718301818,-0.0573250070993366,1013.2269615262402
0.6408010012515645,1.1301187631940517,0.0542907805080717,0.0536971321448437,-0.0548544865023209,-0.1173821239803956,-0.0510617916565855,-0.0718785082735766,0.0387424427894852,0.1563056592909056,0.0520870835363192,-0.0983155649348662,-0.1107083045593258,-0.0078922406326192,1013.1491012988548
0.6508135168961202,0.9470208171484708,0.123415549977806,-0.1920403387640725,0.0204308554124529,-0.0096865530940572,0.1564744127540219,0.060288293442045,-0.0798320745241824,0.0428545032858476,0.1749290948930032,-0.0678042208457532,0.122814787712867,0.1099588352900473,1013.369179491331
0.6608260325406758,0.8296440066879821,0.0887400861193234,0.1167653996239756,-0.0017846332048769,-0.0883357068901402,-0.1069216952291721,-0.0675154483772512,0.0855892044093816,-0.1529501097502468,-0.1885187658040283,0.0402172283412443,0.0534104640496182,0.0654335695537014,1013.225728556378
0.6708385481852316,1.1001505646274712,0.1679748046495954,0.0274069206692654,-0.0782425800090384,-0.0516908870023842,-0.0787307203984599,0.1172036195314466,-0.0739384000587124,0.0090805910941337,0.1901950566965426,0.0279714184878505,-0.0004459851718563,-0.0604967003246305,1013.2755994114586
0.6808510638297872,0.9283587432940992,-0.1890176168722482,-0.0394423163010141,0.0233484958384044,-0.2104750082806564,0.1813603196695625,0.0199565073381533,-0.042501921146595,-0.1070532687373873,0.0940545974164072,-0.0506503442061592,0.0078621170358238,0.1402449038626246,1013.1322718398488
0.690863579474343,0.8091498620261066,-0.0425984308904634,0.2381532030854555,0.0011430705040286,0.1391362043317915,0.1051321201125765,0.0712895120915991,0.0443625830381462,0.0024406096580561,0.1369837263738232,0.0257540783400102,-0.1792080320529502,0.0215248179071304,1013.2683821363636
0.7008760951188986,1.0446912221076974,-0.0318845863635415,-0.0590405037489763,-0.0350000925436032,0.0535711104407048,0.0457013524029986,-0.1120445678552187,-0.1508813442490616,0.1438207363752036,0.0248496504401891,0.1769560237469675,-0.0729913046245276,0.0664310412008901,1013.2293281609224
0.7108886107634543,1.0084974437589356,-0.0519270273740252,0.0815552609348171,0.0317762292549075,-0.0629304629720202,-0.0875918016195247,-0.007494738335236,-0.1195509168223859,-0.0790526630929437,0.0183094265285468,-0.0589697123666664,0.0936623200005535,0.062026524862529,1013.2974369380591
0.7209011264080101,0.9853076605578172,-0.206163971366769,0.0623882679350981,0.1128028010287236,-0.1975710590736565,0.0856753112563807,0.1040111298227168,0.1148058273174191,-0.0997136951292483,0.01169631217847,0.0063670726183531,0.0377956146488327,0.0884480317480285,1013.2498045353803
0.7309136420525657,0.9183226120128364,0.1797474063979962,0.0737105919288057,-0.0749372723772645,0.2378583306647798,0.002676660946339,0.0854726980414581,-0.0625178124589914,0.0143283321419782,-0.0281994763304043,0.1787854572129363,-0.132081534084728,0.095934123265608,1013.3654701346414
0.7409261576971214,1.0195953194171965,0.0069992018726082,0.0459102964019837,0.0285963862163508,-0.0132991875454897,0.0262008490347107,-0.122273858236014,0.0735608053393309,0.1145708885446868,-0.1481713727705062,-0.0447194016162683,-0.0206483741150877,0.0806645651489796,1013.2247414838154
0.7509386733416771,1.1570171389039974,-0.0189537878350509,0.1254068412595624,0.1330064664514237,-0.0109784946177964,0.0545492357368637,0.0042700189500724,0.1719051992067839,-0.01602492659428,-0.050882515619073,-0.0307824042832937,0.1263413691401247,0.0716829948422583,1013.1627215049616
0.7609511889862328,1.0649545568675731,-0.0363052654317471,-0.0888667931202866,-0.0874775747485272,0.087413445750315,0.052785182790074,0.0775269163390585,-0.1847490865546069,0.0441786669883426,0.1230527962710434,-0.0501404199373547,0.1111573844689638,-0.0584945660969315,1013.3069831859732
0.7709637046307886,1.0190840811990294,0.1391583257135495,-0.0481107694642966,0.1381745297032766,0.094966105153324,0.0412716771309412,-0.060192279595619,0.0976839131821876,-0.0627320638049488,0.2748804419061307,-0.0915907946046134,-0.0677607907940636,0.1189404737419712,1013.234460003802
0.7809762202753442,1.0353711551301807,0.1059837642219693,0.0465941720667693,0.0290102198883638,0.1300956865209496,0.0622182283087624,0.0549625185519603,0.0989767159012383,0.0153538615047662,0.2228236418268185,0.1714551727742089,-0.0701503574241891,-0.0752497380252726,1013.1884476918946
0.7909887359198999,1.031749026139393,0.0728426233898953,-0.1178464058863993,0.0847686110640221,-0.0902351624279469,-0.046582674974202,-0.0796211326246035,-0.0155124537107996,-0.0162844836081334,0.0341354881260121,0.3127286899479909,-0.0391497138348004,0.024110947618659,1013.2747969443536
0.8010012515644556,1.082854704473938,-0.0796280380866337,0.0875409376412547,0.0245594366663499,0.0502336289990819,0.0561094561213925,-0.1237020795382839,0.1662844297720815,-0.0392308744090066,0.1148473151179905,-0.1157175829165644,0.1000743096135591,-0.0547635118557131,1013.4792168496044
0.8110137672090113,1.1562402472493631,-0.0150556620542738,0.1184061705035814,0.0818524359412925,0.0117525063533875,-0.1730580274510951,-0.1396246292833591,0.1184508224673529,-0.0929367713059194,-0.0700582492810282,0.05252963591135,-0.0730539999704644,0.1140173927636369,1013.2220028946524
0.8210262828535669,1.0021470110957384,-0.0279023360696148,-0.157919956501786,0.1064809765660723,0.0479517594675392,-0.0733883383268941,0.0579459886163551,-0.1071627133724772,0.1535290602688344,-0.1350874596713564,0.0293411486600562,0.2121615833265094,-0.1427223190361847,1013.1050822610354
0.8310387984981227,0.9500118121699416,-0.0468840689955122,0.0560958630348082,-0.0283638227408364,-0.004657846280814,-0.0100723826340726,0.2046643386651482,0.0010465505921582,0.0522446820083677,-0.004608594760151,0.0813165444021657,-0.0093043210873732,-0.0579199439376139,1013.301516884337
0.8410513141426784,0.8474913610134315,-0.0594995162661492,-0.112779905908312,0.0572272274697193,-0.0668183216617748,-0.1020785635023661,0.0571158453135205,0.0482642039997303,0.0121190603419751,-0.1403712141731124,-0.1270941712193306,0.0243318386333934,0.0458481541555628,1013.1393527922498
0.851063829787234,0.8433023926749845,-0.0596519710291335,0.04892717872218,-0.1732247800047644,-0.2396930230958346,0.0596430965567202,0.0306327564461678,-0.2136451958272528,-0.1268674956632275,-0.0423604590271413,-0.0478126419432109,-0.2021398363828155,0.0711344828024771,1013.3546324311734
0.8610763454317898,0.9895484919946074,-0.0339839906404238,-0.0241331756505982,0.1304091356336308,-0.0508186671907579,-0.1833843584860325,-0.0983188766663921,-0.0628099879719921,-0.0182537279908147,0.0816795398348463,0.0477105040152803,0.0060542030879641,0.0889085907789542,1013.190530432644
0.8710888610763454,1.089078845343466,-0.0388506217604954,0.2077518548121625,-0.0203550570671007,-0.1468565515131332,0.0599656580896997,-0.0918293383317717,0.047525182328216,0.0993415405706587,-0.0395658878157245,-0.0535094614430207,-0.0261174629885843,0.1095399677618868,1013.3250494592472
0.8811013767209012,0.9182428943150286,0.1718938458132235,-0.1187820718099299,-0.0409292666542449,-0.0174306017807546,-0.0183953829957641,0.0757561291026639,0.0272725654387676,0.025937699471469,-0.1014973454046287,0.0294588290177524,-0.3328958526890341,0.0141688108520182,1013.2206355404912
0.8911138923654568,1.0253129124980505,-0.0143868623061315,0.0539473937844107,0.0562574849758538,-0.053309910998597,-0.0878184457352812,-0.1809764716278936,0.0874958765607764,-0.0671597635116376,0.1400607608666743,-0.1353976245652322,0.0140471119160561,-0.0079470000036975,1013.1381915518097
0.9011264080100124,0.9532118572865834,-0.0004436767386888,0.095902741837304,0.1288261134053873,-0.0081595003398604,-0.054877537879518,0.0042279902110069,0.1276230317688883,0.0976246714893726,0.045376788005949,0.0116390800970839,-0.1402250468254783,-0.0544816070975555,1013.347223078922
0.9111389236545684,1.0306860235772082,0.1349643643585438,0.1294026807534254,-0.0368087097751449,-0.0091500580240075,0.0300443465509384,-0.0147036685096671,0.1770969687513529,-0.1323750959788792,0.1330502206804865,0.0636288256396171,-0.0553651237442616,-0.2134241610624767,1013.1467037831284
0.921151439299124,0.9199873140391616,0.0090379585110933,0.1033796992346489,-0.0230268656899458,-0.0024810431355755,0.142470643601094,0.0068370138233912,0.0346151101889364,0.0070755057983634,-0.091653586788438,-0.0554320205562741,-0.0289591977315218,-0.0701332276224389,1013.1715232567204
0.9311639549436797,1.055345776742679,0.1157455621961882,0.0557326055899126,0.0089910567366974,0.1658481507262089,-0.0858607864143131,-0.2016336776552453,0.1411005190089478,-0.0046382606904527,-0.0339625884187093,0.0783954788605134,-0.1229996836411447,-0.0865532417984938,1013.0937240070574
0.9411764705882352,0.9781694410493256,0.0353065948527114,-0.0236090265855216,-0.0428991773487386,0.0046125115100443,-0.0500737489928177,0.0356280213120161,-0.1075747441941316,-0.0919879296277401,-0.1078030195672726,0.0553167348223515,0.0679297958794814,-0.0084654004863461,1013.23001539618
0.951188986232791,0.8337105606775252,0.1816083445505792,-0.1896155479680803,-0.0190660187978153,0.0658943241091144,-0.0316738792730258,-0.1441389983211561,0.0622233107585597,-0.0379438163391065,-0.0262516214044548,0.0939003861610054,-0.0317448007340949,-0.0355118931189263,1013.3531471797944
0.9612015018773468,0.8621752558732476,-0.0033477388672773,0.0876517664978484,-0.0804895411148419,-0.014208916412735,-0.0854748545301844,0.0004063275755983,-0.126938861085417,0.0094591894599853,-0.041710289751874,0.0169056165531153,-0.0613780599977348,0.0505995380418005,1013.451291119313
0.9712140175219024,1.2800563002652527,0.0266830593823183,0.0565353590865523,-0.1354215182927051,0.1001978281194471,0.0347272328678788,-0.0365440882248938,-0.1244989792443941,-0.0340120736109273,0.1135634707244221,-0.2199241667072719,0.163400840225481,0.0705019338756799,1013.1564931161096
0.981226533166458,1.1958180017700824,0.1250520621187824,0.142320358594592,0.0059120052401237,-0.071399256935342,-0.108129822891454,-0.0279361030034829,-0.0400581462977575,-0.076387111621884,0.0505696788785451,-0.0708091307158905,-0.0360847863552479,0.0961721316101893,1013.4189728230994
0.9912390488110138,1.0152178473817757,0.0137440453923272,0.0049862539121468,0.0895255260725459,-0.078083934689643,-0.0971643725558074,-0.0178063491827892,-0.0852552608549727,-0.1649993729964405,-0.019070210168871,-0.1189791292269348,0.0163767519610719,-0.0272335917316826,1013.2651509709008
1.0012515644555695,0.9850746866811376,0.0597172690498846,-0.0532964572468224,0.1641643785423819,-0.1076564281448296,-0.0514231770002398,-0.1545156674431849,0.0919694021918041,-0.0071918765073408,0.1198247364650428,-0.0514043768128168,0.0119999447064557,0.244921020773751,1013.4932360252352
1.0112640801001251,0.91357686980204,0.1883589288648629,0.0341060813537937,0.1620139798999152,0.0751394499155785,0.1506754561635899,-0.0231991825008032,0.0530814708251542,-0.0169700285064142,0.0512780858289473,0.0583310218995514,0.1348579422918134,0.1241011947471102,1013.244902613719
1.0212765957446808,1.0380423612668703,0.0533751984598792,0.0557930871128624,-0.0707058334351998,-0.0733672340860683,0.0770243486740544,0.2593725285700795,-0.0891092348433809,-0.0906551546627679,0.0150666340153359,-0.1117698023498362,0.0449506273522611,0.0507174722742376,1013.2786035042748
1.0312891113892366,0.9793130319084712,0.0144712608816321,0.028665942710638,0.0325588011744703,0.1054708136480074,-0.0469922538836515,-0.0206294504588593,0.1233215837989673,-0.1633270548059513,0.1063953927779119,-0.091720874840194,-0.0303487852427408,0.0180247508674366,1013.3848104584974
1.0413016270337925,1.007063134903067,0.2378012541268809,-0.0722128888522992,-0.0698417521075818,0.1325500543832952,0.0472681466105652,-0.1103160094694643,-0.0495939826262651,-0.0031853500782273,0.1381974624066893,-0.0505335461260191,-0.0304982236882921,0.0096468485446476,1013.2155308650372
1.051314142678348,0.8282476852090902,-0.0590802185946156,-0.0632222202385829,0.0524604259167213,-0.0877856130724837,-0.0809484182762067,-0.0292699465807049,0.0612889523380761,-0.0410544824450659,0.064853201224218,-0.0737507726039065,0.0627331551054215,0.0797279379506967,1013.1437294337876
1.0613266583229035,1.1462205847310172,0.2509317733084197,-0.0385570659604061,-0.0576447954293874,0.1035591229230812,-0.0423007414211531,0.0902566591100766,0.0934634397561523,0.1358879688071238,0.1307473785326706,-0.0946235271966569,-0.0608554192990708,-0.1251356063327296,1013.2876604827712
1.0713391739674594,0.9747534267736162,-0.0204994390635858,-0.0424593968552787,0.1817969560759454,-0.0788913395489332,-0.0134578438692671,0.0376100458740388,0.0465366411985145,0.1304457517903673,0.0775402414818405,0.0327329762704595,0.1464008672040898,0.0646819446934453,1013.1945832780822
1.081351689612015,0.8956159682006986,0.1453699021083831,0.0144353099713804,0.1046348263919808,0.0401796334285019,0.0317770193267912,0.1714182138701772,-0.0624837303578796,0.0396911084694281,0.0448477035394146,0.0022396627706642,0.177329534160189,0.0222490092237139,1013.2189397405672
1.0913642052565709,1.0771839079245304,-0.0397069705671859,0.0487579943973401,0.0649964286477248,0.0314236662820827,-0.0703394521007846,0.014763752394356,-0.0675853855603841,0.0003601210136458,0.1298275970599192,0.0034490247280707,0.1150059648625385,-0.0316240812711945,1013.172610346909
1.1013767209011265,0.9471494275612552,-0.0957621360117292,-0.0984094004836889,0.1019781512410948,0.0139940013055534,0.0044596547392783,-0.0727948572993023,-0.1582228039366868,0.0047112173431185,-0.0597015748162462,-0.0450543216841322,0.0502540320278737,-0.0514848072075473,1013.2864139560896
1.111389236545682,0.9392424338247248,-0.0909957403851845,-0.074215497182314,-0.0248335064257659,-0.0456489311161625,0.0399240160742887,0.2305608407919704,0.0438399143909113,0.0467903027402654,-0.0198180263910099,0.0274700605620804,-0.0368628737020359,0.1559627023674216,1013.2978747341452
1.1214017521902375,0.85675903573601,0.0263256036641365,0.1518662481490529,0.0362004902953872,-0.0373594603504461,0.1502377094240472,-0.0283615229520736,-0.0155315199914906,-0.153026463085788,-0.1270760621467748,0.1185216211813917,0.0535805549036838,0.1322867196303798,1013.2834698151596
1.1314142678347936,0.8079670153585571,-0.1975448190027801,-0.1321084928004874,-0.1395584118780125,-0.0253775636051792,0.0275950947415846,-0.1472945607674331,0.0009827394157584,-0.0621413664270109,0.167402890110827,0.0752969652370856,-0.0184675036740103,-0.0581357537638246,1013.4428140285044
1.1414267834793492,1.10718925077969,0.0027477880345318,-0.017156108878984,0.1456862963475384,0.0193757064829172,-0.1024950865995291,-0.0576748280048035,-0.0352153814411735,0.1272648864931137,0.0271969001707095,0.0282579266145182,-0.0440338516840334,-0.0606121609763016,1013.2627860510948
1.1514392991239049,1.24006607135072,-0.0112905266795155,-0.0529660203597498,-0.1550228841342052,0.0234162960638518,0.1340240986175707,-0.0011296832457845,0.0986041589709516,0.2185119944192112,-0.0391699857351872,0.0468593065797595,-0.0929923064709079,-0.0063696047610139,1013.2679801807844
1.1614518147684607,1.207742346879956,-0.1019329663030863,-0.0369934233404068,-0.0252188460021873,-0.0057006024587078,0.0683007428910754,0.0874617594627266,-0.1546499169081823,0.0578618782774825,-0.0470468804039871,-0.1552212294360596,-0.1008962870162267,0.1697048782646206,1013.2749728847958
1.1714643304130163,1.1636381202983188,-0.0013070314733773,-0.0188751116190386,0.0322584291961223,-0.0687890424545828,-0.0450142953637391,0.0244081140795548,-0.0944301329875393,-0.0441378980241486,0.0167846264203258,-0.1820200318266927,-0.0893744860250336,0.0865020178952194,1013.2997601038294
1.181476846057572,1.032200252154303,0.1577704703131051,-0.0628869167118567,0.1988380701159653,0.136832462989142,0.028952336438905,-0.0270954974415127,0.012326992526315,-0.0174069990287641,-0.0480409336353404,-0.0922695694516048,-0.1262704376820423,0.1090054126076224,1013.2658321790068
1.1914893617021276,0.9553408033212808,-0.0113409676946915,-0.2017094473288807,-0.084662618548827,-0.2040508040706814,0.0250449441936501,0.0264228657788522,-0.1275621230790563,0.05879261070508,-0.0823108844138333,0.0020901245327051,0.113047967996447,-0.1403627274742383,1013.279483948574
1.2015018773466837,0.9589304059845872,0.0724243717451218,0.0721420671958595,0.0435439256249135,-0.0124584124050666,0.0171881374282439,-0.140170049458006,-0.1158206196397006,-0.2223148293794995,0.0646251173650825,0.0404077124992275,0.1017633089096505,-0.0863422917635435,1013.4254198879833
1.211514392991239,0.9956042682975728,0.1152725006485092,-0.0814979088156986,-0.0321057820312586,-0.0844633222803933,0.0094386290883434,0.1524425110993205,-0.1186609534744878,0.0725012786082466,-0.0277522557594368,0.2540238808978945,-0.0312318393551662,-0.024563099403307,1013.1933156645924
1.2215269086357947,1.0221977934524626,-0.1102530486098656,0.0518913766211027,-0.1072417852265041,0.065369113961643,0.0115284516044859,0.1286586719641325,0.2568012105968336,-0.0439819769302692,0.0470157199719493,-0.1253598587288339,-0.0815634865368008,-0.1686395213521699,1013.2490298152976
1.2315394242803506,1.0163778024122665,0.0541740985754934,0.0474277459061483,-0.2048908010235552,-0.0535099337987481,-0.1603441427176919,-0.0283245647465161,0.073076921364968,0.0328502167303267,-0.0264825077246819,0.0189202897547216,0.1333666613107031,0.0008954536009148,1013.2614789086608
1.2415519399249062,1.0111954812720887,0.0372785879801763,0.0076596395684261,-0.0683525639471262,-0.1145760142096958,-0.0476880884023572,0.1662708233153889,-0.0213794731965618,0.0252060758753633,-0.1864532342517795,0.1628284231873769,0.0002096737908487,-0.0220022062139253,1013.2328271814164
1.2515644555694618,0.8856090596633872,0.0746861482592755,-0.0655749201398209,-0.0264746544471534,-0.1502944159714244,0.0338801865497295,0.0707119896023003,0.2016540770122884,-0.1005955661827451,-0.0791222707962308,0.0316386555534335,-0.094144971646673,0.0964080799502951,1013.337410143444
1.2615769712140177,1.1205256626713287,0.0456202959476154,0.138348302171664,0.1038857982945308,0.1420297451459616,0.0409185473321493,-0.0470272074538586,-0.0139120700138672,0.0180063701390878,0.0423625623099806,-0.127362835124377,0.0731504345892484,0.0808498614453124,1013.0254947995768
1.271589486858573,1.103868804726769,0.0106973225141673,-0.0711800031134153,0.0275709346266866,0.0006517602753157,-0.0433061125182541,0.1469815760939845,0.0176200251144926,-0.0317013311472152,0.2007145953537872,-0.1456347730216957,-0.1986014501712054,0.0501903188745765,1013.3668245158116
1.281602002503129,1.0293873143892278,-0.1562783095670329,0.0013398689210075,-0.0179377237220717,-0.0264961051712932,0.0922197922441427,0.1064116170819594,-0.0828154785046497,0.0604397506482165,-0.0412047763801491,0.0242413205404944,-0.0974396922260822,0.0306075139950977,1013.5363795357442
1.2916145181476846,1.0943578692638734,0.0623300512046575,0.045968607824727,-0.0076338186889256,0.0374423503051917,0.1942106995517506,-0.1081320257420927,0.1503131929299649,-0.0715717867066878,0.011185325760664,-0.027834283488495,-0.0023662867358808,-0.0146962217189422,1013.2871691468664
1.3016270337922404,1.121227350712278,-0.0030638708933017,-0.0858564345457672,0.074569071803757,-0.0712253258626508,-0.0989304276626837,-0.0995179681441672,-0.0346574179877112,-0.0336191833694774,-0.000859449889394,-0.1190912508365443,-0.191951599430335,-0.0350687491513963,1013.3401606956552
1.311639549436796,1.0039677851934563,-0.0023494386979482,0.0755774822191294,-0.0130969032189325,0.0815374473478098,-0.0878903675627231,0.0715357958819697,-0.0525863409193046,0.0941117150124884,-0.1524974323810751,0.0401328779251734,-0.0886738004645911,0.0046826190102074,1013.261857789804
1.3216520650813517,1.1610650274467311,-0.0405060972467623,-0.1174736832831189,0.1477684914124837,0.1312510168817315,-0.0039512086722783,0.2396028307247371,-0.0307795105018854,0.0463040785461875,0.0586458740167839,0.012060584956424,0.1668228222129689,0.0611551181430642,1013.2325077931132
1.331664580725907,1.083611542480467,-0.0027943148093761,-0.0311274413829125,-0.0870562243458032,0.0937999905610744,0.1296267199579412,-0.1123194527510514,0.1183943747095297,-0.167236410440743,-0.1127723321705463,0.1485065798837514,0.091134003025734,0.112232011632072,1013.2441320016276
1.3416770963704632,0.8996734142358503,-0.005239634694498,-0.160742144333593,0.0195591997863443,0.079619684306806,-0.018714631438232,0.0158573064205842,-0.1116866542812917,0.0578395025793427,0.0328924761145532,-0.0230495240237125,0.1674394695957488,0.1353348010406192,1013.2689248168228
1.3516896120150188,1.1152591611953566,-0.100363510287676,-0.0093621949406536,-0.2292804610582846,0.0849222047786987,0.208733607858155,0.0293785391732703,-0.2515784441263402,-0.0938439084643382,0.1050859290009117,-0.0386667696686131,-0.0128836484721659,0.1469868598339565,1013.5050964955182
1.3617021276595744,0.944959067603193,-0.2439107499750892,0.0381921070356776,0.1415310226312901,0.0952612896373528,-0.0360671346196958,-0.0396380283401137,0.0011574695239086,-0.0865436789684649,0.0227253087581849,0.1045603826592388,0.0881071555259884,-0.0635238761232681,1013.1490016502078
1.3717146433041305,1.0753829751945734,0.0634751001597116,-0.0661827123805254,0.1629193513767791,0.1008729213096364,-0.072316412462729,-0.0607574200609526,-0.0012562051972269,0.097449179004388,-0.0424568306990883,-0.0157277896491805,-0.1316442216681399,0.1473133523903832,1013.282868095993
1.381727158948686,0.8721415531682564,-0.0527254805925787,0.0417148226244286,-0.1783715285478607,-0.0757413739801096,-0.0121705190696508,0.1007058924096568,0.1366328487040375,0.0894153459170534,0.0509051871374518,-0.0436361886730738,0.0665891306585853,-0.1928659389319373,1013.40749177219
1.3917396745932415,0.9955296041485456,0.0338303450009609,-0.1562121348278284,-0.1356622268362235,-0.0331762823433848,0.0509617071882152,-0.0214971333738418,0.0488472879851507,0.0024937782044095,0.1069617927366767,-0.1311038233593041,-0.1672195391828017,-0.1184804426664101,1013.1967308805516
1.4017521902377972,1.0827953308398652,-0.0286660719002432,0.0751112146031408,0.0731697082162624,0.0223338658450548,0.0517058349314468,0.0977458616708615,-0.0666676491701142,-0.1329390784235199,-0.0219898825299122,-0.1360993714609371,-0.2350259733018691,-0.0964584015374937,1013.2756590875968
1.411764705882353,1.2290031163609392,0.0366000500862725,0.0167767885276864,0.1841807480050957,0.019242652204877,-0.1555147496825029,0.0501229073901073,0.1246953368354469,0.0941990220221719,0.1012968654651231,0.0147286832071407,0.0152495567063126,0.1149991681732002,1013.2812141611876
1.4217772215269089,1.0529944597411045,0.1297202696806565,0.0165019529153463,-0.0433005218946894,0.0459839165516152,0.0984851240798442,-0.0881976578970305,0.0861993356947709,-0.0248796269059803,-0.0119269563507358,-0.1458963783556853,0.0223106484387504,-0.1111140604020532,1013.2595714234868
1.4317897371714643,1.1357455867532926,-0.0844978851547828,-0.0297692092459929,0.1018810943512052,-0.0260948819307278,0.1811774898805344,-0.121723408407848,0.1219594902080109,0.0559283090131251,0.0923840952965187,-0.0310071685549321,-0.0502224466193263,-0.1450348492091563,1013.2596861058962
1.44180225281602,0.8873416706897191,0.0793987871385956,0.0338699312086312,-0.069186942871648,0.0375276133712972,0.0961395099832359,-0.1097734135211704,-0.0182257115652118,-0.0784319321591806,0.1134553635312914,0.2207725787996186,0.0685910268469708,0.091331034517894,1013.3509282926424
1.4518147684605758,1.0543356445787004,0.0482419662438134,-0.2065164567066787,-0.0662270602209914,0.175331833554746,-0.021088223841579,0.021206253770459,0.1495988083123759,-0.1481808263757685,0.10707727171209,-0.1214669853527489,-0.070526788999232,0.1827972204100741,1013.1045215816544
1.4618272841051314,1.1186951330802013,-0.1570550062216956,0.156380091051373,0.1000429709559541,-0.0487537277896288,-0.1199566659445366,-0.1080049317193697,-0.0552140358078424,0.0743414926446,0.1461487517267326,-0.1810556252056144,-0.130088903730526,0.0597185113143712,1013.2230798390632
1.471839799749687,1.1916394579753251,0.2147496371463472,-0.0205072164941049,-0.1251498743028929,0.1474578694329128,-0.0964207527842288,0.0192910428237385,-0.0950014341140869,-0.0735859066722819,0.0375929265743506,0.0648551356615584,0.0893736394217768,-0.050817236220358,1013.2522847440164
1.481852315394243,0.9591960133673816,0.1400746400451893,-0.1807747595754896,-0.0963144510349579,0.0222863835033274,-0.0692342873240794,-0.0764000641193422,-0.0019582424331383,0.1140998926601525,-0.1018762084610017,0.07771931051144,0.1221686671581517,0.1208348200768285,1013.3763503495162
1.4918648310387983,1.0408232290043653,-0.0876726317982114,-0.0687871666638233,-0.0149309214734623,0.1520478340085561,0.0640541887832777,0.201568478221059,-0.0212911628414739,0.2538417605014658,-0.0268029422925443,-0.0217156232317373,-0.0376118744939435,0.1409921304280108,1013.2670887957972
1.5018773466833542,0.9032270361825104,0.1285269627937295,-0.0987050612098845,0.0105165617006999,-0.0312470366545319,0.0098302639487588,0.064101968406839,0.1267865573076445,0.0435201924658829,-0.0468982227248394,0.0285889739342497,0.0686438835846215,-0.0258664828181168,1013.33709994823
1.51188986232791,0.7881087871401433,-0.1527115084884599,0.0781907407592416,-0.037833769673,0.1473599527716675,0.0212688618146173,-0.0704352765785381,-0.0035159079944496,0.1318917452657307,-0.0591401430842807,-0.0014814421816857,-0.0782106859322873,0.0185000874873437,1013.252611030477
1.5219023779724656,0.9791154115982744,-0.1154069795507558,0.1337399825872182,0.0066481719864115,0.0094859052220735,-0.0110354753433865,0.0339611658048104,0.0398746807346473,-0.0651437154056921,0.2585721133237326,-0.0109475478852999,-0.0290423507208831,-0.0050004320185883,1013.3926892537914
1.5319148936170213,0.9986232978848728,-0.1177862995347796,-0.0326892691612732,0.0206855200213694,-0.0997901446449088,0.0136598285096985,-0.0045361268573637,-0.0699761589281479,0.0875204045479888,-0.192042613624621,-0.018501347983327,0.0800436859288792,-0.0119713201509641,1013.0383895203552
1.5419274092615771,0.9248728401583254,-0.1217256568003843,-0.0894039398436071,0.0843767738507145,0.0836776570162873,0.0169851877992096,0.0188975500729153,-0.2578026751444939,0.1334741090317345,-0.0427891274770564,0.1072570115019651,0.1654513869777214,-0.1524173188765276,1013.1543384683432
1.5519399249061328,0.8934824993709526,0.020818790668298,-0.0823245657759504,0.0316010465288574,0.1161323840215208,-0.0466038916698355,-0.076029191037012,0.0367403673657002,-0.0202828021716535,-0.0471368147828122,0.0320103007630014,-0.0185730782933926,-0.039031793124791,1013.3017631684864
1.5619524405506884,0.8726247135850494,0.0005786706939096,-0.2645087416373835,0.198584239852438,0.0293037689280642,-0.009067264417055,-0.008729434952296,0.0769248398572564,-0.0144473218957086,0.0233510238027582,0.0945475293582862,-0.0512612134983694,0.1462325314994682,1013.2706344962616
1.571964956195244,0.9176266478946328,0.0371318999288497,0.0345173034530536,-0.0669112741309673,-0.0267832225351854,-0.1840945586691542,0.0014354041248871,0.075633463472225,-0.0828653931864346,0.0237218981406112,0.0072184404012385,-0.1435605669772244,-0.0309506598127512,1013.1713646575896
1.5819774718398,1.1032471239058652,-0.0669133841371893,0.0088742002771398,-0.1302441596253622,0.0467998392848788,0.0919390150979608,0.0785828377424619,-0.1146038641097483,0.0422902158462001,-0.2544298243043691,0.179088108312113,0.0089842858557073,0.1180784086520885,1013.101772862085
1.5919899874843555,0.933421877615399,0.2020084012577194,0.021655167548695,-0.0095208245729518,-0.1040475068322617,-0.0231720090317977,0.1652263000403633,0.101482177842382,0.0360500280365732,-0.1444947204991368,-0.0665205228713427,-0.1168935034824108,-0.0114802530577396,1013.278461668676
1.6020025031289111,1.016105462446728,0.0875133193139873,0.0003503550330566,0.1134704602265665,0.1910701556622846,-0.0321581142237932,0.0121962605356109,0.099164658555574,0.0003523102272078,-0.137465693531694,-0.077970449676278,0.0503476695286515,0.1315599915310578,1013.45711905545
1.612015018773467,1.0678086617402578,-0.0215764663039187,-0.1177227954705543,0.0026886960274749,0.0584737189682844,-0.0532235007940015,0.1471965286937583,0.094732423219386,-0.0564262309189961,0.164920805209322,-0.1647569271321017,-0.02010805322439,0.0041168764317511,1013.4218628601604
1.6220275344180226,1.0949919751423869,-0.0501298241894054,-0.1284803601005525,-0.1419263051109691,-0.2249330650978032,0.0059854595619596,0.0273350454572912,-0.1178253277065404,0.0598361556205701,-0.0170000913442435,-0.0921497399796043,0.1088453596938647,-0.0555498721807867,1013.156005160981
1.6320400500625782,1.031406898468254,0.0011088886175619,0.1338276481341344,-0.2725533338964578,-0.0615109580546037,-0.1082925078870703,0.0122606305290657,0.0019108363211891,0.2083543625744687,-0.0218850307881291,0.0178303019305017,0.0834984333771948,-0.0004199857115731,1013.2781023294698
1.642052565707134,0.959009461313612,-0.1216221090148777,0.0675041019413431,0.1871881222537983,-0.0647521013786953,0.0638601964256875,0.0231630920573212,-0.0602206884687299,0.0047719913778868,0.097358303801949,0.0829686429413686,-0.0933867932321134,0.0723723657068899,1013.250068350322
1.6520650813516895,1.157931055693224,-0.1530059795533354,0.0914179149663862,-0.0664306214001604,0.1386475100104221,-0.0511457473059022,-0.0951911903102083,-0.2179255266239023,0.067038051762363,-0.0781193256935433,-0.0429811544459955,0.1397661707263156,0.000662072012287,1013.145900269439
1.6620775969962454,1.073570024135641,0.0992426823382264,0.1760951357942347,0.0697989405328975,-0.0300180895254028,-0.0729604071403569,-0.1224514647541197,-0.0959132436137428,-0.0740343209477979,-0.0589917535232888,0.1493289766725297,-0.1642678801612671,0.0768431154513422,1013.221394380196
1.672090112640801,1.035102687968747,-0.0391837974234439,0.0651942381727282,-0.0238058500157214,0.059443885286542,0.0007444215946453,0.2177240874967757,-0.0528285022776766,-0.1119869772020688,0.0308906721477897,0.0718547973162495,-0.0692561793024953,0.1132848489973359,1013.267979269569
1.6821026282853568,0.9793331029004886,0.0465421287383559,-0.0494009617046598,0.1517906603461575,0.147396941912749,-0.0426216099403928,-0.0808883043483625,0.0213833293763958,-0.1123963260043183,0.0025932483574631,-0.0055487764085207,0.0180579038143776,0.1083778294018322,1013.3194366807523
1.6921151439299125,0.875553044175111,0.0826104552329551,0.2456708256763494,-0.0686976318411055,0.0632911827541869,0.0446284691583457,-0.0664619134757905,-0.0161849586071666,0.0512194108621587,-0.0423801253577081,0.1776892421428663,-0.0287852941113308,-0.0828048718212626,1013.1571027020524
1.702127659574468,1.0539718062533057,-0.0381037451544913,-0.0062415311772546,-0.1322467428782694,-0.2302394356579776,-0.0146680673896272,-0.0684135649325607,0.0913073438704846,0.1922551687537738,0.0486551508411934,-0.0262146619155112,0.0067411693025997,0.0503871667977107,1013.1454668719756
1.7121401752190235,1.1946021396805393,-0.0156294152178358,-0.062982584064884,-0.1055422005894411,-0.1921401865550666,0.1645485276677188,-0.0396302128181408,0.040312092341691,-0.0879060378737912,0.0680316532446052,-0.0487145864083961,-0.1272592382573126,-0.013512571838235,1013.1414789895412
1.7221526908635796,1.2145004696058987,0.0749961806456704,-0.1900931587758685,-0.056303111566837,-0.0200721725539562,-0.0534145993988004,-0.1482365340821014,0.1119069424711559,-0.0237195080343961,0.1451251063140497,-0.0704538774597427,-0.0007588694169804,0.2558114960143298,1013.2591499852764
1.7321652065081352,1.069734938560081,-0.0019740718811867,-0.0735844056226596,-0.1369154377004469,-0.1603569681141294,0.0125242925010111,0.0703769197514192,-0.0344543812012569,0.0030740050432212,-0.0167767138572145,0.0460947915686196,0.0773475555491202,0.1376782268987266,1013.3266185792668
1.7421777221526908,1.0414006054605194,0.0579446505529183,0.1117328561443163,0.0341521522875141,-0.072405277041514,-0.0555000019333844,0.0441851006298935,0.0380566282182063,0.3093616868930039,-0.064659947551062,0.0194680413853522,0.0699105966649314,0.0163883229637251,1013.1141598303587
1.7521902377972467,1.0433249732961138,0.0268796856935936,-0.0555833655352055,0.1101830329651416,-0.0118146621532165,0.156670080237734,0.061346371505805,-0.0960341238336171,-0.0060919024993603,-0.0180842746980869,-0.0959743978237838,0.1370608065445466,-0.035209019795622,1013.3127137322144
1.7622027534418023,0.9767168142136612,-0.0099084192698859,-0.0171037657874336,0.0075578708262241,0.1803385246019487,0.0524631603892842,0.0405985831578106,-0.1022627997952582,-0.0491953306548082,-0.1121718679688695,-0.0836339203874888,-0.0789410182367968,-0.0076740846853015,1013.1676273812424
1.772215269086358,0.8546248921560846,0.1498660755149925,0.0728057581832912,-0.0396414401089408,0.0687512759411559,-0.0185292641831582,0.1332485283986338,0.1518393852490528,0.0974375806837029,-0.0182978699805887,0.1268061191057128,-0.1430891473412662,0.1070635434525844,1013.24590274209
1.7822277847309136,0.8260167889457801,-0.103824603256257,0.0703541189267312,-0.1039998916130041,0.0339960152321176,-0.0885683430455141,0.0313774492807297,-0.0909877317117793,0.189170013106016,0.0297228975149493,-0.1220331617548781,-0.1403102923953168,-0.0175901144790813,1013.1915116582184
1.7922403003754694,0.9970571032392346,-0.1109027440296055,-0.0618713021872817,-0.0962883206176624,-0.2228233124973718,0.0031332867369688,0.1009171449773881,-0.0284588307025677,-0.0604253978944244,0.080491864542766,-0.0264847374341389,-0.0716015027689105,-0.1046230472711766,1013.444137223132
1.802252816020025,1.0638324950275628,0.1502098124644084,0.0207127931123001,0.0239269243005362,0.0509898862114312,0.0627090309141581,0.0742149888601148,0.0803909662125805,0.0621287060045964,0.124594589117746,-0.011551915194911,-0.0040440670217252,-0.1526220659509454,1013.3089463208836
1.8122653316645807,0.9687556065155268,0.0353383239102334,-0.0514708477300226,-0.0694399434422246,0.1249105322125521,-0.0949815542643307,-0.0504400827150605,-0.1313389086963983,-0.1981574495854129,-0.0295106908546285,-0.0834945493158376,0.0409678577877887,-0.0176115672169666,1013.353266374042
1.8222778473091368,0.8338013603038069,0.1777339563904044,-0.1359763576310942,0.0718144170462724,0.1213873629037853,-0.0456156261001384,-0.0078200736504015,-0.0364321841262732,-0.0093099054742868,-0.0006020206570719,0.0807529201401198,-0.0295968670893978,0.0520065609250339,1013.2235812887084
1.832290362953692,0.9305085001032684,0.1006030002833681,0.0895603642143655,-0.0389948753825914,-0.0794686566972337,0.0258398600654566,-0.0432404325052448,0.0576725677512061,0.1168442589516516,0.029404615879283,-0.1080319432317124,-0.0928952884010832,0.1798093089505155,1013.2624297035431
1.842302878598248,0.9744067195448488,0.0758554222751674,-0.0827405661851732,0.0379967964020939,0.0912480882738988,0.0356325936314286,0.0481023013161753,0.2438210818965557,0.0491614214262417,0.1138770751450094,0.0788344549336173,-0.1409930231363619,-0.0452428245207999,1013.3211461277552
1.8523153942428037,1.0737710476127056,0.0382918458404398,-0.1050742047449054,-0.0975934102391289,0.0321552568713256,-0.0857818673383519,-0.0182372594174775,-0.0451939712898623,-0.0320827400223774,0.021172853272076,-0.0376902682797802,0.0098444133091296,-0.0838301771689998,1013.2048144008436
1.8623279098873595,0.930318593977859,-0.1302317647610209,0.0269751201488984,0.1058305969424519,0.0407625706181754,-0.112744469383206,0.0378001865860643,0.0873146907507153,0.0915335749644732,0.1900660651701492,0.0149065370079819,0.1429062549904067,0.0609094044800421,1013.3101316342904
1.872340425531915,0.9991568088401246,0.050611852032211,0.1786600278256117,0.1309065642129104,-0.0469666528492176,0.1724537216887,0.0504015593109947,0.0637785932797768,-0.0665185411990727,-0.0082389840060961,0.1137541512007459,0.0984391746660235,-0.1908549266578343,1013.284231702912
1.8823529411764703,1.0793290898506378,-0.0185903665515423,-0.1472558366704432,-0.0446058558130176,-0.1986532136031558,-0.0870221941436877,0.0453480643468769,-0.1302775604641537,0.0049068153358245,-0.0437546360990472,0.07922347203418,0.0754414634832747,-0.033693321142595,1013.1988567140806
1.8923654568210264,0.99475575082467,0.1248461652981515,-0.0611720836866378,-0.2478568368887549,-0.1178954300843876,0.1161316117340807,0.1519665858999653,-0.0606893333290299,-0.0926619772673392,-0.03495063350771,0.0744934175720904,0.078203899083261,0.0261122256170572,1013.1784105829668
1.902377972465582,1.1894458385382678,-0.0176010752246314,-0.1302437711336452,0.1791579783990038,-0.026553129208929,0.2015955135643976,-0.0073933583915981,-0.129290373079648,-0.0543612475202227,0.1052491524335663,0.1163087704460919,-0.0422713595717543,-0.0962817368186808,1013.3529907754012
1.9123904881101377,0.9748971258552296,0.0442178373032398,-0.0608125101447994,-0.0184774808420862,-0.02389461614837,-0.1036075052769192,0.079262868967636,-0.0480197107790819,-0.0937108936104461,0.0059968277868578,0.0281752617308288,0.1026616120818386,-0.0301358150501528,1013.1864419695868
1.9224030037546933,0.977604964013684,0.1136587949962608,-0.0294002213559043,0.1723246294247717,-0.0026796113958199,0.0026326184646034,-0.2641506324814899,-0.0236078112757603,-0.2037901621011548,0.0652524070967808,0.0141022256226928,0.0789028767806414,0.0290919326473201,1013.1818670836684
1.9324155193992487,1.010924318920099,-0.015476112292273,0.0076086554429774,0.0729674204735237,-0.1479709978564371,-0.017405111406684,0.1136766536768413,-0.0745380976588595,-0.0595359550817953,0.1221821387163557,0.0462211093044988,-0.0525487413141913,-0.1642095867460323,1013.0885542669564
1.9424280350438048,1.002601429875762,-0.0730344169076346,0.1165297409160641,-0.1247108988748155,-0.014631079695489,0.0039476657366186,-0.187447076854808,0.1116857295034217,0.0283543496569432,-0.0826577482456422,0.0835497271306166,0.0987146386760875,-0.0481671826995011,1013.2719724078923
1.9524405506883604,1.1569806257795778,0.1219602388883328,-0.1053158278852205,-0.0024156537424702,-0.0511129786331621,0.1452645110058214,0.0920305396375851,-0.0959821754939839,0.0230473036341139,0.0807815891261324,0.0165441291409267,-0.1917729605820897,0.1223721124711454,1013.2753450057446
1.9624530663329165,1.081884216553571,-0.0854366875561743,0.0267290077371838,0.042060078056812,-0.1397720817836048,0.0505464909252656,0.0400448253196928,0.0245402336565136,-0.1401271649970134,0.018944419849299,0.0023464613911958,-0.1655633560220289,-0.0258965483930421,1013.312957986317
1.972465581977472,0.9151320913035702,0.0081503648760861,-0.0183742945883992,-0.123362817176718,-0.2099367934384418,-0.1137845916859064,-0.0733226293807337,0.0200858910037371,0.0138109065398146,0.1860901410708904,0.0010120922190904,0.1052722700984994,0.2220029295277257,1013.2721596018678
1.9824780976220275,1.0340647232932767,0.0857674618612868,-0.1004341034825946,0.0930831403740261,-0.0074126573796152,-0.0712106320767688,0.1473690788698178,0.0880372355955225,0.0629817843002915,0.0477576488520848,-0.1115907980396111,-0.1015452267266261,0.0011947336030567,1013.1838428451898
1.9924906132665836,0.9826303621926517,0.1382232545801009,0.0348111280749649,-0.1554569660154417,-0.0358411888827987,0.2388827182358398,-0.0191915545719285,-0.1473563580524936,0.0722845148809386,-0.0115178713448186,-0.0128731882665679,0.0343841909419085,0.1494361131977103,1013.241674323556
2.002503128911139,1.0206124720157994,0.2271378551170878,0.1307909646099379,0.0903876484314152,0.0002100778355519,0.0571441225233143,-0.1196646844095499,-0.0288502920895757,0.0403126580401918,0.0058359142058342,-0.107927532718863,-0.1125685516198945,0.0466396285426362,1013.0635105625554
2.012515644555694,1.0090431071112604,0.0084064847943695,0.0371720123974411,0.0740960351452659,-0.2464776251944284,-0.0289985373990813,-0.091859248777621,-0.0179489022191768,0.0698045098171953,0.0607953455692546,-0.0970084356084122,0.0153381240866702,-0.1416063085261867,1013.1740720071572
2.0225281602002503,1.0821825157284657,0.0135334464613164,0.0291062696615578,0.0961706065856424,-0.0020489368412559,0.0189464058883901,-0.1157374967110654,-0.0493873277415428,-0.1738607292828776,0.1429007321930688,-0.0002350618213722,0.1107830874902708,-0.027248271769274,1013.0886819392374
2.032540675844806,0.8712333032425388,0.0009398730136738,-0.1970783785810278,0.1210134306610384,0.1637898748641101,0.0822729740876019,0.0988358758631395,-0.0649455841357308,-0.0357110275809631,0.0633843869838026,-0.0427539865163949,0.0341930128462171,-0.0864613327722386,1013.3758847350032
2.042553191489361,0.8318961240746059,-0.0030129918731469,0.1787956380711779,0.0688003656494748,-0.0917724678998043,-0.049647036409836,-0.0160861368387082,-0.0165961565691832,-0.0414189461616634,0.0189430562055217,0.0940579809928488,-0.0606616193848587,0.0764854618943131,1013.1210819122656
2.0525657071339176,0.9436845990103652,-0.1354033309187723,0.0154940153368131,0.0932286833498022,-0.0667676228212119,-0.0945896049928093,0.0422588128914547,-0.1527507757024891,0.0820987660058857,0.0592648222295601,0.033931934283593,0.0225138785525927,0.152594183335483,1013.1569016988028
