Timestamp,Acc x (m/s^2),Acc y (m/s^2),Acc z (m/s^2),Gyro x (rad/s),Gyro y (rad/s),Gyro z (rad/s),Beccheggio/Pitch (rad/s),Rollio/Roll (rad/s),Imbardata/Yaw (rad/s),Mag x (microTesla),Mag y (microTesla),Mag z (microTesla),Altitudine (m),Pressione (milliBar)
0.060045654296875,-0.05644194512479,0.0196901678433641,0.022236381727457,-0.0538611486554145,0.154163122177124,0.0193985365331172,0.0233722706931189,0.0631266357110953,-0.8980212772325634,22.055721282958984,21.268310546875,-36.84732055664063,-0.010276815211408446,1007.7063585063303
0.070114501953125,-0.0252439660456031,-0.0090601440890692,0.0468114355355501,-0.0386561006307601,0.1114902272820472,0.0149593129754066,0.022958142427288,0.0644185127985075,-0.8979998999736796,22.38457679748535,21.202056884765625,-36.824127197265625,-0.010461748506293203,1007.7063829199665
0.08018359375,-0.0098972707666456,-0.0688400197312235,0.0799012197107076,-0.031349029392004,0.0620179548859596,0.0209972653537988,0.0226452929110091,0.0652048311898434,-0.8977959267012804,22.309181213378903,21.67650604248047,-36.942169189453125,-0.010646686285278992,1007.7064073341948
0.090252685546875,0.0160941526453942,-0.0802453387069515,0.0946913770854473,-0.0350050143897533,0.0278999339789152,0.0280858036130666,0.0223519524011988,0.0655761389187544,-0.8978004412810477,22.560327529907227,21.77672576904297,-36.399200439453125,-0.010831624064264782,1007.706431748423
0.10032177734375,0.0436429615672677,-0.0502635122181847,0.0645247868806123,-0.0527075752615928,0.0068262992426753,0.0285369791090488,0.0219454027205567,0.0656198495755774,-0.8977792340887049,22.54016494750977,20.93181610107422,-36.35025024414063,-0.011016561843250571,1007.7064561626513
0.1103896484375,0.0271605402566492,-0.0219781143837608,0.0139554601162672,-0.0680638924241066,-0.0003109727986156,0.0330105572938919,0.0213810907078337,0.0655601436104067,-0.897656155221923,22.359434127807617,21.3291015625,-36.579010009765625,-0.011201477201731187,1007.7064805739197
0.120458740234375,0.0028167379211634,0.0059849013621918,-0.0584703091472387,-0.0765132382512092,0.0123300729319453,0.0435875542461872,0.0206770722343807,0.0655543582328541,-0.8973488065880969,22.487531661987305,21.055030822753903,-36.806427001953125,-0.011386414980716977,1007.7065049881479
0.130527587890625,0.0120243459232151,0.0353535643886774,-0.1670084252774715,-0.0699416249990463,0.009064239449799,0.0482587404549121,0.0199638083489876,0.0656217339656122,-0.8968888168785846,22.53167533874512,20.83749389648437,-36.55581665039063,-0.011571348275601731,1007.7065294017842
0.1405966796875,0.0190578247565776,0.0569327243164181,-0.3489624907523393,-0.0430816821753978,-0.0178250651806592,0.0534584932029247,0.0194175837187913,0.0655444989626702,-0.8964302265242702,22.530614852905277,20.94931030273437,-36.833099365234375,-0.01175628605458752,1007.7065538160125
0.15066552734375,0.0336647345189005,0.0428218179101124,-0.4383773887395858,-0.0025409134104847,-0.0315616503357887,0.0569227300584316,0.0192298567396916,0.0652595521877592,-0.8958581639613793,22.37053680419922,20.945655822753903,-37.32980346679688,-0.011941219349472275,1007.7065782296488
0.160734619140625,-0.024385814846307,0.0656514345566742,-0.3562514787167311,0.0293007008731365,-0.0186607018113136,0.0595111958682537,0.0194521557437931,0.0649989220123307,-0.89537110692786,22.39031982421875,20.77582550048828,-37.098541259765625,-0.012126157128458066,1007.7066026438771
0.170803466796875,-0.0883255683805793,0.0822759860180318,-0.2085924815535545,0.0426575168967247,0.0011244555935263,0.0575572364032268,0.0199115167769384,0.0649122978787417,-0.8948673304255479,22.39173698425293,20.62360382080078,-36.974945068359375,-0.012311090423342821,1007.7066270575133
0.18087255859375,-0.0950861485566943,0.057586676446814,-0.0804126763641834,0.043778833001852,0.0269644185900688,0.0537397637963295,0.0204152511307496,0.0650839496914944,-0.8943730929457392,22.488615036010746,20.66039276123047,-36.82638549804688,-0.01249602820232861,1007.7066514717416
0.190941650390625,-0.0920773221295327,0.0141080020631663,-0.0358452203631401,0.0422043725848197,0.0404954068362712,0.0538883656263351,0.0209103522717626,0.06543474434841,-0.8939811022660189,22.30003929138184,20.78720092773437,-36.771820068359375,-0.0126809659813144,1007.7066758859698
0.201009521484375,-0.0986287895996123,-0.0149471380347386,-0.0020797288835048,0.0363080501556396,0.044491671025753,0.0552648417651653,0.0213350999835229,0.065844978403075,-0.8935279273126169,22.708345413208008,20.815650939941406,-36.906829833984375,-0.012865881339795014,1007.7067002972383
0.21107861328125,-0.0796256176397204,-0.0526430642984807,0.0494435376048088,0.0292179174721241,0.0604448094964027,0.053107414394617,0.0216874327256969,0.0663503130022821,-0.8930574600013856,22.719486236572266,20.74047088623047,-36.684478759765625,-0.013050819118780806,1007.7067247114666
0.221147705078125,-0.0932521380625665,-0.0566107623530551,0.0690302816063165,0.0202980712056159,0.069285824894905,0.0512457340955734,0.0219390286608222,0.0669788095273744,-0.8926067226641126,22.69106674194336,20.669166564941406,-36.901214599609375,-0.013235756897766595,1007.7067491256947
0.231216552734375,-0.1013802802648395,-0.0309998261585831,0.0785386991858482,0.0216307174414396,0.0767304152250289,0.0501320026814937,0.0221703030317771,0.0676877072285205,-0.8921695371887297,22.773962020874023,20.723114013671875,-36.830108642578125,-0.013420690192651349,1007.706773539331
0.241285400390625,-0.066458531422168,-0.0086529515276663,0.0826543178111314,0.0214940756559371,0.0676362439990043,0.0484369285404682,0.0223891667317218,0.0684012867877472,-0.8916895235582609,22.859994888305664,20.552566528320312,-36.813018798828125,-0.013605623487536104,1007.7067979529673
0.2513544921875,-0.0855110954817384,0.0058057088703848,0.0688116704195737,0.0189201310276985,0.0441386476159095,0.0436054244637489,0.0225818495074115,0.0688961102158542,-0.8912858154506653,22.663311004638672,20.48917388916016,-36.77365112304688,-0.013790561266521895,1007.7068223671956
0.261423583984375,-0.0695155809052288,0.0163828516599722,0.0473427659332752,0.0095388768240809,0.0218695811927318,0.0377423241734504,0.0227296719558329,0.0691733374709348,-0.890932310968387,22.609113693237305,20.406944274902344,-36.356781005859375,-0.013975499045507683,1007.7068467814238
0.27149267578125,-0.0266859084822237,0.0218143386567942,-0.0183779527336359,-0.0004554335027933,-0.0028762458823621,0.032778725028038,0.0227800026557738,0.0692006139667143,-0.8905390062208309,22.92738914489746,20.304473876953125,-36.386016845703125,-0.014160436824493475,1007.7068711956521
0.2815615234375,-0.0024800533127039,0.0243972312894649,-0.0590840571314096,-0.0168238952755928,-0.018671877682209,0.028227811679244,0.0227229379093864,0.0690052593272834,-0.8902860372805356,22.617019653320312,20.37781524658203,-36.47506713867188,-0.01434537011937823,1007.7068956092884
0.29162939453125,-0.0381380805406719,0.0406423367128707,-0.1073486140847206,-0.0157935172319412,-0.0286094639450311,0.0193946398794651,0.022563637431656,0.0687341493911181,-0.8899864526964691,22.9117488861084,20.26520538330078,-36.558868408203125,-0.014530285477858843,1007.7069200205568
0.30169873046875,-0.0632529403138905,0.0293887924990616,-0.1549906552255153,0.0040707951411604,-0.0305196847766637,0.0153622236102819,0.0225452406731729,0.068379771861406,-0.8898815210872175,22.634334564208984,20.45874786376953,-36.511505126953125,-0.014715227740945669,1007.7069444353771
0.311767333984375,-0.0913119637802243,0.0228364847787655,-0.1005108770191669,0.0166334584355354,-0.0161822903901338,0.0092324260622262,0.0226705789855022,0.0680971504805014,-0.8898500349324618,22.536460876464844,20.42025756835937,-36.828216552734375,-0.014900156551729387,1007.7069688484214
0.321836669921875,-0.095008407145366,0.0380724496922455,-0.0651589931309223,0.0226422883570194,-0.0051086652092635,0.0032279216684401,0.0228814999459479,0.067970542964313,-0.8899443385898501,22.52452087402344,20.685699462890625,-36.624908447265625,-0.015085098814816214,1007.7069932632415
0.331905517578125,-0.0857739842016249,0.0107504169972613,-0.0419908835113048,0.0304661225527524,-0.0048697795718908,0.0003759427927434,0.0231625163448139,0.0679141980136983,-0.8900100145526236,22.553466796875,20.42742919921875,-36.65640258789063,-0.015270032109700966,1007.7070176768779
0.341974609375,-0.0647510699171572,-0.0244740045864135,-0.0314911168068647,0.0234374050050973,-0.0170908607542514,0.0024908292107284,0.0234311724804191,0.0677847012480012,-0.8900727637139082,22.760595321655277,20.5897216796875,-36.731781005859375,-0.015454969888686757,1007.7070420911061
0.352043701171875,-0.0590018587406724,-0.0166536862242966,-0.0207674782186746,0.0181933753192424,-0.0231663286685943,-0.0022021932527422,0.0236335844286726,0.0675644143585467,-0.8901955126194108,22.69219970703125,20.698745727539062,-36.77438354492188,-0.015639907667672547,1007.7070665053344
0.362112548828125,-0.0885595963321626,0.0249594500157982,0.0051829555958509,0.0137836504727602,-0.0071951504796743,-0.0044023711234331,0.0237723715515563,0.0674197561686807,-0.8902741400377346,22.81598472595215,20.50708770751953,-36.782318115234375,-0.0158248409625573,1007.7070909189706
0.372181640625,-0.1159540914751589,0.02469427800728,0.0639069472432136,0.0110480524599552,0.0281966626644134,-0.0034180670045316,0.0238674272561899,0.0675128041586588,-0.8903919580938513,22.547630310058597,20.332550048828125,-36.937042236328125,-0.016009778741543093,1007.7071153331989
0.38225048828125,-0.1394389388937503,0.0343325142452493,0.0650894350260496,0.0186567027121782,0.0582815930247306,0.0023801675997674,0.023995799255546,0.0679405142759594,-0.8904318579522299,22.59720230102539,20.262115478515625,-36.934173583984375,-0.016194712036427847,1007.7071397468352
0.392318603515625,-0.1157924711726605,0.0624241430732421,0.0156079034984111,0.0323866307735443,0.0492777116596698,0.0049855383113026,0.0242206418122614,0.068460662853752,-0.8904846041912463,22.566282272338867,20.36882781982422,-36.84298706054688,-0.016379631879009496,1007.7071641586956
0.4023876953125,-0.0623690701514482,0.0254250034346245,-0.0495393991947174,0.0420508757233619,0.0407070070505142,0.008260915055871,0.0245830214099479,0.0688587738139217,-0.890480303729077,22.60661506652832,20.284019470214844,-36.348052978515625,-0.016564569657995288,1007.7071885729239
0.41245654296875,-0.0484847755752503,-0.0283945572973228,-0.0415782110571861,0.0439342632889747,0.0528363734483718,0.007331205997616,0.0250154939646101,0.0693217896601774,-0.890454804786154,22.70664596557617,20.2578125,-36.685333251953125,-0.01674950295288004,1007.7072129865601
0.422525634765625,-0.0218646258056163,-0.0110664241438731,-0.0702782358407974,0.0376965254545211,0.041051011532545,0.0081849042326211,0.0254398350800597,0.0697831132502614,-0.8905079391604184,22.598512649536133,20.45221710205078,-36.64956665039063,-0.01693444073186583,1007.7072374007884
0.432594482421875,0.017827990700677,0.0055514966472983,-0.0724877285838127,0.0312053337693214,0.0190072320401668,0.0125293191522359,0.0257917331073238,0.0700399209281057,-0.8904954569544399,22.64688873291016,20.33212280273437,-36.68276977539063,-0.017119374026750584,1007.7072618144247
0.44266357421875,0.0326574571724981,0.0124832869381643,-0.1052080949246883,0.0333146601915359,-9.9251512438e-05,0.013061880134046,0.0261019550262742,0.070069522712003,-0.8904685242350314,22.7371768951416,20.42587280273437,-36.605377197265625,-0.017304311805736376,1007.707286228653
0.452732666015625,0.0478966004237532,0.0249213099624961,-0.1409907714456319,0.0399595163762569,-0.0108043598011136,0.0054242014884948,0.026454874809676,0.0699655030125095,-0.8904659961544346,22.81064224243164,20.461769104003903,-36.800140380859375,-0.017489249584722165,1007.7073106428811
0.462801513671875,0.0355045902319252,0.0252035427036695,-0.1244686757117509,0.0453303717076778,-0.0232748128473758,0.0059945243410766,0.0268652711903816,0.0697185865729664,-0.890552077691047,22.84306907653809,20.77532958984375,-36.487091064453125,-0.01767418287960692,1007.7073350565174
0.47287060546875,0.0247989987570792,0.0189548393061384,-0.0951034650176763,0.045514665544033,-0.0096578039228916,0.0033705118112266,0.0272963524793309,0.0694982002960451,-0.8906337129257581,22.705869674682617,20.4912109375,-36.46676635742188,-0.01785912065859271,1007.7073594707457
0.482939453125,0.0077710723929107,0.0273547111218795,-0.0471732545852661,0.0484668388962745,0.0149977840483188,0.0035159462131559,0.0277258152820065,0.0694805661008692,-0.890714228549282,22.693565368652344,20.425575256347656,-36.36740112304688,-0.018044053953477465,1007.707383884382
0.493007568359375,-0.01231368425861,0.0175321678255684,0.0066267246633768,0.0384757220745086,0.0202703103423118,0.0030435011722147,0.0281739526766932,0.0696225637582353,-0.890775720607814,22.68956184387207,20.306190490722656,-36.38491821289063,-0.018228973796059117,1007.7074082962424
0.503076416015625,-0.0043148675244301,0.0144854753397405,0.0240144973158836,0.0309097450226545,0.0317970886826515,0.0033399001695215,0.0285195491349092,0.0698764342942923,-0.8908128648057514,22.667102813720703,20.226844787597656,-36.541290283203125,-0.01841390709094387,1007.7074327098787
0.5131455078125,-0.0117095078203827,-0.0083054715305566,0.0636918431878089,0.0233461000025272,0.0245013609528541,0.0033034146763384,0.0287743589166585,0.0701740735037012,-0.8908244223075938,22.91603660583496,20.294448852539062,-36.81460571289063,-0.01861390447896859,1007.7074571242349
0.52321435546875,0.00215637431629,-0.0102658300844021,0.0621720862746238,0.0219828896224498,0.0067631746642291,0.0051645725034177,0.0290017949990082,0.0703327167394622,-0.8908024535155276,22.839311599731445,20.16259765625,-36.249786376953125,-0.018825313258570668,1007.7074815380961
0.53328369140625,0.0075323682662099,0.0044455812320113,0.0814414348900318,0.0201687440276145,-0.0143730025738477,0.002108328975737,0.0291897681304169,0.0703036258959126,-0.8907367867159991,22.973072052001957,20.08074188232422,-36.105804443359375,-0.01903673229028368,1007.7075059531413
0.5433525390625,-0.0060929100476205,0.0233836520664393,0.1132230590760707,0.0142673244699835,-0.0152538605034351,0.0008645029738545,0.0293509610533438,0.0701517700348688,-0.8907620838986947,22.81863784790039,20.20182037353516,-36.477447509765625,-0.01924814106988576,1007.7075303670025
0.553421630859375,-0.0122130003631114,0.0275668925678357,0.1123918689489364,0.016647657379508,-0.0174530986696481,-0.0017757548484951,0.0294876785358451,0.0699974793879966,-0.8907994045625699,22.729328155517575,20.10730743408203,-36.377044677734375,-0.019459554975543306,1007.7075547814557
0.563490478515625,-0.0045841859851032,0.0597763319781981,0.103466804215312,0.0163897611200809,-0.0091822203248739,-0.0057427287101745,0.0296288782835846,0.0698603259482668,-0.8908888118663594,22.675561904907227,20.04803466796875,-36.496856689453125,-0.019670963755145383,1007.707579195317
0.5735595703125,-0.0008300941485911,0.0503909197238273,0.099272275134921,0.0145407281816005,0.0007218094542622,-0.003612732514739,0.0297552629991381,0.069813333712051,-0.890952278641592,22.60772132873535,19.919273376464844,-36.26144409179688,-0.01988237766080293,1007.7076036097701
0.583628662109375,-0.0183614399902522,0.0386901066665537,0.0948918680936098,0.0149806831032037,0.0019508581608533,-0.0118743907660245,0.0298896858843774,0.0698160429837902,-0.890988066432929,22.828662872314453,19.92665100097656,-36.55807495117188,-0.020093791566460475,1007.7076280242234
0.5936962890625,-0.0153040982462465,0.0623469313848763,0.1037649103790521,0.0113302879035472,0.0178051888942718,-0.0129151549190282,0.0300132445625021,0.069916818084309,-0.8911124357173665,22.7056884765625,19.931251525878903,-36.656768798828125,-0.020305174715785215,1007.7076524351247
0.603765625,-0.0217586081478744,0.050918286332488,0.1359112762242555,0.0003303484991192,0.0256396252661943,-0.0103768277913331,0.0300685757505208,0.0701485371696547,-0.8912133277833051,22.925249099731445,20.09857177734375,-36.535247802734375,-0.020516593747498226,1007.70767685017
0.613834716796875,-0.0154977211222052,0.0297898658469319,0.1351677643805742,-0.0084937699139118,0.0196299366652965,-0.0073927557095885,0.0300197684177371,0.0703804318974744,-0.8913244179248484,22.951465606689453,20.27210998535156,-36.81906127929688,-0.020728007653155772,1007.7077012646231
0.623903564453125,0.0389816917579621,0.0221102893960662,0.094949151238799,-0.0134174413979053,0.027278259396553,-0.0007665157318115,0.0298774741294116,0.070608514598203,-0.8913480139020404,23.03709602355957,20.24748992919922,-36.816802978515625,-0.020939416432757853,1007.7077256784843
0.63397265625,0.0325245515078306,0.0338493338381871,0.0564221444457769,-0.0151905752718448,0.0510754697024822,-0.0002639768645167,0.0297164195412256,0.0709931006985142,-0.8913618031507428,22.938825607299805,20.28399658203125,-37.025909423828125,-0.021150830338415395,1007.7077500929375
0.64404150390625,0.0163676358245313,0.0505030383287928,0.0431628499001264,-0.0101930135861039,0.0711034163832664,0.0005753985606133,0.0295529821567004,0.0716198347810212,-0.8912722128237524,22.96495246887207,20.1424560546875,-36.655792236328125,-0.021362239118017476,1007.7077745067987
0.654110595703125,0.0299415492773056,0.0641416693145409,-0.0309194543987512,0.003383781760931,0.0608406588435173,-0.003301098709926,0.0294941240105298,0.0722975414944573,-0.8912225869665259,23.043161392211918,20.021995544433597,-36.458404541015625,-0.021573653023675022,1007.707798921252
0.6641796875,0.0435392819970846,0.0213754540491849,-0.10052373650074,0.0040754042565822,0.03158450871706,-0.0097025390714406,0.0295124642275495,0.072743420217913,-0.8912082786303784,23.095766067504883,19.945289611816406,-36.54244995117188,-0.021785066929332568,1007.7078233357051
0.67424853515625,0.0366788216430693,-0.0500467641949653,-0.031596915268898,0.0034647416323423,-0.0159547850489616,-0.0134522691369056,0.0295231298627704,0.0728176339778698,-0.8912667542169748,22.886720657348636,19.8985595703125,-36.407745361328125,-0.021996475708934645,1007.7078477495664
0.684317626953125,0.0148212831653654,-0.0156896817640401,0.0804231977581977,-0.0034427000209689,-0.0436250269412994,-0.0171082578599452,0.029517056574106,0.0724819566270212,-0.8913859819737417,22.864917755126957,19.91656494140625,-36.678131103515625,-0.02220788961459219,1007.7078721640196
0.694386474609375,0.0182583449419587,0.004283303342387,0.1389946291923522,-0.016995258629322,-0.0434607118368148,-0.0152994375675916,0.0293869257218311,0.0720229878201497,-0.8915054979501624,22.997596740722656,20.041030883789062,-36.49868774414063,-0.022419298394194268,1007.7078965778808
0.70445458984375,-0.0022280513130128,-0.0209015346608124,0.1304647012561559,-0.0310315266251564,-0.0262637287378311,-0.008221361786127,0.0291380184298836,0.0716996397967503,-0.8915824700795943,22.70147132873535,19.87329864501953,-36.43771362304688,-0.022630691795629942,1007.7079209899662
0.7145234375,-0.0190192463118582,-0.0251740608808584,0.0664624769449234,-0.0334078669548034,-0.0042569637298583,-0.007707105949521,0.0287937499310751,0.0715644331260214,-0.8916406475921297,22.759469985961918,19.979415893554688,-36.598419189453125,-0.022842100575232022,1007.7079454038274
0.724592529296875,-0.009491904836148,-0.0540618633215315,-0.0093301384031772,-0.0320057719945907,0.0084784962236881,-0.0018199482001364,0.0284418650388173,0.0715993828904255,-0.891642315609976,22.8305778503418,19.917144775390625,-37.089263916015625,-0.02305351448088957,1007.7079698182806
0.73466162109375,-0.0077383391670882,-0.0367710665037855,-0.014116203635931,-0.0310792606323957,0.0148487770929932,0.0023875799961388,0.0281144516443711,0.0717254487976399,-0.8914583884977993,22.95347023010254,19.602027893066406,-36.457550048828125,-0.02326492838654711,1007.7079942327338
0.74473046875,0.0040688568741083,0.0013117036530748,-0.0015922376275062,-0.0207743421196937,0.0172795169055461,0.0042705461382865,0.0278473148081374,0.0718946997331131,-0.891307937240409,22.879810333251957,19.7703857421875,-36.576019287109375,-0.02347633716614919,1007.7080186465951
0.754799560546875,-0.0206887138940393,-0.0108274642888456,0.002661328163743,-0.0155468238517642,0.0109755471348762,0.0069494200870394,0.0277080450336679,0.072069671981286,-0.8911440612296136,22.772750854492188,19.71378326416016,-36.65524291992188,-0.023687751071806738,1007.7080430610482
0.76486865234375,-0.0304950184416025,-0.0224378956489264,-0.0046650692015886,-0.0211510583758354,0.0013129087164998,0.0003497409634292,0.0275463864415761,0.072123428916929,-0.8909523186275724,23.02664375305176,19.69374084472656,-36.85812377929688,-0.023899164977464284,1007.7080674755014
0.7749375,-0.0011539192754775,-0.0082336484033614,-0.0384136095464229,-0.0240515060722827,-0.0052312770858407,-7.5299758464e-05,0.0273315302146129,0.0721064546982297,-0.8908730138105921,22.85212516784668,19.897926330566406,-36.47329711914063,-0.024110573757066357,1007.7080918893627
0.7850068359375,0.0112026542767882,-0.0353792285528965,-0.05940028347373,-0.0273638628423213,-0.0115940300747752,0.0016095279715955,0.0270963213858428,0.0720359496433046,-0.8907999301828171,22.704669952392575,19.7576904296875,-36.750091552734375,-0.024321992788779372,1007.7081163044078
0.795075439453125,-0.0123510205943137,-0.0480208478579297,-0.0197281982988119,-0.0323524959385395,-0.0123977717012166,-0.0012206134852021,0.0268142116182186,0.071903866168631,-0.8907641023438617,22.87912368774414,20.11567687988281,-36.74508666992188,-0.024533396442325984,1007.7081407176771
0.80514453125,-0.0137973469451069,-0.0291159303744323,-0.0130108727425336,-0.03763098269701,-0.0011031399480998,-0.001539057586342,0.0264835597983955,0.0718368979747213,-0.890782403822151,22.55653953552246,19.98541259765625,-36.386505126953125,-0.02474481034798353,1007.7081651321303
0.815212646484375,-0.0060499476887285,-0.0107380872386507,0.0111187753856182,-0.0305776037275791,0.014759711921215,0.0030386499129235,0.0261601996824303,0.0719009459286223,-0.8907270606812617,22.68709945678711,19.8863525390625,-36.38644409179688,-0.024956203749419203,1007.7081895442155
0.825281494140625,-0.0025971768863499,-0.0083162669192068,-0.0198982941687107,-0.012266076169908,0.0114889834076166,0.0051324977539479,0.0259493221806822,0.072037150202821,-0.8907561950290422,22.467622756958008,20.12775421142578,-36.616058349609375,-0.025167612529021284,1007.7082139580768
0.8353505859375,-0.0058794134274125,0.0110188038761727,-0.0805517925739288,0.0060868319123983,0.0058494736440479,0.0060401032678782,0.0259373054717985,0.0721126415229109,-0.8907392196236148,22.647851943969727,20.152984619140625,-36.496429443359375,-0.025379026434678827,1007.70823837253
0.845419677734375,-0.0083991411633789,0.0205001325193792,-0.0758159962236881,0.0133480839431285,0.0050179050303995,0.0044475183822214,0.0260649400121159,0.0721410257686988,-0.8906256353803407,22.953840255737305,19.988052368164062,-36.720489501953125,-0.025590440340336373,1007.7082627869833
0.855488525390625,-0.0289851984005421,0.0125214817903935,-0.0317845467954874,0.005520787090063,0.0158929228782653,0.0028544147498905,0.0261821708615784,0.0722571323212496,-0.8905140883856744,22.993486404418945,19.9490966796875,-36.466217041015625,-0.025801849119938453,1007.7082872008444
0.8655576171875,-0.0197637810688465,0.010562474943418,0.0237538005530834,-0.0050354935228824,0.0154827386140823,0.0053677377291023,0.0261960344422061,0.0724312381594679,-0.8903852276523491,23.209487915039062,20.228050231933597,-36.29702758789063,-0.026013263025596,1007.7083116152977
0.87562646484375,0.0212244282059371,0.0071766318974085,0.0883674347609281,-0.019972363486886,0.002577859442681,0.0049456269480288,0.0260948816918382,0.0725088548706267,-0.8902457724932437,22.96444320678711,19.993431091308597,-36.14498901367188,-0.026224671805198073,1007.7083360291589
0.885695556640625,0.0644550826452672,-0.0142573839385993,0.1266232233971357,-0.0251449570059776,-0.0103287976235151,0.00839121080935,0.025877533846522,0.0724487240872283,-0.8900589288680721,23.10378646850586,19.900222778320312,-36.39132690429688,-0.026436085710855622,1007.708360443612
0.8957646484375,0.0507840654935687,-0.0307471665717661,0.1364806005448103,-0.0241593234241008,-0.008374304510653,0.0103787295520305,0.0256455484391466,0.0723466777901416,-0.8899095970484314,22.985960006713867,20.158302307128903,-36.325714111328125,-0.02664749961651317,1007.7083848580653
0.90583349609375,0.0103596275813877,-0.0227400021343491,0.1611398255050182,-0.025244889780879,-0.010782953351736,0.0081507414579391,0.0254243811549793,0.072256731526903,-0.8898377807271908,22.982759475708008,20.40928649902344,-36.255889892578125,-0.026858908396115246,1007.7084092719265
0.915902587890625,0.0125933049175888,-0.0053036776323802,0.134547002133727,-0.0363614559173584,-0.0239189956337213,0.0063991802744567,0.0251271041544178,0.0720889606867152,-0.8897284164764819,23.11454391479492,20.40589904785156,-36.072540283203125,-0.027070322301772788,1007.7084336863797
0.9259716796875,0.015851502995938,0.0074599423508159,0.0703448713362216,-0.0422461666166782,-0.0295025072991848,0.006300488486886,0.0247195175146046,0.071816224239825,-0.8896381206449486,23.01829719543457,20.259376525878903,-36.420196533203125,-0.027281736207430338,1007.7084581008329
0.93603955078125,0.0150428900267928,-0.0143002184333279,0.0346148017853498,-0.0436885319650173,-0.0347960740327835,0.0089990701526403,0.0243010118623157,0.0714850230264576,-0.8895635122862575,22.780750274658203,20.25115966796875,-36.44869995117188,-0.027493124482810542,1007.7084825123263
0.946108642578125,0.022271745301783,-0.0103887623443268,-0.0165285254746675,-0.0364316180348396,-0.0282262340188026,0.014797025360167,0.0239062975420674,0.0711429641633922,-0.8894062861456231,22.67132377624512,20.05194091796875,-36.410491943359375,-0.027704538388468092,1007.7085069267795
0.956177490234375,0.0005788228012621,0.0026933124708943,-0.0353203197062015,-0.0215599946677684,-0.0159700997173786,0.0180793702602386,0.0236380455707322,0.0709278156519019,-0.889120781513837,22.88296127319336,19.875640869140625,-36.296966552734375,-0.02791594716807017,1007.7085313406407
0.96624658203125,-0.0096407387223094,0.0332537242989055,-0.0165489837408065,-0.0082171941176056,-0.00282758846879,0.0171340312808752,0.0235194477723235,0.0708709430211076,-0.8888949388149313,22.81059837341309,20.04582977294922,-36.523345947265625,-0.028127361073727715,1007.7085557550939
0.9763154296875,-0.0320340645771473,0.0163733897118829,0.0263502467870712,0.0027124201878905,0.0143679091706871,0.0228619594126939,0.0235071131936059,0.0709420732549027,-0.8885892341640187,22.853906631469727,19.805892944335938,-36.43258666992188,-0.02833876985332979,1007.7085801689551
0.986384521484375,-0.0215473765499889,0.0009552914308384,0.0579185204833745,0.0044643897563219,0.0246904585510492,0.0244622379541397,0.0235828738387546,0.0711398906453611,-0.8882862898663634,22.93454360961914,20.08505249023437,-36.46334838867188,-0.028550183758987338,1007.7086045834084
0.996453857421875,-0.0592309182561933,0.0111287305240519,0.0640057314425706,-0.0031828768551349,0.0285642929375171,0.0205908007919788,0.0236132068697968,0.0714128034247324,-0.8880330695325025,22.766246795654297,19.99161529541016,-36.432891845703125,-0.02876160279070035,1007.7086289984535
1.0065224609375,-0.0376909943602979,-0.0085793017695657,0.0232663092970848,-0.0151331145316362,0.0277575422078371,0.02074571326375,0.0235413899627793,0.0717042317909,-0.8878085664502678,22.75321388244629,20.00336456298828,-36.42306518554688,-0.02897300644424696,1007.7086534117227
1.016591552734375,-0.0002332242339849,-0.0423196953405626,-0.0481710334509611,-0.0240376610308885,0.002163500059396,0.0219345483928918,0.0233508969606413,0.0718519885429947,-0.887547310324662,22.820850372314453,20.079360961914062,-35.829437255859375,-0.029184420349904504,1007.708677826176
1.026660400390625,0.0165888773597776,-0.0294868277797475,-0.1055599771022796,-0.0201032534241676,-0.007548430468887,0.0165544860064983,0.0231488114201965,0.0718146389574226,-0.8873237517550661,22.64871025085449,19.94667053222656,-36.11203002929688,-0.029395829129506584,1007.7087022400372
1.0367294921875,0.0233565448638051,-0.0024198658243753,-0.1068015015959739,-0.0247675143182277,-0.0080930469557642,0.0186352152377367,0.0229333529877664,0.0717342904209844,-0.8870547454667745,22.813867568969727,19.8709716796875,-36.23696899414063,-0.029607243035164134,1007.7087266544904
1.046798828125,0.0282311651628464,-0.0256537706892006,-0.0785685098022222,-0.0306216925382614,-0.0008159657008945,0.0162929929792881,0.0226545350375849,0.0716791146317062,-0.8868197202206963,22.873764038085938,20.044715881347656,-36.253814697265625,-0.029818662066877145,1007.7087510695355
1.056867431640625,0.02018850928694,-0.0593180302840657,-0.0401800346970558,-0.0234540589153766,-0.004953452385962,0.0175750367343425,0.0223955011622259,0.0716442285668015,-0.8866112894457779,22.991905212402344,20.250518798828125,-36.003509521484375,-0.030030065720423757,1007.7087754828049
1.066936767578125,0.0084895959258079,-0.0518331909540109,-0.0559703090250492,-0.0095899943262338,-0.0056606158614158,0.0196986831724643,0.0222584385166919,0.071585583182496,-0.8863980045786838,23.055221557617188,20.331130981445312,-35.900726318359375,-0.03024148475213677,1007.70879989785
1.077004638671875,-0.0080370298527181,-0.034942736831773,-0.0501104770809412,0.0014874236658215,0.0049712555482983,0.0171220749616622,0.0222260133440707,0.0715617171420084,-0.8863016958179704,22.794654846191406,20.467803955078125,-36.127044677734375,-0.030452873027516973,1007.7088243093433
1.087073486328125,-0.005552081169188,-0.0296932736046612,-0.0190723647385835,0.0024104146286845,0.0215863864868879,0.0180367305874824,0.0222577789232292,0.0716749112362086,-0.8861877953611577,22.74716186523437,20.3204345703125,-36.487091064453125,-0.030664281807119054,1007.7088487232046
1.097142578125,-0.0219543499156832,-0.0348912806391716,-0.003258125013113,-2.58451327681e-05,0.0300879962742328,0.0163304433226585,0.0222923136079328,0.0719444775394466,-0.8860668900041817,22.6889762878418,20.156402587890625,-36.49508666992188,-0.030875695712776596,1007.7088731376577
1.107215087890625,-0.0185153153777122,-0.0425324247757904,0.0051011225312948,-0.0172714125365018,0.0183775443583726,0.0154952760785818,0.0222302812871,0.0722047836011683,-0.8860063518997814,22.67935943603516,20.280929565429688,-36.834747314453125,-0.031087181383210694,1007.7088975603984
1.1172841796875,0.0075864365410059,-0.0298053922096267,-0.0188444012016057,-0.0281219277530908,-0.0035551860928535,0.015324568375945,0.0220174062914565,0.0722743392188145,-0.8859183654112878,22.63836097717285,20.14707946777344,-36.799102783203125,-0.03129859528886823,1007.7089219748517
1.127353271484375,0.0281511587291955,-0.0202269416011869,-0.0426467170715332,-0.0313130170106887,-0.0194045733660459,0.0137321967631578,0.021742849246097,0.0721601959260353,-0.8858490934790615,22.641407012939453,20.26665496826172,-36.407989501953125,-0.03151000919452578,1007.7089463893049
1.137422119140625,0.0009914952553808,-0.024820059811417,-0.0096902038872241,-0.0204734187573194,-0.0162932015955448,0.0109720975160598,0.0215033036811208,0.0719685913083167,-0.885785854322185,22.64582252502441,20.25756072998047,-36.500579833984375,-0.03172141797412786,1007.7089708031662
1.1474912109375,0.0016745821487158,-0.0036877851346507,-0.0033130700707435,-0.0049215164035558,-0.0063786627724766,0.007786463946104,0.0213998766227892,0.0718679780465166,-0.8857087438009336,22.91178131103516,20.324440002441406,-36.206634521484375,-0.031932831879785406,1007.7089952176193
1.157559814453125,0.0025281302381306,0.0119547512857243,-0.0288970086604356,0.0144897326827049,-0.0008113244548439,0.0088903438299894,0.0214691044285969,0.0718420031925644,-0.8855987402430429,22.986984252929688,20.155670166015625,-36.350006103515625,-0.03214423553333202,1007.7090196308886
1.167629150390625,-0.0171685769438743,-0.0144334528915584,-0.0254939222186803,0.0108449514955282,0.0028574760071933,0.010634796693921,0.0216164317005106,0.0718518732578725,-0.8854310852885234,23.05992126464844,20.02947235107422,-36.723907470703125,-0.032355654565045036,1007.7090440459338
1.177697998046875,-0.0362495633803308,-0.0030293029596097,-0.0350531932026147,0.0074608726426959,-0.0141183119267225,0.01108487136662,0.0217112353676139,0.0717986915154825,-0.8854042470058728,22.726926803588867,20.38897705078125,-36.231536865234375,-0.03256706334464711,1007.7090684597949
1.18776708984375,-0.0405914650421589,0.0313551241359673,-0.0504699580430984,0.0006387494504451,-0.0285509694367647,0.0133521053940057,0.0217842609567902,0.0715695213903463,-0.8852842136178516,22.837974548339844,20.090049743652344,-36.49087524414063,-0.03277847725030465,1007.7090928742482
1.197836181640625,-0.0223702372401952,0.0397926062820479,0.0191541978031396,-0.0071304896846413,-0.027186632156372,0.0150053966790437,0.0217748911044407,0.071297610905107,-0.8851836434559904,23.024974822998047,20.21259307861328,-36.646759033203125,-0.0329898911559622,1007.7091172887013
1.2079052734375,-0.0270500656194984,0.042035654234793,0.0105202249705791,-0.0099188145250082,-0.0229564439505338,0.0118874795734882,0.0216984257023074,0.0710415810246504,-0.8850401022519938,23.004398345947266,20.29365539550781,-36.71255493164063,-0.033201305061619744,1007.7091417031546
1.21797412109375,-0.0181224436026066,0.0098442254051566,-0.067145783033967,0.008316115476191,-0.0175430364906787,0.0096549512818455,0.0216964517796103,0.0708325408197922,-0.8849171032019943,22.99696922302246,20.219627380371094,-36.75875854492188,-0.033412713841221825,1007.7091661170158
1.228043212890625,-0.0399891883000731,-0.0131357229649089,-0.0180506204754114,0.0156098743900656,0.0068367472849786,0.0120075475424528,0.0218250996971219,0.0707735391666771,-0.8848071233386661,22.892332077026367,20.17545318603516,-36.518402099609375,-0.03362412774687937,1007.709190531469
1.238112060546875,-0.0599601823788136,0.0356275224918499,0.0494172341197729,0.0185593254864215,0.026497533544898,0.0063584493473172,0.0219910914722348,0.0709644900226755,-0.8846780271424504,23.15984916687012,20.280181884765625,-36.571868896484375,-0.03383553652648145,1007.7092149453302
1.24818017578125,-0.0553556111928075,0.0618894882072694,0.0715834732204675,0.0065583614632487,0.03989939391613,0.0118635268881917,0.0221361455971444,0.071320138832251,-0.8845001779370086,23.266956329345703,20.126296997070312,-36.389068603515625,-0.03404692992791712,1007.7092393574155
1.2582490234375,-0.0409259576935321,0.0659796253314241,0.0795318018764257,-0.0002566678449511,0.0418171361088752,0.0135357258841395,0.0221717602885617,0.0717114528546372,-0.884363720988129,23.107839584350582,20.273178100585938,-36.64126586914063,-0.034258338707519195,1007.7092637712768
1.268318115234375,-0.0300953515995293,0.0551865382362157,0.0513695372313261,0.0014868434518575,0.0541155487298965,0.0107869356870651,0.0221698060348572,0.0721800177747298,-0.8841991370599612,23.13980484008789,20.15697479248047,-36.519439697265625,-0.03446975261317675,1007.70928818573
1.27838720703125,-0.0316875892270356,0.0658529667444527,-0.0136140993326902,0.006272011436522,0.03844790533185,0.0077304267324507,0.0222046283559833,0.0726489574420111,-0.8840330025678443,23.130006790161133,19.97417449951172,-36.507415771484375,-0.034681166518834294,1007.7093126001832
1.2884560546875,-0.0186998781643807,0.0425432566970586,-0.0497369675934314,0.0057502342388033,0.0177433621138334,0.0087393587455153,0.0222538612314754,0.0729276359233832,-0.8839572907197648,22.833131790161133,20.024139404296875,-36.499114990234375,-0.03489257529843637,1007.7093370140444
1.298525146484375,-0.0072441259093582,-0.0056384077457711,-0.029711247652769,0.0054977666586637,-0.0089425761252641,0.0149370674043893,0.0222998146951685,0.0729498001200034,-0.8838243787763678,22.88640785217285,19.916412353515625,-36.46627807617188,-0.03510398920409392,1007.7093614284976
1.308593994140625,-0.025476824953407,-0.0037067638297565,0.0015846388429403,0.0076510272920131,-0.0373363196849823,0.0130934473127126,0.0223747340336519,0.0726873957597689,-0.8836851064991074,22.76156234741211,19.913360595703125,-36.48794555664063,-0.035315397983696,1007.7093858423589
1.3186630859375,-0.0414412137392908,0.0347191206763498,0.0408171635568141,0.0061021326109766,-0.0497549101710319,0.0155725851655006,0.0224326260088486,0.0722083224724522,-0.8835746127255042,22.983583450317383,20.266189575195312,-36.09835815429688,-0.03552681188935354,1007.709410256812
1.328732177734375,-0.042256767905876,0.0227450436356477,0.0883195039659738,0.0021307477727532,-0.0470398887991905,0.0208263546228408,0.022462839591923,0.0716796792352672,-0.8834233502322126,22.739431381225582,20.005142211914062,-36.04000854492188,-0.03573822579501108,1007.7094346712653
1.338801025390625,-0.0556665037728846,0.0267595399740152,0.0799029732763767,0.0069859568029642,-0.0270249024033546,0.0246317461133003,0.0225060034061379,0.0712913122526637,-0.8831648016785786,23.002805709838867,20.116043090820312,-35.967010498046875,-0.03594963457461317,1007.7094590851265
1.348870361328125,-0.0698635175600647,0.0359261401122435,0.0500759902894496,0.0095474878326058,-0.0038901860825717,0.0298797003924846,0.0225862659791882,0.0711212336691106,-0.8829025346914688,23.009801864624023,20.30360412597656,-35.701385498046875,-0.03616105360632618,1007.7094835001717
1.35893896484375,-0.0746984634358435,0.0718327718064189,0.0235275905817747,0.007810840383172,0.0201677456498146,0.0291396081447601,0.0226619272971947,0.071187318847685,-0.8825751439833553,23.060686111450195,20.055564880371094,-36.184356689453125,-0.03637245725987279,1007.7095079134409
1.36900830078125,-0.0649414779227226,0.0849532241369597,-0.031285365101695,0.0088985431939363,0.0296425633132457,0.0287129525095224,0.0227333778653874,0.0714444352773015,-0.8822133474432068,23.09957504272461,19.971847534179688,-35.993255615234375,-0.0365838762915858,1007.709532328486
1.379076904296875,-0.0498508032314479,0.0866560094668529,-0.0847767167925834,0.0092578046023845,0.0210815649479627,0.0254753474146127,0.0228460079323752,0.0717223832770095,-0.8819039864599164,23.20845031738281,20.171112060546875,-36.051361083984375,-0.03679527994513241,1007.7095567417554
1.38914599609375,-0.0218958977267146,0.0936599516784772,-0.1073047749429941,0.0105334743857383,-0.0041628410108387,0.0260117072612047,0.0229651502923403,0.0718018717774062,-0.8816429274189578,22.999187469482425,20.03150177001953,-36.427520751953125,-0.03700669385078996,1007.7095811562085
1.39921533203125,-0.0048646103616803,0.0800040407643653,-0.1021346788287162,0.0175509043037891,-0.0271829385310411,0.024445503950119,0.0231138142367484,0.0716366037972024,-0.8813847315267209,22.9348258972168,19.935333251953125,-36.724212646484375,-0.03721811288250297,1007.7096055712537
1.409283935546875,-0.0106686204653233,0.0672768986003473,-0.1262257485121488,0.029054045677185,-0.0242330636829137,0.0166340116411447,0.0233572114387516,0.0713430210181331,-0.8812761373414854,22.88039970397949,20.16046905517578,-36.89865112304688,-0.037429516536049576,1007.709629984523
1.419353271484375,-0.0070125091105699,0.0707205179818905,-0.1023281555742025,0.030908403918147,-0.020059622824192,0.0111212693154811,0.02366266727819,0.0710920660048366,-0.8811472839481942,23.113422393798828,20.062332153320312,-36.646087646484375,-0.0376409355677626,1007.7096543995681
1.429421875,0.0046217415165156,0.0836443882944062,-0.062568976637721,0.0272876881062984,-0.0271613672375679,0.0090460404753685,0.023927755332738,0.0708515295066082,-0.880964263823986,23.10455322265625,19.7012939453125,-36.607452392578125,-0.037852339221309206,1007.7096788128374
1.4394912109375,0.0106549572661519,0.1062350816185586,-0.0267833775073289,0.0239227823913097,-0.0308535732328891,0.0082939639687538,0.0241562347261554,0.0705257040368495,-0.8807630434069464,23.206287384033203,19.755516052246094,-36.587249755859375,-0.03806375825302222,1007.7097032278825
1.449560302734375,0.0114227267682552,0.1037407988511025,0.003015548428893,0.0276019014418125,-0.0254007875919342,0.0090427873656153,0.0243749737923174,0.0702027522429154,-0.880653415780384,23.17058753967285,20.06723022460937,-36.155181884765625,-0.03827517215867977,1007.7097276423358
1.459629150390625,0.007716419596225,0.0590260616001673,0.0244786076962947,0.0371858179569244,-0.0091821365058422,0.014682563021779,0.0246829901939989,0.070000830793866,-0.8805318507204404,23.14064598083496,20.163406372070312,-36.385589599609375,-0.03848658093828184,1007.709752056197
1.4696982421875,-0.0042780426453799,0.0551089429553598,0.0754798961371183,0.0391352660953998,0.0319565162062644,0.015187207609415,0.0250466077128432,0.0701262708457792,-0.8803894847743223,22.957141876220703,19.87098693847656,-36.785186767578125,-0.03869799484393939,1007.7097764706502
1.47976611328125,-0.032692455420643,0.0500828401553444,0.1009527755677699,0.0386079624295234,0.0568847693502903,0.0152127742767333,0.0254039502255413,0.0705995410187712,-0.880242550248416,22.878955841064453,19.80841827392578,-36.508148193359375,-0.0389093831193196,1007.7098008821436
1.489835205078125,-0.0277306682948023,0.0226830477827228,0.0546989739149808,0.0344057977199554,0.0496476665139198,0.0100516248494386,0.0257381091002341,0.0711486018886341,-0.8801105382899477,23.056007385253903,19.91831970214844,-36.75405883789063,-0.039120797024977144,1007.7098252965967
1.499904052734375,0.0013566022407263,0.0295094962692819,0.0035182372540235,0.0338987335562706,0.0168303288519382,0.007634540554136,0.0260681113543762,0.0714646796558314,-0.8801169834014663,22.839807510375977,20.085037231445312,-36.431182861328125,-0.03933220580457922,1007.709849710458
1.50997314453125,-0.0021094664346426,0.0305086451081559,0.0424900652050972,0.0368479937314987,-0.0155778732150793,0.000959176570177,0.0263837287767706,0.0714677739973766,-0.8801168442600477,22.92649269104004,19.92424774169922,-36.617462158203125,-0.03954361971023677,1007.7098741249112
1.5200419921875,-0.0131661363694816,0.0194000075240619,0.0878314281880855,0.0275274626910686,-0.048306256532669,0.0049179652705788,0.0266701302577161,0.0711452639137887,-0.8801271191733625,22.849777221679688,19.794761657714844,-36.304718017578125,-0.03967981943217556,1007.7098907225518
1.530111083984375,-0.004031666668877,0.006768891346734,0.0657142889261245,0.020908199250698,-0.0562017038464546,0.0053833001293241,0.0268775510514949,0.0705940902754883,-0.8801061844033061,22.803436279296875,19.749786376953125,-36.64108276367188,-0.03975908801490007,1007.7099014035929
1.54018017578125,-0.0204588506609201,0.0125554388589225,0.0301256736725568,0.0179259926080703,-0.0506788380444049,0.0028098882175982,0.0270556919475851,0.0700554728856215,-0.8801205441997407,22.63882064819336,19.712242126464844,-36.43618774414063,-0.039838356597624594,1007.7099120846339
1.5502490234375,-0.052850058112666,0.0412832101659849,-0.0020732991427183,0.0171583779156208,-0.0405439883470535,0.0015948638319969,0.027192800404757,0.0696037974851682,-0.880137011438771,22.77297782897949,19.782455444335938,-36.68423461914063,-0.03991762325836034,1007.7099227654159
1.560318115234375,-0.0461225764885544,0.0535983922619372,-0.0451490552812814,0.0180614553391933,-0.0174796823412179,0.0033679963089525,0.027334763386521,0.0692986749618288,-0.8802286311964179,22.616758346557617,19.96593475341797,-36.56124877929688,-0.03999689184108486,1007.7099334464568
1.570386962890625,-0.0554522765003144,0.0478693653569556,-0.0737479577779769,0.0249365493655204,0.0069461492821574,0.0079093426465988,0.0275440995367995,0.0692431997206122,-0.8803426340523687,22.38384246826172,19.959251403808597,-36.713958740234375,-0.04007615850182061,1007.7099441272388
1.5804560546875,-0.0436321479123085,0.033673922472354,-0.0812684164106845,0.0355066359043121,0.0225088633596897,0.013116355985403,0.0278514456926637,0.0693969358750554,-0.8802508955102939,22.71393394470215,19.580421447753903,-36.71646118164063,-0.04015542708454513,1007.7099548082798
1.590525146484375,-0.0309495572760701,0.0357723195237107,-0.0620943448632955,0.0440815202891826,0.0246258452534675,0.0169180762022733,0.0282486871676527,0.0696462819616542,-0.8801412057750594,22.744218826293945,19.747840881347656,-36.814727783203125,-0.04023469566726965,1007.7099654893208
1.60059423828125,-0.0487123737860471,0.0300893785164691,-0.0313864873886108,0.0435661971569061,0.0156880095601081,0.0186224989593029,0.0286917067006819,0.069856888174971,-0.8799990142575105,22.72499084472656,19.631637573242188,-36.807891845703125,-0.040313964249994165,1007.7099761703618
1.6106630859375,-0.0556330398947,0.0488185741068795,0.0054728784531354,0.0418686605989933,0.0233679786324501,0.0180758349597454,0.0291216292266522,0.0700452073736904,-0.8799086715535046,22.622901916503903,19.70500946044922,-36.786895751953125,-0.04039323091072992,1007.7099868511438
1.620732177734375,-0.0382218133013695,0.0414351127920672,0.0570066663354635,0.0331143178045749,0.0175391174852848,0.0125798704102635,0.0294980380865797,0.070239468554492,-0.8798122204849465,22.624237060546875,19.580612182617188,-36.698272705078125,-0.04047249949345443,1007.7099975321847
1.630801025390625,-0.0250462515164166,0.0193453181947581,0.0625771599441766,0.0339143835008144,-0.0033378731459379,0.0142090860754251,0.0298243844822666,0.0702700011590963,-0.8796752865601598,22.87693977355957,19.578224182128903,-36.732452392578125,-0.040551766154190184,1007.7100082129667
1.6408701171875,-0.0048882104329764,-0.0031255846746265,0.0341138665258884,0.0407493859529495,-0.011409381404519,0.0143510326743125,0.0301729195948296,0.0701680111737681,-0.8795562538124315,22.972373962402344,19.72008514404297,-36.711517333984375,-0.040631034736914706,1007.7100188940077
1.650939208984375,0.0113920393690466,0.0070550878769718,0.0217021287202835,0.0511782094836235,-0.0250608511269092,0.0162326470017433,0.0306314328000525,0.0699578305368259,-0.879418291267456,22.880464553833008,19.52819061279297,-36.899444580078125,-0.04071030331963922,1007.7100295750487
1.661008056640625,0.0217553202122449,0.017480729899276,0.028635142853856,0.0457877069711685,-0.0276790037751197,0.017865166068077,0.0311302171826385,0.0696642357715317,-0.8792837258803197,22.881933212280277,19.629493713378903,-36.672210693359375,-0.04078956998037497,1007.7100402558307
1.6710771484375,0.012361541988328,0.005676145940274,0.0502513468563556,0.0405630134046077,-0.0243539027869701,0.0194219946861267,0.0315593814911406,0.0693709899025278,-0.8790403237621753,23.04862403869629,19.45433807373047,-36.67111206054688,-0.04086883856309949,1007.7100509368717
1.68114599609375,0.0190942112442106,0.0154748151706531,0.0438864879995584,0.0344840809702873,-0.0269824434071779,0.0216638445854187,0.0319331486781651,0.0690964663281316,-0.878789454592681,23.09586906433105,19.58139038085937,-36.39566040039063,-0.04094810522383524,1007.7100616176537
1.69121533203125,0.0209954417556524,0.0466483173957094,0.0266401696443557,0.0303519740700721,-0.0313030928373336,0.0233252830803394,0.0322587338441151,0.0687803249478227,-0.8785269020217085,23.145612716674805,19.60350799560547,-36.556488037109375,-0.041027375728548525,1007.7100722989537
1.701283935546875,0.0267892227262258,0.0433633409082889,-0.0240858089864254,0.0305583700537681,-0.0351886451244354,0.0264078937470912,0.0325495294562039,0.0684180166882275,-0.8782527774230604,23.139728546142575,19.71729278564453,-36.481536865234375,-0.04110664046729551,1007.7100829794767
1.711353271484375,0.031155382046476,0.0337978593792766,-0.0716863490730524,0.033492587506771,-0.034163124859333,0.0316895805299282,0.0328712896653996,0.0680640522827307,-0.8779308880417281,23.115020751953125,19.569862365722656,-36.806427001953125,-0.0411859109720088,1007.7100936607767
1.721422119140625,0.012929916460812,0.0526673950221389,-0.0660439592719078,0.0260394643992185,-0.0278735365718603,0.0305968858301639,0.033178182086438,0.0677555882563688,-0.8775261665719801,23.321712493896484,19.56390380859375,-36.56271362304688,-0.041265177632744544,1007.7101043415587
1.731490966796875,0.0452714395519346,0.0503609447106719,-0.0676040481954813,0.0249749366194009,-0.0239321235567331,0.0295405369251966,0.0334466746780669,0.0674940344433196,-0.8772449765419882,22.996776580810547,19.58173370361328,-36.844635009765625,-0.0413444442934803,1007.7101150223407
1.741560302734375,0.0578814764086157,0.0150905285608023,-0.0170049108147621,0.0276484843343496,-0.0093108359724283,0.0286627579480409,0.0337259860571093,0.0673222090802603,-0.8769677493906316,22.93461036682129,19.571983337402344,-36.731536865234375,-0.04142371479819358,1007.7101257036406
1.75162890625,0.042116409587115,0.0149566730480641,0.0207628020435571,0.0351199768483638,0.0028957421891391,0.0270588845014572,0.0340482126001423,0.0672977715171979,-0.8766521031689675,22.969125747680664,19.38471221923828,-36.951568603515625,-0.041502979536940564,1007.7101363841637
1.7616982421875,0.0504780682843178,0.012719890439324,0.0093038349181413,0.0402795858681201,0.0254987888038158,0.0278525054454803,0.0344459709570327,0.0674535619284142,-0.8763549137316572,22.899045944213867,19.32207489013672,-36.806976318359375,-0.041582250041653855,1007.7101470654636
1.77176708984375,0.0577021012537181,-0.0087319898469373,0.0067208326876163,0.0377152189612388,0.0305899493396282,0.025462869554758,0.0348527210401254,0.067756334948306,-0.8760590996864929,23.06049156188965,19.416336059570312,-36.564056396484375,-0.0416615167023896,1007.7101577462456
1.781836181640625,0.0599892623428255,-0.0152610628221184,0.047992169752717,0.0275856181979179,0.0332400612533092,0.0294392332434654,0.0351942280178705,0.0680741596322354,-0.875786495819664,23.07522201538086,19.504791259765625,-36.96774291992188,-0.04174078528511412,1007.7101684272866
1.7919052734375,0.0588403845686465,-0.0158098192786797,0.124334235677123,0.012736327946186,0.0242638420313596,0.0262058340013027,0.0353977992260965,0.0683758034395873,-0.8754714684315352,23.107839584350582,19.38727569580078,-36.87179565429688,-0.04182005386783864,1007.7101791083276
1.80197412109375,0.05790376130566,-0.0168383586088195,0.1513075827986001,-0.0037656845524907,0.0064896377734839,0.0277619175612926,0.0354455359945171,0.0685176183842606,-0.8751547730015293,23.27307891845703,19.540489196777344,-36.578460693359375,-0.04189932052857439,1007.7101897891096
1.812043212890625,0.0694280487522482,-0.0053180897502228,0.1541518663138151,-0.0120298285037279,0.0039028138853609,0.0273158885538578,0.035353738737419,0.0685630801311862,-0.8748546500610223,23.21747589111328,19.57946014404297,-36.39425659179688,-0.04197858911129891,1007.7102004701505
1.822112060546875,0.0643296296346932,-0.001055683065392,0.1079635311126708,-0.0214454364031553,0.0004524220712482,0.0228865183889865,0.0351779274111206,0.0685790666048395,-0.8745119427817927,23.2778434753418,19.409080505371094,-36.812835693359375,-0.04205785577203466,1007.7102111509325
1.83218115234375,0.0612614011704921,-0.0014893252423033,0.046994390887022,-0.0178171508014202,-0.00682521937415,0.0210602711886167,0.0349809974682095,0.0685557017925593,-0.8742756263125778,23.073627471923828,19.469520568847656,-36.547760009765625,-0.04213712435475918,1007.7102218319735
1.84225,0.0559853604637086,-0.0243074523804709,-0.0096148005634546,-0.0072561195120215,-0.0133622139692306,0.0156157035380601,0.0348513838862994,0.0684675266885367,-0.8740974283655669,22.991676330566406,19.43344116210937,-36.83755493164063,-0.04221639101549493,1007.7102325127555
1.852319091796875,0.0873147839028388,-0.0209486800044775,-0.0100005850106477,0.006083708256483,-0.0134335272014141,0.0192071329802274,0.0348581910743287,0.0683700785157545,-0.8739441026881554,22.9527530670166,19.465049743652344,-36.499114990234375,-0.042295659598219446,1007.7102431937966
1.86238818359375,0.0888573371697217,-0.0243347787788137,0.0303296718120574,0.0071569615975022,-0.0170386470854282,0.0200992915779352,0.0349402013007665,0.0682125085645326,-0.8737845004697921,23.04578018188477,19.526351928710938,-37.08248901367188,-0.04237492818094396,1007.7102538748376
1.87245703125,0.0686294457204639,-0.0204074857998639,0.0921568901717662,0.0005353791639208,0.0035793795250356,0.0187599193304777,0.0350050188430938,0.0681388873150328,-0.8735677561698422,23.236793518066406,19.54634094238281,-37.041595458984375,-0.04245419484167971,1007.7102645556196
1.882526123046875,0.0305035670742392,0.0066690659677609,0.0779343035519123,0.00414396263659,0.0316237956285476,0.014853861182928,0.0350500242130645,0.0683500075408052,-0.8733766596141394,23.148595809936523,19.453956604003903,-36.882598876953125,-0.042533463424404234,1007.7102752366606
1.89259521484375,0.040138168316707,0.0311559300357475,0.0160065474271774,-8.2729384303e-06,0.0392408706247806,0.0144781582057476,0.0350903462458692,0.0687421053617099,-0.8732376384637967,23.14299964904785,19.62955474853516,-36.791534423828125,-0.04261273200712875,1007.7102859177015
1.9026640625,0.0226145673900842,0.0260127219283953,-0.0612678309112787,-0.0040541468188166,0.0199473313987255,0.008120659738779,0.0350694152443544,0.0690650855846392,-0.8731133845762503,23.168588638305664,19.49358367919922,-37.003448486328125,-0.0426919986678645,1007.7102965984835
1.9127333984375,0.002176832582429,-0.0068203475393354,-0.0969581529736518,0.0081484569236636,-0.0029449332505464,0.0024646390229463,0.0350935812945649,0.0691658712476858,-0.8730200788469954,23.32830238342285,19.4874267578125,-36.851165771484375,-0.042771269172577786,1007.7103072797835
1.922802001953125,0.0114208270721137,-0.0257421613587066,-0.0639759208261966,0.0145970350131392,-0.0298154279589653,0.0062987920828163,0.0352088369095203,0.0690165258983969,-0.8731070622120952,22.88596534729004,19.703155517578125,-36.89028930664063,-0.04285053391132477,1007.7103179603065
1.93287109375,-0.0162362645298242,-0.002345613278076,-0.0349380423903465,0.0226443633437156,-0.0410320870578289,0.0015786285512149,0.035412745460428,0.068677682076369,-0.8731483811420379,22.975740432739254,19.59172821044922,-36.864837646484375,-0.04292980249404929,1007.7103286413475
1.94293994140625,-0.0310215995989739,0.0165287812029942,0.0029483284115791,0.0290942750871181,-0.0459714494645595,0.0030273883603513,0.035674353344798,0.0682774591476312,-0.8731733086006163,22.994632720947266,19.400718688964844,-37.29244995117188,-0.04300906915478504,1007.7103393221295
1.953009033203125,-0.0242344236768782,-0.0027612083416432,0.0142073890507221,0.0348162166774272,-0.0428314469754695,0.0069536776281893,0.0359963468375205,0.0678289612023999,-0.8731524063716796,23.044294357299805,19.430953979492188,-37.01315307617188,-0.04308833773750956,1007.7103500031704
1.963078369140625,-0.0266097014408558,-0.014466953302361,0.0540957473248243,0.036153919994831,-0.0196046903729438,0.0132192969322204,0.0363593316359503,0.0675065403713858,-0.8730905657268321,23.02908706665039,19.482765197753903,-36.93356323242188,-0.04316760824222284,1007.7103606844704
1.97314697265625,-0.0547067918952554,-0.000503602140583,0.096668814638257,0.0282982550561428,0.0026509445160627,0.016632679849863,0.0366847777748573,0.0674425750109306,-0.8729968038145604,22.968759536743164,19.403091430664062,-37.14108276367188,-0.043246872980969825,1007.7103713649934
1.98321630859375,-0.0684128803603351,0.021000519789569,0.0710620796948671,0.0179976802319288,0.0202299393713474,0.0158084314316511,0.0369093570153921,0.0675746735998319,-0.8728122674786345,22.989381790161133,19.161895751953125,-36.834381103515625,-0.043326143485683116,1007.7103820462934
1.993284912109375,-0.0487646154299378,0.0189688312988728,0.0158142397254705,0.0114312637597322,0.016842532902956,0.0189730562269687,0.0370532362364936,0.0677693166376227,-0.8726160430418289,23.079872131347656,19.245269775390625,-37.135772705078125,-0.0434054082244301,1007.7103927268164
2.003354248046875,-0.0461336093392223,-0.0005005334006622,-0.0395312153995037,0.0106328483670949,0.0117867877706885,0.0178161785006523,0.0371737059604308,0.0678984421970347,-0.8724534434697278,22.886693954467773,19.25965118408203,-36.86245727539063,-0.04348467872914338,1007.7104034081163
2.01342333984375,-0.0895692848313599,-0.0025180472355335,-0.0606190116137266,0.0216999426484107,0.0134494639933109,0.0149664673954248,0.0373495713745922,0.0680101954406637,-0.8722974935758241,23.050886154174805,19.309066772460938,-37.300201416015625,-0.0435639473118679,1007.7104140891574
2.023491943359375,-0.0734578157249838,0.009237893542461,-0.0558966592669486,0.0367044582962989,0.0199683494865894,0.0118614882230758,0.0376482869898742,0.0681690537807172,-0.8721856414379726,23.008432388305664,19.21428680419922,-37.060150146484375,-0.04364321205061488,1007.7104247696805
2.033561279296875,-0.0502908751491457,0.0125452279921621,-0.0568605358630418,0.0389189049601554,0.0016048206016421,0.0040209535509347,0.038031588253262,0.0682799337059852,-0.872060074364316,23.160362243652344,19.016616821289062,-37.244049072265625,-0.04372248255532817,1007.7104354509804
2.0436298828125,-0.0592928775765001,0.0045007454853504,-0.0490238508880138,0.0322990864515304,-0.014292387291789,-0.0030603918712586,0.0383864673763487,0.0682220687262589,-0.8720786223066013,23.072633743286133,19.252120971679688,-36.93209838867188,-0.043801747294075155,1007.7104461315034
2.05369921875,-0.0597827069200575,-0.0097537341101095,-0.0329810631036758,0.0254801362752914,-0.0214263927191495,-0.0073703313246369,0.0386726287862705,0.0680127278619889,-0.8722086835098638,22.708526611328125,19.100997924804688,-37.21017456054688,-0.04388101779878844,1007.7104568128034
2.063767822265625,-0.0764333244044333,0.0050191068036481,-0.0138806413143873,0.0158565361052751,-0.0254008956253528,-0.0083570331335067,0.0388669293539405,0.0677572232444818,-0.8723092119759506,22.884937286376957,19.02275848388672,-37.472259521484375,-0.04396028253753542,1007.7104674933264
2.073837158203125,-0.0712642512034624,0.0399826489614322,-0.0006114098966121,0.0165368318557739,-0.0164224673062562,-0.0077012116089463,0.0390143579886268,0.0675197117243946,-0.8724466163132898,22.99176597595215,19.318756103515625,-37.49069213867188,-0.04403955304224871,1007.7104781746264
2.08390625,-0.046500177629292,0.0333711949324235,0.0423047717660665,0.0236863549798727,0.0056841662153601,-0.0054700155742466,0.0392100802022745,0.0674514538488715,-0.8725768547245147,22.95265769958496,19.323211669921875,-37.627349853515625,-0.04411882162497323,1007.7104888556673
2.09397509765625,-0.0387431337617337,0.0181027525214478,0.0373036024779081,0.0322755090892314,0.0320978611707687,0.0016546170227229,0.0394691244170151,0.0676229582599425,-0.8726945924969716,22.87047576904297,19.314956665039062,-37.57467651367188,-0.04419808828570898,1007.7104995364493
2.104044189453125,-0.0400198756992816,0.0219068575121462,0.0361415729612112,0.0361695848405361,0.0528958179056644,0.0028945845551788,0.0398115327138027,0.0680452993493263,-0.8727957527032862,22.939653396606445,19.47965240478516,-37.406158447265625,-0.044277356868433496,1007.7105102174903
2.114109619140625,-0.0511956419691443,0.0185003004716709,0.0664683221638202,0.0330504551529884,0.0562399178743362,0.00366604141891,0.0401510789635782,0.0685924543626837,-0.8727850078676359,22.995288848876957,19.525184631347656,-37.85910034179688,-0.0443565966213265,1007.7105208946466
2.1241787109375,-0.040336759628728,-0.0197005431069061,0.0944768575519323,0.0245424546301364,0.0369258746504783,0.0009610685519874,0.0404520868281165,0.0690438181035978,-0.8727964236069226,23.355205535888672,19.452133178710938,-37.79367065429688,-0.044435865204051024,1007.7105315756876
2.134247802734375,-0.0129210025019943,-0.0216508003918454,0.1391565417557954,0.0136931166052818,0.0026977024972438,-0.0035405694507062,0.0406501067941213,0.0692400988098208,-0.8728198430101263,23.27779960632324,19.36353302001953,-37.200103759765625,-0.044515133786775546,1007.7105422567286
2.14431689453125,-0.0042905368007719,-0.0141626000609248,0.15018880790174,-0.0028283353894948,-0.0321798548102378,-0.0060756327584385,0.0406812945084484,0.0690614563398361,-0.8728913012103043,23.292949676513672,19.420494079589844,-37.292999267578125,-0.04459440236950006,1007.7105529377695
