Timestamp,Acc x (m/s^2),Acc y (m/s^2),Acc z (m/s^2),Gyro x (rad/s),Gyro y (rad/s),Gyro z (rad/s),Beccheggio/Pitch (rad/s),Rollio/Roll (rad/s),Imbardata/Yaw (rad/s),Mag x (microTesla),Mag y (microTesla),Mag z (microTesla),Altitudine (m),Pressione (milliBar)
0.02786865234375,-0.1057069112922996,-0.0264551684662699,0.2004436618894338,-0.0540036670863628,0.0035564145073294,-0.0138231422752141,0.0832903204370951,0.0899932123031675,-0.8535878276974215,23.9891300201416,17.799156188964844,-36.287445068359375,-0.009204727617973568,1007.6986644245327
0.037938720703125,-0.0716690326120704,-0.0536499032534658,0.1321381874263286,-0.037573903799057,0.0219021420925855,-0.0123168043792247,0.0828196801721208,0.0901669488377793,-0.8539392308598052,23.925785064697266,17.867782592773438,-36.75552368164063,-0.0093633016903937,1007.6986827391513
0.048007568359375,-0.0118346685700118,0.0093657942384481,0.0646674102216958,-0.0250413343310356,0.022827323526144,-0.0169957131147384,0.08251531332031,0.0904281368826493,-0.8542135441202667,23.58761215209961,17.12389373779297,-37.14987182617188,-0.009521856540316146,1007.6987010515497
0.058076416015625,0.0018889555517584,0.0254230489395558,-0.0289350025832653,-0.0175955966114997,0.024519182741642,-0.0284812673926353,0.0823056824502648,0.0907077211346072,-0.8545523257806432,23.53175544738769,16.86841583251953,-37.048248291015625,-0.009680411390238591,1007.6987193639482
0.068145751953125,-0.0149451287407428,0.0260260563340038,-0.0667599985867738,-0.0208156257867813,0.020626176148653,-0.0460847653448581,0.0821377257921694,0.090990862138628,-0.8548717434937817,23.77016830444336,16.6630859375,-36.687103271484375,-0.009838973929160113,1007.6987376772347
0.078215576171875,0.0292374195959419,0.0420464861560612,-0.0672936670720577,-0.0231797844171524,-0.0028636578936129,-0.0571985244750976,0.0819090153141918,0.0911234595573664,-0.8554540591015792,23.571203231811523,16.88524627685547,-36.520599365234375,-0.009997544157080708,1007.6987559914093
0.08828466796875,0.0615280162174254,0.0640952363569289,-0.0826782832086086,-0.0186553373932838,-0.0208477191627025,-0.0310958195477724,0.0816693668543012,0.0909711152614983,-0.85591746431379,23.54786872863769,16.71173858642578,-36.753936767578125,-0.010156102851502691,1007.6987743042516
0.098353515625,0.0163308840107172,0.062244932315126,-0.0728261667579412,-0.020793080329895,-0.0023719202727079,-0.0348911695182323,0.081495372275881,0.0908167615890048,-0.8562875280177226,23.66382598876953,17.149742126464844,-36.06100463867188,-0.01031465770142514,1007.6987926166502
0.108423583984375,-0.062728404983133,0.1316296533823013,-0.0001812017858028,-0.0253558754920959,0.0367738865315914,-0.0471949726343154,0.0812303003613314,0.0909737316950531,-0.856790209101745,23.83086585998535,17.450965881347656,-36.234954833984375,-0.010473231773845272,1007.6988109312687
0.11849267578125,-0.0432659449484199,0.1610322004120797,-0.0197030638575553,-0.0117848450317978,0.0424606315791606,-0.0479811988770961,0.0810081901245852,0.0914169153539634,-0.8572858629089242,23.865623474121094,17.11396026611328,-36.181671142578125,-0.010631790468267255,1007.6988292441112
0.128561767578125,0.0200322227466851,0.1028934613067656,-0.1472761353254318,0.0067720599472522,0.0090960189700126,-0.0469633415341377,0.0809541441677337,0.0917238268716939,-0.8578456027492769,23.86013603210449,17.47203826904297,-36.068756103515625,-0.010790349162689238,1007.6988475569536
0.138631591796875,0.0127844435755163,0.0807188927691429,-0.1831412294328212,0.0224368646740913,-0.0119034368544816,-0.0410245507955551,0.0810737259632378,0.0917314181050802,-0.8583396904145576,23.923009872436523,17.299652099609375,-35.834686279296875,-0.010948919390609834,1007.6988658711282
0.14870068359375,-0.0047303895227611,0.0469135076705366,-0.109934538924694,0.0304844044148921,-0.0051464647985994,-0.0401286631822586,0.0813046586668912,0.0916570160211722,-0.8588618805768086,23.71410369873047,17.25914764404297,-36.147064208984375,-0.011107478085031817,1007.6988841839707
0.158769775390625,-0.0137318074282258,0.0068626523111015,-0.0346159708291292,0.0192549135535955,0.0146072283387184,-0.0406874790787696,0.0815090105053682,0.0917531723500473,-0.8594202034319967,23.513776779174805,17.26617431640625,-36.076507568359375,-0.0112660367794538,1007.6989024968132
0.168839599609375,-0.0226851484082639,-0.0197528212834149,0.0770499219328165,-0.0083740502595901,0.0325055345892906,-0.0458300411701202,0.0814957536549051,0.0920580092944929,-0.8599813106288554,23.730588912963867,17.486778259277344,-36.030181884765625,-0.011424607007374398,1007.6989208109877
0.17890869140625,-0.0229041249211877,-0.0386601316533982,0.1297597678571939,-0.0310204364359378,0.0279208943247795,-0.0515020973980426,0.0812300744841232,0.0924167467339448,-0.8605502584185136,23.71827507019043,17.375465393066406,-36.34243774414063,-0.01158316570179638,1007.6989391238302
0.188977783203125,-0.022442937150225,-0.0437184379562735,0.1024766241341829,-0.0454457141458988,0.0022807782515883,-0.0460660532116889,0.0807431884090388,0.0925655689165787,-0.8610667553884589,23.63580322265625,17.136024475097656,-36.156097412109375,-0.011741724396218364,1007.6989574366726
0.199047607421875,-0.0220353061974048,-0.0590614069081842,0.0413584308266639,-0.0494611039757728,-0.017048655077815,-0.0434189438819885,0.0801533008155439,0.0924885269684722,-0.8615149410324112,23.934232711791992,17.23462677001953,-35.986541748046875,-0.01190029462413896,1007.6989757508471
0.20911669921875,-0.0111957861445844,-0.038323520110175,-0.0153717566549777,-0.0474200546741485,-0.0146568696945905,-0.043144904077053,0.0795806056406801,0.0923391783470556,-0.8618991792785372,23.830507278442383,17.220733642578125,-36.02951049804688,-0.012058853318560943,1007.6989940636896
0.219185546875,-0.0434355293616652,0.0049971507001668,-0.0452870024472475,-0.0427072532474994,-0.0048119714483618,-0.0465253107249736,0.0790525755611938,0.0922807572048951,-0.862308814269109,23.799436569213867,17.28520965576172,-35.954559326171875,-0.01221740816848339,1007.699012376088
0.229254638671875,-0.0638399464216083,0.0006722001731395,-0.0449509023606777,-0.0384113080799579,0.0067256414331495,-0.0446400567889213,0.0785948749147917,0.0922983000224088,-0.8628014223302559,23.53534507751465,17.262100219726562,-36.16476440429688,-0.012375966862905373,1007.6990306889305
0.23932470703125,-0.0457671141143888,0.0079003247957676,-0.0334404973089694,-0.025586936622858,0.0159251987934112,-0.0456825383007526,0.0782321912180461,0.0924527911206924,-0.8632123445310504,23.77329635620117,17.226333618164062,-35.729095458984375,-0.012534540935325505,1007.6990490035491
0.2493935546875,-0.0284676773324608,0.0125857791982591,-0.0582931990146636,-0.0136977881193161,0.019235510379076,-0.0418084375560283,0.078007372571074,0.0926569886762407,-0.8637156356376675,23.704404830932617,17.460060119628906,-36.27291870117188,-0.012693095785247953,1007.6990673159476
0.259462646484375,0.0275205326754599,-0.0160115158632397,-0.0810235017389059,-0.0038798581808805,0.0195928774774074,-0.0354858599603176,0.077913864727164,0.0928844518956163,-0.864167929418332,23.82035255432129,17.62945556640625,-36.309173583984375,-0.012851654479669936,1007.69908562879
0.26953271484375,0.0768384711392223,-0.0009652648355811,-0.082739073485136,0.0071379048749804,0.0231191702187061,-0.0369138456881046,0.0779375961927639,0.0931062399944605,-0.8646628082231925,23.67699432373047,17.739097595214844,-36.287384033203125,-0.013010228552090069,1007.6991039434087
0.2796015625,0.0512431343726813,0.04468552942276,-0.0980342577725648,0.0192434731870889,0.022774152457714,-0.0285640656948089,0.0780765074608621,0.0933539608595415,-0.8650438011194698,23.864206314086918,17.545249938964844,-35.957550048828125,-0.013168783402012515,1007.6991222558071
0.289670654296875,0.0455586589954793,0.0482585656039416,-0.1461608675599098,0.0127389682456851,-0.0027091030497103,-0.0276695098727941,0.0782276951607751,0.0934932449004662,-0.8653780519171315,23.901769638061523,17.54761505126953,-36.242279052734375,-0.013327342096434498,1007.6991405686496
0.29974072265625,0.0482888146117329,0.0374974445495754,-0.1455418588787317,0.0142011521384119,-0.0240532159805297,-0.0286360457539558,0.0783514506547171,0.0933674082076044,-0.8657637846945112,24.00822639465332,17.893783569335938,-36.19992065429688,-0.01348591616885463,1007.6991588832681
0.3098095703125,0.0652057548820972,0.0642179128885269,-0.1215203473001718,0.0077291382476687,-0.0372944511473178,-0.0282168630510568,0.0784366632221397,0.0930443871801812,-0.8661887506128861,23.736446380615234,17.78582000732422,-36.345733642578125,-0.013644471018777077,1007.6991771956665
0.319878662109375,0.0525755520202219,0.0907023074492812,-0.0448509491175413,-0.0038384050130844,-0.0366459935903549,-0.0280870050191879,0.0784212204961604,0.0926662079392793,-0.8665386489791362,23.79337310791016,17.663429260253906,-36.395599365234375,-0.013803029713199062,1007.699195508509
0.329948486328125,0.0356141880862414,0.0774346834667027,0.0025543606579303,-0.0105756688863039,-0.0390375107526779,-0.0282204300165176,0.0783038859383098,0.0923018086832062,-0.8669071296001516,23.73125267028809,17.68975830078125,-36.492462158203125,-0.013961599941119658,1007.6992138226835
0.340017578125,0.0342758521545678,0.0739743138797581,0.0080184712827205,-0.0030018994584679,-0.0325361303985118,-0.021557293832302,0.0782101470332838,0.0919621185426448,-0.8671885906211245,23.851747512817383,17.617645263671875,-36.458892822265625,-0.01412015863554164,1007.699232135526
0.350086669921875,0.0709332656834274,0.0627773586913943,0.0024129063606262,0.0034546684473752,-0.0266233794391155,-0.0184472557157278,0.0781974882400386,0.0917164943278627,-0.8674244625823107,23.698341369628903,17.450218200683594,-36.451019287109375,-0.014278717329963624,1007.6992504483685
0.36015673828125,0.0409988767992705,0.031656901827827,0.0197480720430612,0.0087207173928618,-0.0154765164479613,-0.0195123739540576,0.0782285273715163,0.0915483505484293,-0.8676109200042562,23.868873596191406,17.478843688964844,-36.324127197265625,-0.014437291402383756,1007.6992687629871
0.3702255859375,0.0314225085500627,0.012795768687129,0.0843979466080665,0.0062224054709076,-0.0040470277890563,-0.0202186442911624,0.0782737459249187,0.0915025169309031,-0.8678999433419997,23.585912704467773,17.62328338623047,-36.26950073242188,-0.014595846252306203,1007.6992870753855
0.380294677734375,0.0414653983324766,0.0270673820804804,0.1119423716157674,-0.0010833702981472,-0.0097244018688797,-0.0141225419938564,0.0782794713609644,0.091485422274239,-0.8681269030832907,23.63736343383789,17.50707244873047,-36.243927001953125,-0.014754404946728186,1007.699305388228
0.390364501953125,0.0430069286860525,0.0261395997110754,0.1072761333703994,-0.0042948760092258,-0.013636851683259,-0.0143776722252368,0.0782151818938039,0.0914034697272532,-0.8683510187265651,23.635316848754883,17.621185302734375,-36.438385009765625,-0.014912975174648783,1007.6993237024026
0.40043359375,0.0610807108413428,0.0313577727507799,0.1037391914159059,-0.0047240974381566,-0.0218012779951095,-0.012901715002954,0.078106097134513,0.091267695728659,-0.868487308858411,23.730697631835938,17.43328094482422,-36.573272705078125,-0.015071533869070767,1007.6993420152451
0.410502685546875,0.0489765776801854,0.0203038792949169,0.0811357299417257,-0.0009229676797986,-0.0361213609576225,-0.0125616295263171,0.0780315451105329,0.0910041917806062,-0.8686954450611495,23.613283157348636,17.734542846679688,-36.215423583984375,-0.015230092563492751,1007.6993603280874
0.420571533203125,0.0503693472128361,0.0129851537793874,0.0717751964002847,0.0028498480096459,-0.0395880602300167,-0.01410105638206,0.0779869947957301,0.0906302881056081,-0.8688764525470802,23.577016830444336,17.523086547851562,-36.316436767578125,-0.015388647413415196,1007.699378640486
0.430641357421875,0.0370658481992781,0.0170629246123135,0.0825409205645322,-0.0033489251509308,-0.0277692191302776,-0.0190172512084245,0.0779449306958524,0.0903365429223799,-0.8691662664367831,23.48371124267578,17.74182891845703,-36.361724853515625,-0.01554721764133579,1007.6993969546605
0.440710693359375,-0.0046505292195826,0.0099542616508901,0.1228717619091272,-0.0088676810264587,-0.0156802013516426,-0.0226086936891078,0.0778453550072331,0.0901634496018462,-0.8694493526927475,23.510393142700195,17.63390350341797,-36.247406005859375,-0.015705780180257315,1007.699415267947
0.450779541015625,-0.0293835500683635,0.0090840546876192,0.1109936925888061,-0.0212883967906236,-0.0134767005220055,-0.0328794382512569,0.0776645238648124,0.0900436318520632,-0.869694379208618,23.69410514831543,17.512924194335938,-35.915374755859375,-0.01585736740537088,1007.6994327754213
0.460849609375,-0.0243036164555698,0.0143242203634232,0.0798199711680412,-0.0268101282417774,-0.0084453867748379,-0.0323510207235813,0.0773893292471572,0.089996402808615,-0.870010055278274,23.806833267211918,17.6815185546875,-36.19692993164063,-0.015910243198831213,1007.699438879409
0.470918701171875,0.0061682403061538,-0.0039253567501902,0.0392307711482048,-0.0374904684722423,-0.0005645607598125,-0.0334711447358131,0.0770379625039313,0.0899995203923839,-0.8703926393276026,23.634809494018555,17.8216552734375,-36.503204345703125,-0.01596311386456895,1007.6994449828047
0.480987548828125,0.0231372030247002,0.0066355655569583,-0.0368950216770172,-0.0360025614500045,0.013192263431847,-0.0327808521687984,0.0766335838300211,0.0901288521974458,-0.8707260775396503,23.6657772064209,17.691879272460938,-36.231842041015625,-0.016015983248376036,1007.6994510860525
0.491057373046875,0.0164028532683849,0.0238415519017726,-0.0907142901480197,-0.0250503122806549,0.0231034830212593,-0.0279826372861862,0.0762966728657706,0.0903570674864737,-0.8710730282215752,23.65497398376465,17.76690673828125,-36.68527221679688,-0.016068857759905717,1007.6994571898922
0.501126708984375,-0.0133964379940181,0.0210558667059987,-0.13463468041718,-0.0113862436264753,0.0220887921750545,-0.0258167199790477,0.0760882958701091,0.0906190503343815,-0.8713695286320525,23.592342376708984,17.631851196289062,-36.64010620117188,-0.016121729707574105,1007.699463293436
0.511195556640625,-0.0544513558294624,0.0371786609239876,-0.134985393550992,0.002527174539864,0.0238344948738813,-0.0256252400577068,0.0760231819546565,0.0909007533033584,-0.8716252148106671,23.6643009185791,17.614158630371094,-36.043243408203125,-0.016174599091381192,1007.6994693966838
0.521265625,-0.0256028624858707,0.0427581415567547,-0.1355237382113933,0.0197154935449361,0.0072496915236115,-0.0184832848608493,0.0761193910317487,0.0910890702209072,-0.87179088051006,23.653757095336918,17.334152221679688,-36.06417846679688,-0.01622747488484152,1007.6994755006715
0.53133447265625,0.0236353618051856,0.0096560093566775,-0.1610159068644046,0.0340025536715984,-0.0072283176705241,-0.0144611131399869,0.0763915567360881,0.0910901979624748,-0.8720128921635522,23.4834041595459,17.550216674804688,-36.568756103515625,-0.016280344268648612,1007.6994816039193
0.541403564453125,-0.0098792967185378,-0.0336298824012279,-0.1356874043405055,0.0404242128133773,0.0024977065622806,-0.0097242109477519,0.0767546865501469,0.0910769510137351,-0.872202192464728,23.50419235229492,17.5491943359375,-36.52584838867188,-0.016333214934386348,1007.699487707315
0.551473388671875,-0.0463851729474961,-0.0187626412022858,-0.0412310050547122,0.0417379513382911,0.0185805354267358,-0.0113503374159336,0.0771580251626804,0.0912021455682859,-0.8723486854548821,23.62763023376465,17.48810577392578,-36.72476196289063,-0.01638608944591603,1007.6994938111548
0.561542724609375,-0.0650915539178997,0.0143436557162553,-0.0138689508765935,0.0421137399971485,0.0139822419732809,-0.014752360060811,0.077559673375508,0.091389594458172,-0.8724625156662724,23.751300811767575,17.402557373046875,-36.439056396484375,-0.016438961393584417,1007.6994999146984
0.571611328125,-0.0546904252823442,0.0455101436786353,-0.0495803157269954,0.0436975210905075,0.0023082755506038,-0.0130716376006603,0.0779618831769481,0.0914922347964892,-0.872572291554357,23.891794204711918,17.463897705078125,-36.411956787109375,-0.016491829495460856,1007.6995060177983
0.5816806640625,-0.0493049328517168,0.0182796069256961,-0.0673585490018129,0.0337371155619621,-0.0003101178444921,-0.0132724065333604,0.07831425957413,0.0914949115240006,-0.8727100149718025,23.75521469116211,17.42823028564453,-36.756439208984375,-0.01654470144312924,1007.699512121342
0.59175048828125,-0.0592459696948528,-0.0420776119466871,-0.109649292242527,0.0258373823016881,-0.0207578688859939,-0.0234446171671152,0.0785690181713895,0.0913804657132067,-0.8729371124953242,23.50630760192871,17.470016479492188,-36.514251708984375,-0.01659757595465892,1007.6995182251817
0.601819580078125,-0.0297843128889799,-0.0359142670113593,-0.1173673192739486,0.0257090702652931,-0.0314958915114402,-0.0284219328314065,0.0787861914888313,0.0911224814274161,-0.8732320404894459,23.700420379638672,17.5972900390625,-36.516632080078125,-0.01665044662039666,1007.6995243285775
0.611888671875,-0.0566381252840161,0.0200992235682904,-0.1107090304285287,0.0349100269377231,-0.0355058126151561,-0.0272911544889211,0.0790514131809039,0.0908086811950899,-0.8735457959444259,23.783632278442383,17.656631469726562,-36.40011596679688,-0.016703317286134396,1007.6995304319732
0.621958740234375,-0.0147935914408415,0.0252178086910396,-0.083982936066389,0.0501467064023017,-0.0233811922371387,-0.0245397016406059,0.0794525555203605,0.0905250930310306,-0.873831857135593,23.76094436645508,17.619644165039062,-36.250274658203125,-0.016756193079594726,1007.6995365359609
0.63202734375,-0.0328249957591295,-0.0007101940959692,-0.0504664509117603,0.0620057620108127,-0.0003496436402201,-0.0236997418105602,0.0799841455500364,0.0903983053769989,-0.8740854144623587,23.811426162719727,17.598602294921875,-36.306976318359375,-0.016809061181471165,1007.6995426390607
0.6420966796875,-0.0342884193751961,0.0203079709481447,-0.0356090735197067,0.0641421601176261,0.0161953195929527,-0.0247097052633762,0.0805882097070149,0.0904915557421546,-0.8743475933856001,23.85401153564453,17.55670166015625,-36.580841064453125,-0.016861933129139552,1007.6995487426044
0.652166748046875,-0.0182055918414145,0.0187022162519395,0.0056926586836576,0.0545057728886604,0.0146458921954035,-0.0188598055392503,0.0811587551312259,0.0906574900006325,-0.8745929721205116,23.614036560058597,17.36389923095703,-36.510162353515625,-0.016914808922599882,1007.6995548465922
0.662235595703125,0.000813435274735,-0.0094259999930858,0.0469359386980533,0.0412825681269168,0.0235957205295562,-0.0280623044818639,0.0815877962159911,0.0908435970256633,-0.874881802587674,23.35235023498535,17.391799926757812,-36.14273071289063,-0.01696767830640697,1007.6995609498399
0.672304443359375,-0.0374061130043119,-0.0117035895362496,0.0974164181351661,0.0294187180697917,0.002416399307549,-0.0241690296679735,0.0819212315557907,0.0909908111777836,-0.8752095012388078,23.546831130981445,17.54199981689453,-36.519317626953125,-0.01702054769021406,1007.6995670530877
0.682374755859375,0.0233638513874262,0.0294836494419723,0.1102472581356763,0.0174991190433502,-0.0303613170981407,-0.0171839464455842,0.0821393462699274,0.090836950470834,-0.8753957238890482,23.5078125,17.22228240966797,-36.07565307617188,-0.017073424765605038,1007.6995731572234
0.692443603515625,0.0157567373845726,0.0303696384962648,0.1349883161604404,0.0087929796427488,-0.0246198084205389,-0.0173669047653675,0.0822300076376113,0.0905276556489163,-0.8755629599105271,23.569660186767575,17.462661743164062,-35.970611572265625,-0.017126294149412125,1007.6995792604712
0.7025126953125,-0.0079771163590252,-0.0373738181699067,0.1496668298542499,0.0003594458103179,-0.0101937148720026,-0.0229177512228488,0.0822190287259228,0.0903524515405865,-0.8757537469831944,23.61202049255371,17.408493041992188,-36.532318115234375,-0.017179164815149865,1007.6995853638668
0.712582763671875,-0.0389996658060699,-0.0414845414243638,0.1376513978898525,-0.0041380999609827,-0.0031374036334455,-0.0292392950505018,0.0821505805435,0.0902953334342403,-0.8760846897131731,23.4671688079834,17.632949829101562,-36.36007690429688,-0.017232040608610194,1007.6995914678546
0.722651611328125,-0.0058793403621762,-0.0089493223920464,0.0892705210804939,-0.0024789357557892,-0.0113040301948785,-0.0298393219709396,0.0820805633351796,0.0902435171241318,-0.8763826072484288,23.51595687866211,17.440673828125,-36.196624755859375,-0.01728490999241728,1007.6995975711023
0.732720703125,0.0308675050158053,0.0396474621903151,0.045733577170968,0.0038122506812214,-0.0216570682823658,-0.0346196964383125,0.0820463104732918,0.0900961109118749,-0.8766668089744996,23.432504653930664,17.251853942871094,-36.335845947265625,-0.017337780658155017,1007.6996036744981
0.742790771484375,-0.0003229483440518,0.0302088219113647,0.0260001181751489,-0.0015375111252069,-0.0169955864548683,-0.0340544953942298,0.0820145216055936,0.0899335393375434,-0.8769824880200198,23.477588653564453,17.41973114013672,-36.197662353515625,-0.01739065645161535,1007.6996097784859
0.752859619140625,0.0197463915426284,-0.0097208182211965,0.0009685527712106,0.0066181542351841,-0.0155548173934221,-0.0280293580144643,0.0820169381823691,0.0898087409379792,-0.877362174587107,23.409379959106445,17.660667419433594,-36.290618896484375,-0.017443525835422437,1007.6996158817336
0.7629287109375,0.032040202056989,-0.0199903563663363,-0.0074924015820026,0.0087421052157878,-0.0173921007663011,-0.0242208093404769,0.0820685379736332,0.0896837278950684,-0.8776272696189058,23.55029296875,17.456802368164062,-36.32760620117188,-0.017496396501160173,1007.6996219851294
0.77299853515625,0.0278434079542756,0.0383080302800983,-0.008774842607975,0.0163606107234954,-0.0153633058071136,-0.0215563159435987,0.0821542336261824,0.0895313556749834,-0.8778730724292159,23.36756706237793,17.400856018066406,-36.603057861328125,-0.017549271012689858,1007.6996280889691
0.783067626953125,0.0373907693047076,0.0754577573705464,-0.0207937817037105,0.0172789674252271,-0.0095512382686138,-0.0213280655443668,0.0823266984383189,0.0894280531019768,-0.8780976586759467,23.410181045532227,17.471206665039062,-36.30783081054688,-0.017602141678427594,1007.6996341923648
0.79313671875,0.0301714125104248,0.0345839682556688,-0.0407283162295818,0.0069893123582005,-0.0112151810899376,-0.0270338878035545,0.0824621681915384,0.0893405989542469,-0.8783960701624159,23.239315032958984,17.448165893554688,-36.48214721679688,-0.01765501234416533,1007.6996402957606
0.80320654296875,0.0074517773106694,-0.0197613699160516,-0.0483592494994401,-0.0078804502263665,-0.0248948503285646,-0.0311563666909933,0.0824287914940908,0.0891993909382929,-0.8787812121059245,23.23384666442871,17.543357849121094,-36.702056884765625,-0.017707886855695014,1007.6996463996003
0.813275634765625,0.0062782765518873,-0.0341950420033186,-0.030442484536767,-0.0245065651834011,-0.0395342484116554,-0.0348190106451511,0.0822227613491909,0.0889187692648108,-0.8791632156226556,23.122234344482425,17.40765380859375,-36.593170166015625,-0.01776075752143275,1007.6996525029961
0.8233447265625,0.0165042678162455,-0.0183097828682512,0.0089209730803966,-0.034786008298397,-0.0414291024208068,-0.0295645780861377,0.081888341670254,0.0885268525816227,-0.8794320553863212,23.265735626220703,17.29413604736328,-36.538116455078125,-0.017813628187170485,1007.6996586063918
0.83341357421875,-0.0023652678266167,-0.0084791475970298,0.0454079984784126,-0.0427789539098739,-0.0241233464330434,-0.0280092917382717,0.0814856423598284,0.088233469148794,-0.8796698397002543,23.22511100769043,17.287567138671875,-36.28414916992188,-0.017866497570977573,1007.6996647096396
0.843483642578125,-0.0534980736926197,-0.0223938373114913,0.0531534980386495,-0.0346036702394485,-0.0073557281866669,-0.0312195774167776,0.081072460568059,0.0881338337484787,-0.8798705256895236,23.485729217529297,17.45514678955078,-36.270538330078125,-0.017919373364437906,1007.6996708136273
0.853552734375,-0.0465335684422403,-0.0103075320679694,0.0256342074722051,-0.037370428442955,5.26532530784e-05,-0.0325024202466011,0.0806709208779171,0.0881379958956117,-0.8801382104430625,23.418027877807617,17.546119689941406,-36.68698120117188,-0.01797224403017564,1007.699676917023
0.86362158203125,-0.0234926653988659,-0.0032845015633851,-0.0230927062958478,-0.0357085280120372,-0.0146092791110277,-0.0332993008196353,0.0802565695647632,0.0881046416313452,-0.8804293879969023,23.443090438842773,17.580337524414062,-36.81100463867188,-0.01802511341398273,1007.6996830202709
0.873691650390625,-0.0105262163199484,-0.0116219026021659,-0.0750374130666255,-0.027308914810419,-0.0303371082991361,-0.0317757055163383,0.0799241288904523,0.0879078556464978,-0.8806711974908639,23.46755790710449,17.414634704589844,-36.785919189453125,-0.01807798920744306,1007.6996891242585
0.8837607421875,-0.017388211043924,-0.017529957602173,-0.1003238300144672,-0.0143364816904068,-0.0363969281315803,-0.0351436585187912,0.07968712782479,0.0875966662692652,-0.8809377480428922,23.420246124267575,17.415008544921875,-36.949127197265625,-0.018130859873180798,1007.6996952276543
0.89382958984375,-0.029200740847364,-0.007228124622628,-0.1310720194995403,0.0160126350820064,-0.0226227939128875,-0.0262708067893981,0.0797000724189717,0.0873192571024062,-0.8812372233956717,23.18543815612793,17.37342071533203,-36.88003540039063,-0.018183729256987885,1007.699701330902
0.903899658203125,0.0084233988218009,0.0001014145478606,-0.1096545529395341,0.0410469360649585,-0.0033087558113038,-0.0117061026394367,0.079990629517458,0.0872070399138634,-0.8813580671376654,23.332006454467773,17.260604858398438,-36.73159790039063,-0.018236605050448215,1007.6997074348898
0.91396875,-0.0054120151113718,-0.0004324000678956,-0.1182955400347709,0.0576115325093269,0.0038538160733878,-0.0055073294788599,0.0804871102434826,0.0872329611930352,-0.8814147791735255,23.329368591308597,17.37512969970703,-36.299835205078125,-0.018289475716185954,1007.6997135382856
0.92403759765625,-0.0027891192618757,-0.030074454941973,-0.0563759672164917,0.0570169724524021,-0.0006310069002211,-0.0048577790148556,0.0810827474318556,0.0872444270491474,-0.8814151837032446,23.614791870117188,17.496360778808594,-36.28317260742188,-0.01834234509999304,1007.6997196415333
0.934107666015625,0.01065846439749,-0.0268090964704751,0.0182008426010608,0.0409916639328002,0.0013746195472776,-0.0060282382182776,0.0815699152112127,0.0872499320063552,-0.8814594985118407,23.58887481689453,17.547500610351562,-36.818695068359375,-0.01839522089345337,1007.6997257455209
0.9441767578125,0.0082960461150854,-0.0065009063266217,0.0433013815879821,0.0179310720413923,-0.0143028795719146,-0.0052300230599939,0.0818564540042778,0.087202618696633,-0.8814627162933222,23.2416934967041,17.18335723876953,-36.67086791992188,-0.01844809155919111,1007.6997318489167
0.95424560546875,0.0004438713099807,0.0251863175742328,0.046888007903099,0.001549968495965,-0.0317457839846611,-0.0080729471519589,0.0819446348209767,0.0869492776000313,-0.881580023754659,22.98271369934082,17.43872833251953,-36.367462158203125,-0.018500960942998197,1007.6997379521645
0.964315673828125,0.004623275886476,0.0192144766230136,0.0745809014707803,-0.0014076372608542,-0.0338603444397449,-0.009474953636527,0.0819154133127804,0.0866120510404191,-0.881713496567103,23.054777145385746,17.48431396484375,-36.59494018554688,-0.018553836736458527,1007.6997440561522
0.974384521484375,-0.0070341364204883,-0.0081604370366781,0.0631833091437816,0.0099566038697958,-0.0325319580733776,-0.0050578350201249,0.0819469280185034,0.0862573471418249,-0.8818356010209271,22.950822830200195,17.430252075195312,-36.838165283203125,-0.018606706120265618,1007.6997501594
0.9844541015625,0.0026200463052839,-0.0205962863702327,0.0482107809394597,0.012498321942985,-0.0235427282750606,-0.0050545702688395,0.0820524758348201,0.0859889107697387,-0.8819002430349479,23.2219181060791,17.479164123535156,-36.902679443359375,-0.01865957934986465,1007.6997562630917
0.994524169921875,0.0108119744587689,-0.0096526483558118,0.0707324093490839,0.0120969833806157,-0.0159660354256629,-0.0096658337861299,0.0821463857067239,0.0858090831206716,-0.8820374696475031,23.131654739379883,17.586875915527344,-37.04782104492188,-0.01871245514332498,1007.6997623670794
1.004593017578125,-0.0079199062790721,0.0252804255984723,0.0538823968350887,0.0079772528260946,-0.021715672686696,-0.00861098151654,0.0822451666197915,0.0856435448198413,-0.8821574661987897,23.35371398925781,17.6815185546875,-36.507843017578125,-0.018765324527132067,1007.6997684703272
1.014662109375,-0.0037451778776943,0.0345623409457504,0.035108722782135,-0.0012972047552466,-0.0381628237664699,-0.0026814532466232,0.082276224129715,0.0853379773071461,-0.8822270168406842,23.3103084564209,17.71246337890625,-36.483795166015625,-0.018818195192869806,1007.699774573723
1.02473193359375,0.0094824063554406,0.0252836404688656,0.053363341397047,-0.0040193973109126,-0.0250754915177822,-0.0044572143815457,0.0822454892857625,0.0850089658459584,-0.8822524390535984,23.2030086517334,17.51561737060547,-36.76364135742188,-0.018871069704399487,1007.6997806775627
1.03480126953125,-0.0527962820988148,0.036225744113326,0.0365904857724905,0.0092340903356671,-0.0092264879494905,-0.0091222738847136,0.0822473809602321,0.0848429660443625,-0.8823242374144503,23.176977157592773,17.439064025878906,-36.836334228515625,-0.01892394165206787,1007.6997867811064
1.044869873046875,-0.0517462615892291,0.0445030124627053,-0.0166840082973241,0.0267574116587638,0.0058591770939528,-0.0042445324361324,0.0824206338871236,0.084859297854482,-0.8824347212756507,23.11999893188477,17.54723358154297,-36.532501220703125,-0.018976809753944314,1007.6997928842062
1.054940185546875,-0.0020549597684293,0.0585983925063163,-0.0071720835864543,0.0345660671591758,0.0157525539398193,-0.006195830181241,0.0827298584285086,0.0849985707466443,-0.8825381204692363,22.98101043701172,17.525894165039062,-36.454498291015625,-0.019029686829335292,1007.6997989883419
1.0650087890625,-0.0103211222019046,0.0526323967739939,0.0435708461791276,0.032928492873907,0.0204735025763511,-0.0115600544959306,0.0830687137882778,0.0851890910840415,-0.8826561845151627,23.211963653564453,17.565261840820312,-36.84390258789063,-0.01908255493121173,1007.6998050914417
1.075078125,-0.0165929690130054,0.036482203092426,0.0915378814905881,0.020708579570055,0.0062484932132065,-0.0115813603624701,0.0833301113054177,0.0853740353571493,-0.8828716701177413,23.105003356933597,17.608436584472656,-36.890167236328125,-0.01913542687888012,1007.6998111949854
1.08514794921875,-0.0051178544703871,-0.0042523236822336,0.1059767412096261,0.0041030496358871,-0.0138504719361662,-0.0124041670933365,0.0834492150738136,0.0853489789188473,-0.883029711648388,23.229589462280277,17.60296630859375,-36.85220336914063,-0.0191883013904098,1007.6998172988251
1.095217041015625,-0.0065898267190903,-0.0245320914492011,0.1057405943661928,-0.0078028794378042,-0.0269431043416261,-0.0160830579698085,0.0833952197399357,0.0851463005768604,-0.883142167275999,23.19102668762207,17.3677978515625,-36.777130126953125,-0.019241172056147535,1007.6998234022209
1.105285888671875,-0.0273817087266594,-0.0257158944062888,0.0822159263938665,-0.0209425576031208,-0.0359381362795829,-0.0239696204662323,0.0832128435731968,0.0848215004657793,-0.8834298237262835,22.92656135559082,17.590248107910156,-37.198577880859375,-0.019294041439954623,1007.6998295054686
1.115356201171875,-0.0277182472046464,-0.0191819625928998,0.0705763420045375,-0.0186655558645725,-0.0344861783087253,-0.0201628990471363,0.0829933530477872,0.0844549715305155,-0.8836859307073992,22.997249603271484,17.508834838867188,-36.775238037109375,-0.019346918515345604,1007.6998356096043
1.1254248046875,-0.0124225514605641,-0.0257295576054602,0.0407516971051692,-0.0129169356077909,-0.0225500669330358,-0.0176196917891502,0.0827980388703381,0.0841582973132763,-0.8838916535179556,22.98764419555664,17.518760681152344,-36.582611083984375,-0.019399786617222043,1007.6998417127041
1.135494140625,-0.0193182292584329,-0.0146109283503144,0.0003454524368047,-0.0023348648101091,0.0029699397273361,-0.0172332674264907,0.0826955100056203,0.0840820233644454,-0.8840615875387222,23.132080078125,17.5284423828125,-36.982330322265625,-0.019452658564890427,1007.6998478162478
1.14556396484375,-0.0320190131384879,-0.0048048429984599,-0.038816345128417,-0.0006013698875904,0.0242532640695571,-0.0143923852592706,0.0826577124066443,0.0842488784036896,-0.8842370716357717,23.10706901550293,17.56108856201172,-36.711944580078125,-0.01950553307642011,1007.6998539200875
1.155633056640625,-0.0413380456257611,0.0055598260842263,-0.045821255454421,-0.0032722540199756,0.0093360990285873,-0.0141114210709929,0.0826158482782875,0.0844372432000247,-0.884397942702272,23.15133285522461,17.61316680908203,-36.58151245117188,-0.019558403742157848,1007.6998600234833
1.165701904296875,-0.0308821180630475,0.0049232817463576,-0.0483142413139343,-0.0126523710787296,-0.0028508808463811,-0.0117152668535709,0.0825200962551407,0.0844692283007876,-0.8844612410527377,23.199953079223636,17.385833740234375,-36.72134399414063,-0.019611273125964935,1007.6998661267311
1.175772216796875,-0.0227444773800671,-0.0139357325024902,0.0106102413415908,-0.0148374941200017,0.0015545203350484,-0.011816999875009,0.0823818209261941,0.0844623808945614,-0.8846051007419692,23.11656188964844,17.74504852294922,-36.65158081054688,-0.019664150201355913,1007.6998722308668
1.1858408203125,-0.0454973572622984,-0.0143386872801929,0.0145709616661071,-0.00479341391474,-0.0023226498160511,-0.0147470952942967,0.0822946491285083,0.0844625816942588,-0.8847499308360948,23.283411026000977,17.877273559570312,-36.518341064453125,-0.019717018303232352,1007.6998783339666
1.19591015625,-0.0510405975379049,-0.024720965084806,-0.0378846172362566,0.0044685266911983,-0.0149809205904603,-0.0086806807667016,0.0823041077973651,0.0843711470820206,-0.884814047290065,23.42107391357422,17.716506958007812,-36.44284057617188,-0.01976989025090074,1007.6998844375104
1.205980224609375,-0.0213469586070626,-0.0212430598411709,-0.0538286208212375,0.0070859510451555,-0.0148257091641426,-0.0079212188720703,0.0823843666240325,0.084211341362662,-0.8847931511017155,23.459304809570312,17.575424194335938,-36.33102416992188,-0.01982276604436107,1007.699890541498
1.216049072265625,-0.0276683436483144,-0.012424597287178,-0.0267705180257558,0.0159617345780134,0.000886142719537,-0.009080758318305,0.0824905009940716,0.0841390109344059,-0.8847842564233992,23.53278923034668,17.62957000732422,-36.38864135742188,-0.019875635428168156,1007.6998966447458
1.226117919921875,0.0054008361302316,-0.0051052872497588,-0.0134638772070407,0.021233869716525,0.0052998885512351,-0.0066442820243537,0.082657598888383,0.0841709852983576,-0.884796539534065,23.36288070678711,17.61083984375,-36.20523071289063,-0.019928504811975247,1007.6999027479936
1.236188232421875,0.0131515233222395,-0.0113465927921235,-0.0159141929686069,0.0281120166182518,0.0017248610965907,0.0005137627013027,0.0828917167666758,0.0841911200844166,-0.884793894358921,23.22625541687012,17.62993621826172,-35.974151611328125,-0.019981381887366225,1007.6999088521293
1.246257080078125,-0.0079956018637865,-0.0056981385763734,-0.0001034603744745,0.0239799097180366,-0.001577497459948,-0.0045975223183631,0.0831481518275328,0.0841825037204725,-0.8848227401406549,23.19626808166504,17.68463897705078,-36.328033447265625,-0.020034251271173316,1007.699914955377
1.256326904296875,-0.0629336452316492,0.0295779766619205,0.0353489612787961,0.0166932344436645,0.0033895643427968,-0.0099539384245872,0.0833432715036918,0.0841860300564004,-0.8849043090664042,23.14154815673828,17.644371032714844,-36.163421630859375,-0.020087125782702997,1007.6999210592168
1.266396240234375,-0.0403331794321537,0.0421131947167217,0.0491302338719367,0.0106796156615018,0.0011226697824895,-0.0077427024953067,0.0834775692287358,0.0842171880955384,-0.8849925959962887,23.268798828125,17.67962646484375,-36.339691162109375,-0.02013999773037138,1007.6999271627604
1.276465087890625,-0.0143967741429805,0.0233331639882177,0.0205225635468959,0.0063948556780815,-0.0064582843333482,-0.0097139738500118,0.0835617261435364,0.0841666357735681,-0.8851397711961178,23.155651092529297,17.923736572265625,-36.05288696289063,-0.02019286711417847,1007.6999332660083
1.28653515625,-0.0434806836776435,-0.0215783562101423,0.0054062429577112,0.0028613731265068,0.0004110732115805,-0.0145803689956665,0.0836056066778013,0.0841264184978525,-0.8853576943063173,23.125009536743164,18.01422119140625,-36.24234008789063,-0.0202457429076388,1007.699939369996
1.29660400390625,-0.0334607363793998,-0.0228514448858797,0.0160977328419685,0.0073642460629343,0.0088122803717851,-0.0161018334329128,0.0836437627679572,0.0841887503589309,-0.8856321685480545,22.96839904785156,17.857460021972656,-36.782012939453125,-0.02029861229144589,1007.6999454732437
1.306673095703125,-0.0421126832600683,0.005895195518434,-0.0084691376596689,0.009901525452733,0.0190413165837526,-0.0112677225843071,0.0837066765419621,0.0843400870740558,-0.885734599607995,23.20993423461914,17.464035034179688,-36.705657958984375,-0.020351482957183625,1007.6999515766395
1.316742919921875,-0.0270814836710691,0.0088462273437529,-0.0206102418303489,0.0192428287118673,0.0259303841739892,-0.0059142364189028,0.0838402211695741,0.0845953523132166,-0.8859165508238703,23.10343170166016,17.756996154785156,-36.733306884765625,-0.02040435746871331,1007.6999576804792
1.326812255859375,-0.0067479398902505,0.0149588650051504,-0.0235842892050743,0.0345873981714248,0.0228319466114044,-0.0074790376238524,0.0840982266344856,0.0848602176262095,-0.8861099752049607,23.050830841064453,17.866989135742188,-36.644866943359375,-0.020457229416381693,1007.699963784023
1.336881103515625,-0.0268504513941705,0.0240095288798212,-0.0390033921331167,0.0422210842370986,0.0195631831884384,-0.0097288759425282,0.084457837617218,0.0850524681256097,-0.8862920919495434,23.101093292236328,17.919097900390625,-36.456329345703125,-0.02051009880018878,1007.6999698872708
1.346951171875,-0.0491533955518156,0.0231276314787566,0.006260813960433,0.0447970107197761,0.0244194045662879,-0.0125524923205375,0.08487293915527,0.0852713631232178,-0.8864327213345798,23.192312240600582,17.52104949951172,-36.881927490234375,-0.020562974593649114,1007.6999759912584
1.35702001953125,-0.0322233035389333,0.0393687183141708,0.0712719230532646,0.0319581776857376,0.0223472006618976,-0.0199579447507858,0.0852333818310384,0.0855484889493227,-0.8866283841749725,23.26732063293457,17.6517333984375,-36.672637939453125,-0.0206158439774562,1007.6999820945063
1.367089111328125,-0.0173320969425141,0.0036611528560519,0.1372679515302181,0.0053232787176966,0.0138274170458316,-0.0247048828750848,0.0854075397724355,0.0857262928121384,-0.886844918519634,23.250364303588867,17.556541442871094,-36.80776977539063,-0.020668714643193937,1007.6999881979019
1.377158935546875,-0.0014447189155966,0.0096481183111667,0.1122802252680063,-0.0154488449916243,0.0024879449047148,-0.0264431275427341,0.085331129187995,0.0857999439335182,-0.8870635174774981,23.406494140625,17.731040954589844,-36.34927368164063,-0.020721589154723618,1007.6999943017416
1.387228271484375,0.0214646667025983,0.0197235951889306,0.0635638328939676,-0.0323369465768337,0.0054831141605973,-0.0268036127090454,0.0850452493486888,0.0858270716418984,-0.8872574339346565,23.33568000793457,17.585281372070312,-36.558013916015625,-0.020774461102392006,1007.7000004052854
1.397296875,0.0193841341014951,0.0278770910281687,0.0273661458313465,-0.0393389277160167,0.0033414000645279,-0.0220946110785007,0.08463925221211,0.085853354725487,-0.8873898218219939,23.32889747619629,17.4844970703125,-36.38687133789063,-0.020827329204268445,1007.7000065083852
1.4073671875,-0.0060097618088126,0.0481604389917105,0.0104465752124786,-0.0269221290946006,0.0013726647011935,-0.0212687402963638,0.0842648318754879,0.0858767974615858,-0.8875558005498254,23.115577697753903,17.54461669921875,-36.37466430664063,-0.020880206279659422,1007.7000126125209
1.417435791015625,-0.0429094596609473,0.0384616134066134,-0.0016086042404174,-0.0008055763319134,0.014153441414237,-0.0173467025160789,0.0840992112199343,0.0859615619180347,-0.8877616323358155,22.99708747863769,17.66253662109375,-36.082305908203125,-0.02093307438153586,1007.7000187156207
1.427505126953125,-0.0412729445002973,0.0275556770540773,-0.0255097043097019,0.0286820270121097,0.0262915212661027,-0.0081978486850857,0.0842235125239326,0.086147876462825,-0.8879781391212761,23.03701400756836,17.899612426757812,-36.329010009765625,-0.02098594632920425,1007.7000248191645
1.437574951171875,0.0153267484694719,0.0434445163857191,0.009852700972557,0.0435621738433837,0.0346493162214756,-0.0042041721753776,0.0845785167089139,0.0864541293866833,-0.8880756812847127,23.11111259460449,17.67450714111328,-36.282012939453125,-0.02103882084073393,1007.7000309230042
1.44764404296875,0.0164572138041257,0.0478321568854153,0.0021925416082143,0.0403009578585624,0.0236719753593206,-0.0044500469230115,0.0850275481805904,0.0867563413219297,-0.8882522865682316,22.9179744720459,17.774375915527344,-36.351348876953125,-0.021091691506471666,1007.7000370263999
1.4577138671875,0.0173161687210202,0.0457196217108517,0.0244973123967647,0.0254623591899871,0.0083830328658223,-0.0119710806757211,0.0853626524942951,0.0869472949735935,-0.8883479323204381,23.236528396606445,17.46843719482422,-36.983489990234375,-0.021148077379062255,1007.7000435865889
1.467783203125,-0.004373392778635,0.0222842394571751,0.0504395629048347,-0.0017164619639515,-0.0065423515625298,-0.0160526130348444,0.0854604555198845,0.0869625922312787,-0.8884995794475238,23.1851863861084,17.59876251220703,-36.708770751953125,-0.02125378499823593,1007.700056556849
1.477851806640625,-0.0476000286299735,-0.0024448358688503,0.0756534991383552,-0.0222728699445724,-0.0144407544285058,-0.0262903347611427,0.0853033350302997,0.0868518988721337,-0.8887586910719045,23.23782730102539,17.77989959716797,-37.037628173828125,-0.021359484928464366,1007.7000695261655
1.487922119140625,-0.092542528488487,0.0071193304859101,0.1122615205675363,-0.0405738055706024,-0.006002006586641,-0.0298650879412889,0.0849344886745236,0.0867468146769962,-0.8890573931262992,23.24295234680176,17.76031494140625,-37.18374633789063,-0.02146520279956503,1007.7000824976834
1.497990966796875,-0.1130783899083733,-0.0052412616543471,0.1260123980224132,-0.0343119129538536,0.0265087988227605,-0.0269545186311006,0.0845117850332933,0.0868241940016977,-0.8892560737260591,23.373950958251957,17.652687072753906,-36.46432495117188,-0.02157090529277521,1007.7000954673144
1.50806005859375,-0.0975730700016021,0.0050252808161079,0.1055383497923612,-0.0140030505135655,0.0583931729197502,-0.0255732685327529,0.0842301595812199,0.0872429963148132,-0.8895297757863572,23.21666717529297,17.79932403564453,-36.89230346679688,-0.021676610348967142,1007.70010843726
1.518130126953125,-0.0482938561130315,-0.0067906830534338,0.0717804570972919,0.0004738923162221,0.0807019397616386,-0.0172176007181406,0.0841235204430087,0.087975077931712,-0.8897849841369804,23.134450912475582,17.776840209960938,-36.583404541015625,-0.02178232565708606,1007.7001214084635
1.52819921875,-0.012895941125974,0.0234063753549009,0.0132756611585617,0.011237546801567,0.0789734423160553,-0.0170260481536388,0.084151104278907,0.0888122330336616,-0.889927141697784,23.093706130981445,17.45758819580078,-36.52536010742188,-0.021888030713277988,1007.7001343784091
1.538267822265625,0.0198722829446196,0.0419296548433601,-0.0423170467257499,0.0110585819929838,0.0536781996488571,-0.0195419378578662,0.0842397345618871,0.0895049904418728,-0.8901515527936786,23.15776824951172,17.6944580078125,-36.60031127929688,-0.021993730643506425,1007.7001473477256
1.548338134765625,0.0041729017704725,0.0564667873051017,-0.0681289488524198,0.0082800313830375,0.0138060133904218,-0.0211395900696516,0.0843185717374675,0.0898579095576152,-0.8904214616508745,23.161001205444336,17.78577423095703,-36.26510620117188,-0.02209944851460709,1007.7001603192435
1.5584072265625,-0.0038370939448475,0.0503828642815351,-0.0486333902657032,-0.0018442403525114,-0.0222300179302692,-0.0195835065096616,0.0843391391718211,0.0897893349774477,-0.8906408461489609,23.19400405883789,17.68895721435547,-36.25436401367188,-0.022205153570799017,1007.7001732891891
1.56847607421875,-0.0022610037345439,0.0147758365884423,0.0051133974909782,-0.0064409412443637,-0.0330231115221977,-0.0254493243992328,0.084278567717028,0.0894731901766732,-0.8908725883580938,23.2204704284668,17.768165588378906,-36.249603271484375,-0.022310856064009198,1007.7001862588202
1.578546142578125,-0.0084366236295551,-0.0181922939684242,0.0524444729864597,-0.0080367065966129,-0.0164310857653617,-0.020414350554347,0.0841817908129732,0.089169127444395,-0.8910731307717628,23.05488586425781,17.464447021484375,-36.51925659179688,-0.022416571372128116,1007.7001992300236
1.588615234375,-0.0006819909147918,-0.0316722455274313,0.0557686489731073,-0.0068502081558108,-0.0054118121042847,-0.01329614687711,0.0840886299224584,0.0890481656157371,-0.8912758783111001,23.168561935424805,17.822708129882812,-36.212982177734375,-0.022522276428320047,1007.7002121999691
1.598683837890625,0.030208894976601,-0.0096365009386092,0.055125674894452,-0.0065460754558444,0.0030937916599214,-0.0095584001392126,0.0840007421408473,0.0890100181746128,-0.8914574697078194,23.074148178100582,17.892967224121094,-36.46847534179688,-0.02262797635854848,1007.7002251692858
1.60875390625,0.0285040638200938,-0.008837240319699,0.0467196655988693,-0.0034112678840756,0.018347579985857,-0.0085727646946907,0.0839294021958704,0.0891077550784483,-0.8916390776380857,23.04320526123047,17.91039276123047,-36.577484130859375,-0.0227336916666674,1007.7002381404892
1.6188232421875,-0.0253913386270403,-0.0149904291871935,0.0299590849339962,-0.0033460212871432,0.0186184234917163,-0.0130109228193759,0.0838816273031219,0.089325293456278,-0.8917556321468385,23.196741104125977,17.709449768066406,-36.74069213867188,-0.022839399285841073,1007.7002511107492
1.628892822265625,-0.0600994447190314,0.0107698158174753,0.0057557870477437,-0.0034524640068411,0.0130407996475696,-0.0146288545802235,0.0838226906773549,0.0895085423872804,-0.8919196610749448,23.298707962036133,17.924484252929688,-36.625885009765625,-0.022945109467996497,1007.7002640813237
1.638962158203125,-0.0306152107551693,0.0307378142215311,-0.0274853882968425,-0.0027331439778208,-0.001494466792792,-0.0103616714477539,0.0837682061536948,0.0895844203951519,-0.8920805075251212,23.269426345825195,18.01209259033203,-36.583038330078125,-0.023050817087170175,1007.7002770515837
1.649031005859375,-0.0166041479941457,0.0372477075722068,-0.0806494077295064,-0.0023966319859027,-0.0184990409761667,-0.0161783173680305,0.083729991229203,0.0894975236747192,-0.8922805245404198,23.177814483642575,17.998382568359375,-36.397979736328125,-0.023156519580380355,1007.7002900212148
1.65910107421875,-0.0382686481177806,0.0324592311866581,-0.0962947206288576,-0.0048488695174455,-0.0245476104319095,-0.0176449213176965,0.0836993663070469,0.0892786771196887,-0.8924769272178151,23.167165756225582,17.812698364257812,-36.580108642578125,-0.023262234888499274,1007.7003029924182
1.669169921875,-0.0362197527639567,0.0620198183223605,-0.0805716663181781,-0.0023344829678535,-0.0084231738001108,-0.0183231066912412,0.0836618041103284,0.0891293821106999,-0.8926173153506122,23.24586296081543,17.70782470703125,-36.49166870117188,-0.023367937381709454,1007.7003159620493
1.6792392578125,-0.0125042383946478,0.0568367896612733,-0.118785953900218,0.0016211103647947,-0.0086146555840969,-0.0161736700683832,0.0836214347385634,0.0890601166088898,-0.8927912723836626,23.25745391845703,17.78955078125,-36.848236083984375,-0.02347364500088313,1007.7003289323093
1.689308837890625,-0.0008787555959075,0.0279681303124874,-0.1427057586699724,0.0062866192311048,-0.0037044209893792,-0.0180407501757144,0.08363790938515,0.0890188732511089,-0.8929472295413254,23.439382553100582,17.920982360839844,-36.821868896484375,-0.023579355183038553,1007.7003419028838
1.699378173828125,-0.0167285050261765,0.0213090377494692,-0.0794762722969055,0.014016443863511,-0.0003610886633396,-0.0200770050287246,0.0837374220680766,0.0890030305014813,-0.893114911989985,23.608518600463867,18.02568817138672,-36.74874877929688,-0.02368506280221223,1007.7003548731439
1.709447998046875,-0.0366688117057085,0.0090099665381014,0.0019599018961191,0.0142988618463277,0.0083278249949216,-0.0155472811311483,0.0838416558031404,0.0890385117590412,-0.8933297951478709,23.138965606689453,17.788978576660156,-36.77066040039063,-0.023790775547349402,1007.7003678440328
1.71951708984375,-0.0218290430355817,-0.0020167466498911,0.058273909792304,0.0190278366208076,0.0179769899696111,-0.013086786493659,0.0839842319248288,0.0891906891737777,-0.8934602014582032,23.06455612182617,17.564117431640625,-36.419830322265625,-0.02389648060354133,1007.7003808139783
1.7295859375,-0.0252337369125336,-0.0113642015140503,0.0832838478863239,0.013034745119512,0.0247726496309041,-0.0130230206996202,0.0841148830508205,0.0893877360621153,-0.8936462083574132,23.031185150146484,17.818092346191406,-36.41549682617188,-0.024002183096751513,1007.7003937836095
1.73965625,-0.0177476189408451,-0.0018333529070019,0.1128407817602157,0.0030710604041814,0.0126094594597816,-0.009635480120778,0.0841714395415822,0.0895875972038353,-0.8937731167025746,23.2735538482666,17.86945343017578,-36.38937377929688,-0.024107900967852175,1007.7004067551273
1.749724853515625,-0.0014445727851241,-0.036671442054212,0.101911391466856,-0.0062410598620772,0.0040555610321462,-0.0107289217412471,0.0841129927808659,0.08964942003893,-0.8938812099852301,23.113187789916992,17.668861389160156,-36.74038696289063,-0.02421360089808061,1007.7004197244439
1.759794189453125,0.0007428542565554,-0.0418733215462416,0.0863069950997829,-0.0041081337258219,-0.0093324165791273,-0.0152136841788887,0.0840094293680306,0.0896237480780764,-0.8939630614862804,23.181171417236328,17.515625,-36.742950439453125,-0.02431930851725429,1007.700432694704
1.769864013671875,0.0015912877794355,-0.0415973541490733,0.0956014776676893,-0.0132940961048007,-0.0103359911590814,-0.0166410245001316,0.0838998525237508,0.0895357461634726,-0.894094176220024,23.208576202392575,17.668922424316406,-36.81948852539063,-0.02442502126239146,1007.700445665593
1.77993310546875,-0.0357042775224894,-0.0731499918848276,0.1240969197899103,-0.0125193828716874,-0.0077066523954272,-0.0141198094934225,0.0837335602118058,0.0894459344816575,-0.8941762021408668,23.344846725463867,17.647010803222656,-36.74655151367188,-0.024530726318583388,1007.7004586355384
1.790003173828125,-0.0426018550164997,-0.0816023976054042,0.1003273371458053,-0.0117267435416579,-0.0061872173100709,-0.0136980265378952,0.083588303824442,0.0893848025572797,-0.894224466344261,23.218339920043945,17.402626037597656,-36.837432861328125,-0.024636441626702307,1007.7004716067419
1.800072265625,-0.0089919194247573,-0.0639704409334808,0.0655851095885038,-0.0160447917878627,0.0045999167487025,-0.0075088394805788,0.0834479105883837,0.0893743979733313,-0.8942500481343101,23.2231388092041,17.42388916015625,-37.040802001953125,-0.024742146682894234,1007.7004845766875
1.810140869140625,-0.0079968439728021,-0.0241252642139792,0.0575537788242101,-0.0182787030935287,0.014642784371972,-0.0020942068658769,0.083283731414788,0.0894707869325621,-0.8942976101773743,23.03764533996582,17.615097045898438,-36.849517822265625,-0.02484784661312267,1007.700497546004
1.8202109375,-0.0213875828783959,-0.0160843619037419,-0.0064782561033964,-0.0162357911467552,0.0152254831045866,-0.0001173424534499,0.0830959546949893,0.0896306193012053,-0.8943694537793355,23.038612365722656,17.94733428955078,-36.764739990234375,-0.024953561921241586,1007.7005105172075
1.8302802734375,0.0003345657166093,0.0062139791440218,-0.0921539675623178,-0.0041187582537531,0.0135888690128922,0.0028715841472148,0.0830196218927286,0.0897966094806933,-0.8943443850029612,23.166343688964844,17.722267150878906,-36.948150634765625,-0.025059269540415263,1007.7005234874675
1.84034912109375,0.0243076350435614,0.01659384579584,-0.1618570338636636,0.0067109856754541,0.0091616306453943,0.003244693391025,0.0830558720122709,0.0899013160134829,-0.894301906589411,23.16080093383789,17.696090698242188,-36.831451416015625,-0.025164972033625443,1007.7005364570986
1.850419189453125,0.0096055212784558,0.0126883627898991,-0.1549807183533907,0.015755197033286,0.005360553972423,0.0039329826831817,0.0831768357765317,0.0899675807930662,-0.8942291437708099,23.30983161926269,17.706016540527344,-36.823516845703125,-0.025270687341744362,1007.700549428302
1.860488037109375,0.0172132928684353,0.0107833328861743,-0.1084878472477197,0.0210378430783748,0.0003002816811203,0.0091953882947564,0.0833953191574768,0.0899870372177759,-0.8941084607993746,23.14608764648437,17.440536499023438,-36.667572021484375,-0.025376389834954546,1007.7005623979331
1.87055810546875,0.0422666317127645,0.0034205490332096,-0.0905330883622169,0.0196961425244808,-0.0050156540237367,0.011605548672378,0.0836524991284857,0.0899209153713892,-0.8939025803868453,23.044403076171875,17.425331115722656,-36.626007080078125,-0.02548210514307346,1007.7005753691366
1.880626953125,0.0390815719358623,0.0136145377241075,-0.0510351907104253,0.0096147460862994,0.0039477469399571,0.0077295852825045,0.0838534791935984,0.0899114552328865,-0.8938226677989445,23.019216537475582,17.50426483154297,-36.962738037109375,-0.025587807636283644,1007.7005883387676
1.8906962890625,0.0070046180650591,0.0102435269210487,0.0273106162518262,-0.006339875049889,0.0076424055732786,0.0050881220959126,0.0838760092404667,0.08996334949544,-0.8937037859637891,23.232257843017575,17.586158752441406,-36.581878662109375,-0.025693515255457322,1007.7006013090277
1.900765869140625,-0.0133087597105652,-0.0201576026920229,0.0496340917408466,-0.0126805948093533,0.0061241374351084,0.0052638906054198,0.0837816167557332,0.0900202974421486,-0.8936059867046426,23.204832077026367,17.592308044433594,-36.878448486328125,-0.025799225437612743,1007.7006142796022
1.910835205078125,0.0217857884157449,0.0024677783530205,0.0086018241286277,-0.0135322008281946,-0.0067683816887438,0.0025908099487423,0.08364688486508,0.0900111242770549,-0.8935053300580809,23.119457244873047,17.523941040039062,-36.615081787109375,-0.02590493305678642,1007.7006272498621
1.920904052734375,0.0327716581366956,-0.0087634444311261,-0.0240782102018594,-0.0133487079292535,-0.0203923135995864,0.0021063806489109,0.0834928927911603,0.0898805568926129,-0.8933814759051657,23.0760440826416,17.263275146484375,-36.775299072265625,-0.0260106355499966,1007.7006402194933
1.93097412109375,0.017175737337023,-0.0153359546892344,-0.0298871887415647,-0.0032841833308339,-0.0308346413075923,0.0008391314186155,0.0833869019394438,0.0896064909415531,-0.893308250282264,23.22759246826172,17.57598876953125,-36.687103271484375,-0.02611635085811552,1007.7006531906967
1.94104296875,0.0298059401988983,-0.0128127198219299,-0.0239525379955768,0.0047164857387542,-0.0268787816166877,-0.0019750311039388,0.0833847906604916,0.0893235188736929,-0.8932831724990234,23.326810836791992,17.65924072265625,-36.925140380859375,-0.0262220533513257,1007.7006661603277
1.95111328125,0.025915581696853,-0.0155642835523933,-0.0072001406371593,0.0056046079844236,-0.017557106912136,0.0007367650978267,0.083440091088608,0.0891086739389767,-0.893236601831762,23.21356773376465,17.61286163330078,-36.53536987304688,-0.026327771222426365,1007.7006791318457
1.961181884765625,-0.0341973800908774,-0.0332652138072997,0.038299627777934,0.0090733747929334,0.0001060436479747,-0.004930973984301,0.0834968675218827,0.0890433748071638,-0.8932477009892031,23.17991828918457,17.7286376953125,-36.425872802734375,-0.026433471152654802,1007.7006921011623
1.971251220703125,-0.0622353607691824,-0.0265340058561414,0.0504758032619953,0.0095816049724817,0.0027716718614101,-0.0071814930997788,0.0835731789455954,0.089080413576138,-0.8933514493292373,23.04710960388184,17.679946899414062,-37.141937255859375,-0.026539178771828476,1007.7007050714222
1.9813212890625,-0.0392930957946926,0.0046830432496964,0.0704214437037706,0.0071136532351374,0.0009569940157234,-0.0023838083725422,0.0836745091471873,0.0891070195723842,-0.8934844723679892,22.83874893188477,17.69524383544922,-36.987823486328125,-0.026644894079947395,1007.7007180426258
1.99139013671875,-0.0251874866180121,0.0359596405230462,0.0610316840678453,0.010519303381443,0.0027799280360341,0.0015579364262521,0.0837666222929812,0.089149755592945,-0.8935931893924405,22.734495162963867,17.5643310546875,-36.963775634765625,-0.02675059657315758,1007.7007310122568
2.001460205078125,-0.0440529306076467,0.0085343849156051,0.0215641815543174,0.0097347367554903,-0.0027357451617717,-0.0001424918882548,0.0838695563908254,0.0891824136293245,-0.8935921869110338,22.92160415649414,17.34722900390625,-37.07028198242188,-0.026856311881276494,1007.7007439834603
2.011529052734375,-0.049758302642405,-0.0194121180869638,0.012708090403676,0.0043071368709206,-0.0096614062786102,-0.0013797315768897,0.0839497694149902,0.0891388517688606,-0.8935924744687647,22.886558532714844,17.357376098632812,-36.891876220703125,-0.026962014374486677,1007.7007569530913
2.02159814453125,-0.0663472530674189,-0.0179311588142067,0.0195382286846637,-0.0084022665396332,-0.0144186103716492,0.0009033964015543,0.0839481951340823,0.0890290915252163,-0.8935350783464714,22.96152114868164,17.30731201171875,-36.727325439453125,-0.027067719430678608,1007.7007699230369
2.031668212890625,-0.0894707198277115,-0.0024240122765302,0.0636386516958475,-0.0242673382163047,-0.0130407996475696,-0.0012758048251271,0.083774112099262,0.088897573502467,-0.8935571672316623,22.65736389160156,17.275527954101562,-36.892120361328125,-0.027173434738797523,1007.7007828942403
2.0417373046875,-0.0905140914008021,0.0180184717714786,0.0789163003265857,-0.0251594968140125,-0.0098559251055121,0.0019591371528804,0.0835231862048155,0.0887722835924623,-0.8935868970686885,22.67645263671875,17.438026428222656,-36.65347290039063,-0.027279139794989454,1007.7007958641858
2.05180615234375,-0.0662528527822345,0.0045677463069558,0.0496942974954843,-0.01456896122545,-0.0062488145194947,0.0048390580341219,0.0833258455968425,0.0886611704070949,-0.8934836084098007,22.851303100585938,17.26573944091797,-36.41305541992188,-0.027384842288199634,1007.700808833817
2.061876220703125,-0.0539576540283858,-0.0001779138501733,-0.0206961665481328,0.0051149949431419,-0.0004372643306851,0.0076002236455678,0.0832689635991077,0.0886120658153253,-0.8934402727943943,22.82694625854492,17.459693908691406,-36.931549072265625,-0.02749055759631855,1007.7008218050204
2.0719453125,-0.0627615766003727,0.02886317945607,-0.0621200638264417,0.0262733586132526,0.000225172843784,0.0106910243630409,0.0834385715488602,0.0885954193804332,-0.8933010030222316,22.8865909576416,17.280662536621094,-36.424407958984375,-0.02759626265251048,1007.7008347749659
2.08201513671875,-0.0643921004116535,0.0358695510867983,-0.0409171167999505,0.0311887562274932,-0.0081464741379022,0.0085778050124645,0.0837420892390286,0.0885345962895693,-0.8932215754747872,22.90259552001953,17.415618896484375,-36.93185424804688,-0.027701975397647648,1007.7008477458548
2.092084228515625,-0.0830408329106867,0.020715967227146,-0.0013175123393535,0.0254040211439132,0.0008237492293119,0.0066313631832599,0.0840442289931803,0.0884849869219629,-0.8930881967589461,23.161460876464844,17.384689331054688,-36.697845458984375,-0.02780768045383958,1007.7008607158004
2.1021533203125,-0.0523348751321434,0.0299456409305334,0.0589648146659135,0.0087462160736322,0.0022687800228595,0.0001305872574448,0.0842384046516352,0.0884987027872096,-0.8930120479252482,23.06764030456543,17.365577697753906,-36.832305908203125,-0.02791338551003151,1007.7008736857459
